[
  {
    "lat": 43.549313,
    "lon": 3.70798,
    "name": "Cournonsec Monuments Aux Mort",
    "url": "https://lh3.googleusercontent.com/-3x7StALlGVij8tv6ZrlZJ_OgQFlNx-QKBOaqJ4xtjyaw5TbJ4awcyLYlXGme68EgoiX4mXkGdmO8lsARjxoN-LrlQQ"
  },
  {
    "lat": 43.550816,
    "lon": 3.709148,
    "name": "Vieux puit",
    "url": "https://lh3.googleusercontent.com/Qz_C5e1OZPk62UDlD4O743exUK1dRpC0tmXjedcFTxk6rp0H9ruOySHuBxwa92UVbXSyvHy78WIZtUf54wYeo4h-GSERI21_xKExDZo"
  },
  {
    "lat": 43.54981,
    "lon": 3.714944,
    "name": "Coccipierre Verte",
    "url": "https://lh3.googleusercontent.com/rs4BlXTnBeHTsetPgjWkz-WtVf3FeHFCO-8J7HUhXnAYYPABw-Y2zeSOYYaUHMFkxXWOgbcUWsaYl7VB-PQRBoOxncY"
  },
  {
    "lat": 43.557022,
    "lon": 3.716934,
    "name": "Temple De Cournonterral",
    "url": "https://lh3.googleusercontent.com/g3sDnIaSw8vG43jI8NYBi_h-xxUjOZp2Zp9Bo4uky8aNWu6Xs6ibDphgqSt71zXLclDvOfy33UOvRMZRYOp3JcR0xeAP"
  },
  {
    "lat": 43.557415,
    "lon": 3.715493,
    "name": "Croix",
    "url": "https://lh3.googleusercontent.com/Szd2L9R5CtfzFbsEvcSJPeYGoNpsUayB8uabM1cmml8jyG5kTaXbXQ6hs06-DLKpvuQbTK68ihFkGZt2g1xVzT2CGA"
  },
  {
    "lat": 43.556385,
    "lon": 3.720216,
    "name": "Aux Morts de la WW I",
    "url": "https://lh3.googleusercontent.com/-tAbAFOE6yqsUzRFX9m4Qhk_rN7yGcHYZIsNECbu4I94BYyjcwPlCF58q3sWqTJ_Fd-kXD2WWlGqZp9vXZXS2nzuHA"
  },
  {
    "lat": 43.55489,
    "lon": 3.722001,
    "name": "Memorial 14-18",
    "url": "https://lh3.googleusercontent.com/aEO_AU0EonRSvo9Tj0oJfXB1exA1k4NfQODpSQmL7A3L553s0pyKDAfYGXSvKjTUGZNfmgQTg5uCbIy5hPrnwSdBfg"
  },
  {
    "lat": 43.553024,
    "lon": 3.727163,
    "name": "Piscine Poséidon",
    "url": "https://lh3.googleusercontent.com/sOk8D10-tgprofcJSN_GLyIt9CZnM-zaSJEayxNgqiJ7HqWq4PsYPzM6u0Y75KjKXeH5A1Gkn5I-edgxgPECIoWXuJ8"
  },
  {
    "lat": 43.566616,
    "lon": 3.726232,
    "name": "Cournonterral - Mosaïque Nd de Fatima",
    "url": "https://lh3.googleusercontent.com/QTuGhNK1AiML9r6HkD_kM3ic-7jda6DorPyn7ezIP-e2vCmJ7oPSUJ5csLDxXLlQHwVWgiFbcxcqWPSNk2yVHIEXk3Tir5kJZ7Me4ALujw"
  },
  {
    "lat": 43.56648,
    "lon": 3.731206,
    "name": "Les Jardins d\u0027Hélios",
    "url": "https://lh3.googleusercontent.com/y0b9lZ5pPOSZMm_OelglT6C7PB-StzuEh_5b9ywxsquEEkI-DCHFAUUxzGlXzBbU-cKreOD7ibu9eEe_mazUdlRzAgc_7JYuWsDVWJc"
  },
  {
    "lat": 43.56004,
    "lon": 3.728482,
    "name": "Statue de Pailhasse",
    "url": "https://lh3.googleusercontent.com/Pf94usV8KlXD-143aIyt0stx8jWdW_bLie7216cj-bghEikBGOyMl9AUjm-z48VbBGo910uBgCmwgko4ib8mSNu1yw"
  },
  {
    "lat": 43.55836,
    "lon": 3.719068,
    "name": "Vierge de 1870",
    "url": "https://lh3.googleusercontent.com/FYvmTPw8BGZbBOCfuNRRBT9c5AkPDGYIq_adudWbGJcBkjftAcJBIbXe7qeC9a8orR5wm7xM9j7H7PY6-6YUdJQzBCkx3StZQFFugPU"
  },
  {
    "lat": 43.561256,
    "lon": 3.715088,
    "name": "Pont de Cournonterral",
    "url": "https://lh3.googleusercontent.com/qYQJoL9ni3v94oHT-HJ-A8rTib7u9-OV3m0r3Rgt6NfpdGkvvn2zaPaDnIY91AQlwbmsXb3VbjyUdYJv0N12QUb6SzzkiCGSWNVQieRG2g"
  },
  {
    "lat": 43.580772,
    "lon": 3.739364,
    "name": "Parcours de santé - slalom",
    "url": "https://lh3.googleusercontent.com/ep-VnmEI4mYsjSzH5eyPBjJpeIUVvKQ6nO3ddU7c9SEkDWkQfXXAXagTcbjdE9R4zIzd41uKdfaIyQ2SzlJHCZtSXzfu04x6wBWOfyjeKw"
  },
  {
    "lat": 43.581623,
    "lon": 3.739694,
    "name": "Parcours de Santé - Dessus-Dessous",
    "url": "https://lh3.googleusercontent.com/kCkhugkkQX729oP2P1ClnbB3RcCL5gySKRbHsH83WK4z_myDxwqPW8WZ3QT42cpzT9OpuBl97WLfboUefeJhGG8T_b1Iw9z17RO9Ocg"
  },
  {
    "lat": 43.596664,
    "lon": 3.726692,
    "name": "Pignan - Foret Des Blaquieres",
    "url": "https://lh3.googleusercontent.com/Hq3_hL2QRCsWpKX4WK_7LQozDC5oX_qvMtwCAR1xHaerSqUrYy5pBdd3flPlOrIdzmMxlMKHUIhGy98J6z-IXTa0wy7E"
  },
  {
    "lat": 43.604263,
    "lon": 3.742598,
    "name": "Pont en bois",
    "url": "https://lh3.googleusercontent.com/XB_Raw8N74bUwHyN6eMaaAG7wkmGSNkae0I0fihwGUPJghfqvWzRysCPat5vDSGcIecGR3LrLI7Cm00gqDds801xjOS5kVYhQMVlE6vM"
  },
  {
    "lat": 43.60513,
    "lon": 3.735418,
    "name": "Monument aux morts",
    "url": "https://lh3.googleusercontent.com/vlcogS-U7lcWvj0GBIEsdlvgRnJz0Uh0hWe7SnsaSuDJstpcDtVGeUypRrF9-7piCRk4AwXOze-mXmcsVIICWH8iGE9W6U2GcbieB34"
  },
  {
    "lat": 43.604572,
    "lon": 3.737387,
    "name": "Musée archéologique",
    "url": "https://lh3.googleusercontent.com/xEfafDBXVu0vGG_30Ari4i-UZAACSliBZaR5yk2yxyjU0Fm5QNC5J2yNUUrrlEnPIbqIqpIOfhdpLYZ0c8AgllThJcsQJsKqsabr44CA"
  },
  {
    "lat": 43.605953,
    "lon": 3.737689,
    "name": "Cimetière",
    "url": "https://lh3.googleusercontent.com/Yc7gjpRxsEFPg1H2NtTlGVeRbwaujb5bFYH4LvpJx9Ge41raLyd5IDog4NkxD8so0PbtuqidNqBz1_duQ5SPJetEJYl0VREcWDkj1XehEQ"
  },
  {
    "lat": 43.609055,
    "lon": 3.733993,
    "name": "Colonnes En Ruine",
    "url": "https://lh3.googleusercontent.com/OpVaJXuEQydNzrvKI0kk5JozSJkuYZBwV_uD-g0QpYlAnpHJiTqJEZMQLsssI17mMssj6O-khFIdUP2pPQU7N1HBqlSgt306Vmfhm0wrug"
  },
  {
    "lat": 43.607002,
    "lon": 3.732731,
    "name": "Stade de football de Murviel",
    "url": "https://lh3.googleusercontent.com/JCzqbsJY-SP12cCp4NpPip7z8qu_mgkvh7vDbW9hTO2pUpGOXPf6RcA1bDynl6qgW60CR8WqTkfbkb-gfJJwVFLQRA"
  },
  {
    "lat": 43.66773,
    "lon": 3.719594,
    "name": "Vailhauques : Le Stade De Foot",
    "url": "https://lh3.googleusercontent.com/KIkAMQIZxFQB9atRQ_6bujf1QIotFkWEJB_eHllVnH8sMnB-U0CGXy_0-FLamawDxkwRh906qRUl58UGAQ-vG409huDx"
  },
  {
    "lat": 43.666084,
    "lon": 4.018959,
    "name": "Place Du Général De Gaulle",
    "url": "https://lh3.googleusercontent.com/1MX1s4t8vIpvhT-5ICp5vzjMohiPJCfg44meXvjjUXsk24XI_OmW8T5-nsdHSReQf6qihOiDOG6cDiSz7QFtqEQUsTg"
  },
  {
    "lat": 43.66792,
    "lon": 4.020928,
    "name": "Complexe Sportif Baillargue",
    "url": "https://lh3.googleusercontent.com/0wjxDCYEC3lNUHQ35H0yof7EfOZeXX9q8UMqGNMB9xQJ6zwZycJit8HRIrpZFsxl8XUBcl4SxIzoUOlfXeROk58xdTga"
  },
  {
    "lat": 43.667156,
    "lon": 4.01468,
    "name": "Baillargues Ancienne Croix 199",
    "url": "https://lh3.googleusercontent.com/HMfE0LJQznD-Uri5uS7vNRd8DDB-IZPyTmCEWjpCj3XgUtgPuwNJDZTGGG0nPwEVJposzB1l35R17hr3nAibVb1sdw"
  },
  {
    "lat": 43.665257,
    "lon": 4.008715,
    "name": "Résidence la palmeraie",
    "url": "https://lh3.googleusercontent.com/ZCUP5A4ongi2Ll2muJ_TSRBdhjTmZ_W0dIfuzE_TL23x_Y0QHX_rAftkW9FTkQjZpuXzR4xnGX5q2jBXaXBZRnq8UMpOGbqKpvQBnQ6x"
  },
  {
    "lat": 43.649982,
    "lon": 4.000848,
    "name": "Mausolée Layrargue",
    "url": "https://lh3.googleusercontent.com/dROQSxfRw8KzI5nwJcys4AO-KIE1O3yiBXa28tYlmCC7AUAWu2Cn3Z8HLYF2mpvbULIb5w35BfpYgK1fz287xHkYk1Q"
  },
  {
    "lat": 43.652992,
    "lon": 4.006782,
    "name": "Tag ferroviaire de Baillargues",
    "url": "https://lh3.googleusercontent.com/Lh4WTMprnNlBA666-1ZFJpefecFwHPw3aA5ss7VRtT8OqB02e1Vg0xHkmHPotg5ZB2QbQj9e8iXG3m3evOqA-1wO3CAh"
  },
  {
    "lat": 43.65179,
    "lon": 4.005534,
    "name": "Art Earth",
    "url": "https://lh3.googleusercontent.com/fyQxwPYhS5XDO_UOK_p0p5ppajGQQp4JgMzVdxEhMk5lRGUNpcRRpfCHzkGNDFXiMDQyjpJtvHzH2IETzkUBCS7Gpg"
  },
  {
    "lat": 43.65793,
    "lon": 4.012369,
    "name": "Rosace Et Fronton En Bas Relief",
    "url": "https://lh3.googleusercontent.com/V0uExDOb_FZ-LrtuOjbsEcEIKc8iHJVLYNqaJ_a2e9v2Da-ZdfIJ87BtA6rGt0_PdnTlSCdJ4-3kPydyfyhsQcB9acc"
  },
  {
    "lat": 43.660305,
    "lon": 4.011596,
    "name": "Croix - Souvenir De Mission 1898",
    "url": "https://lh3.googleusercontent.com/2gDcKXJd_We-b2lcMK4HjbwnXjdBa-tI5Rz--KStRRXrM_PsmmIFIBwK5tb7wZxOj0BQIzUhRF7Dz9o7LJ3jJTKGU9iy"
  },
  {
    "lat": 43.66036,
    "lon": 4.013238,
    "name": "Baillargues - Le Boulanger",
    "url": "https://lh3.googleusercontent.com/rFZytY69YQiWvwi6FOnG-3U56xt-cDNeRkVNrI6oCaNgxaviX9ScyT90-FwijwdHT_fpuDBowkwkspWVjrehcN7SDYE"
  },
  {
    "lat": 43.659386,
    "lon": 4.013726,
    "name": "Poubelle Jeux D\u0027école",
    "url": "https://lh3.googleusercontent.com/zKe6hdXDcITHTSC2ttu97FhbszK-PtyODBci5JHdE7UZfW0V83iUrnAr_6jt0uMqzc3EhRztOCpmzWbej3KfOKz02MU"
  },
  {
    "lat": 43.66149,
    "lon": 4.014974,
    "name": "Arènes Municipales Baillargues",
    "url": "https://lh3.googleusercontent.com/u6lL3uQ-hfeJoZdS8-CS1M-yEJrEkczyfMMYAFxnaGcMtBgygXOwM1nwaHgjWCo8f3Syy6tnFa6N49vfQWnibyYhm0I"
  },
  {
    "lat": 43.65996,
    "lon": 4.018925,
    "name": "Abeille de la fresque",
    "url": "https://lh3.googleusercontent.com/Jt-mJk-kC65OqP6IlXnfrHrk0e0ZPkSBe1eSyAIlW3hiMEQfx4IJZIqCFe2IgBqccej1HnOa41vRGMpDKXDsjx5BAxdTOj2w9Joc-kyNnQ"
  },
  {
    "lat": 43.645527,
    "lon": 4.037079,
    "name": "Entrée Cimetière Mudaison",
    "url": "https://lh3.googleusercontent.com/CyxpCn6H9siq1-Cg9yliHhWNAjMR-CSL0xrVahkzW_ZwWpxttA7NdO48ybGLERDtOsBVo3sHsmA5f2h5zimuAelPBIE"
  },
  {
    "lat": 43.64636,
    "lon": 4.040946,
    "name": "Boulangerie de Mudaison",
    "url": "https://lh3.googleusercontent.com/72OEo2jqTVbOPO0QOvUHXliFdykOEpNGVQHgEfn5d950ocHQXX9AkSDp4QoY80zlYigW1uq6N6r0t48AN_MgXrN62tI"
  },
  {
    "lat": 43.644077,
    "lon": 4.042892,
    "name": "Cave Coopérative - Mudaison",
    "url": "https://lh3.googleusercontent.com/7fLPkXNpPLhaf7Bw9wcRcXbApu4lIh0vH-asMNcHsZjlouqAVquoB4m4eQFmWYF_Lbu42WbZMFmsOX-xo47FVVUJGxU"
  },
  {
    "lat": 43.648033,
    "lon": 4.047093,
    "name": "Borne Jaune",
    "url": "https://lh3.googleusercontent.com/gBFBxEcfTpFM0pKuveSBCAShlPDg_U3KqhJwgSd5F8x6oy_4rBksdWZ-fx_FJAUQed80wrtQXTfHUIg0x6lcLGZ2uuY"
  },
  {
    "lat": 43.648945,
    "lon": 4.04132,
    "name": "Mudaison - Église",
    "url": "https://lh3.googleusercontent.com/1LwsEFdRmeR3wu1PcifA7xqzHcvpVmoekPv20FM6yhdWOPB3LyLNWSjrbp1NZmmC0vAbDcIpMb51SyyWMDGb5EBYNFQ"
  },
  {
    "lat": 43.64924,
    "lon": 4.040694,
    "name": "Croix de Fer",
    "url": "https://lh3.googleusercontent.com/Y-EYhW965IWx9xgkuxg7roxwdZTW7xSqEKSl1DU9iV7E-RBDQX9-QCay76EvhDZB5ogeU_1YwD7_O3255V8PNXD1SKY"
  },
  {
    "lat": 43.659145,
    "lon": 4.034782,
    "name": "Football stadium Saint-Brès",
    "url": "https://lh3.googleusercontent.com/ngk-CgXVq8jkEynUmgzXTMO6OXq2JlvWbg0TRQUtt2a52HWubMMhQA1u37ASMb8QPpHUz3isGXj0QVtkUrwXhcOX2g"
  },
  {
    "lat": 43.66317,
    "lon": 4.029807,
    "name": "Pont Du Berange",
    "url": "https://lh3.googleusercontent.com/jKai9__7zfKfFf02ibUyzOe9P6qlW9IetqNTjDe1Kj2YBrCsnbZnJJl6ARspYOluQeMEEnDwbmylKevmEQmmLcD1CkE"
  },
  {
    "lat": 43.663082,
    "lon": 4.030099,
    "name": "L\u0027escargot De St Bres",
    "url": "https://lh3.googleusercontent.com/vjtXczy2YhVJwWAv5ob9w2myVQW-l_Wf8WXOE3CtGUn6U6G3r0eXTzL4yDDtVb5DxyhT1FyBqG_HL4v_77aJJckKOhLa"
  },
  {
    "lat": 43.663696,
    "lon": 4.035828,
    "name": "Croix Chemin De Valergues",
    "url": "https://lh3.googleusercontent.com/alPPCdt3u30J0DSxjNeKKjij61yDG4kpFLfrS7Z7omuH_Sw02XFeB3EgfagHx6Rmsd8r1dgvJEV0BVy36V3IHxsImg"
  },
  {
    "lat": 43.66716,
    "lon": 4.038591,
    "name": "L\u0027Antiquité rouge",
    "url": "https://lh3.googleusercontent.com/Rfy55P240iww7B_hnGdHoLGJhMJ2E_euFBDugvNruA6Uwgu15Bnrvmpv9hR5olidGwPO2VhiSI8MwPeV2jU8Uh8Z_vc"
  },
  {
    "lat": 43.671852,
    "lon": 4.033195,
    "name": "Club de tennis Nathalie Tauzia",
    "url": "https://lh3.googleusercontent.com/4qXXg62AGHyrV2MFuWE9gE5dI06nX3rFTH7YZaO0FMo4bW-Bq3k8Wr0D-YAL9Z59vdkcQ6T-DBR5Dk8B2SZfVeNcMs4"
  },
  {
    "lat": 43.665455,
    "lon": 4.057154,
    "name": "Croix Avril 1905",
    "url": "https://lh3.googleusercontent.com/fyzxWZVo1G6rP0IvTssaYm4uS-YGN-bt67rqVNKbNXvRZfRT07dMvjt1ppKogUuJYOBcG5g2S2CTeOByocHLBT9BydU"
  },
  {
    "lat": 43.667385,
    "lon": 4.062185,
    "name": "Valergues - Clocher",
    "url": "https://lh3.googleusercontent.com/ZaMv6l2iOlivTkyy6S8Th5lGXVsmDykneG9al7Bkq3Y2A-qinpoQcaNldxCL9OuvLhDoXdBoLnNzYLYtioSrf03VHJA"
  },
  {
    "lat": 43.667152,
    "lon": 4.061852,
    "name": "Valergues - Eglise Sainte Agathe",
    "url": "https://lh3.googleusercontent.com/smXpobHvqSpQJykuBsBGJTr-DCg8qP7bAf1arsnBfCwAeVWKkQjnqvG3XGfWLQe5fe0t3BKIaZJgpTmspoWmGi8u0xY"
  },
  {
    "lat": 43.666176,
    "lon": 4.061192,
    "name": "Salle Gabriel Masini",
    "url": "https://lh3.googleusercontent.com/CHOnUAhGhMSS9QFhiU7QzscMe2fqGibK0Xt1iAZ0fHeeK4jPJCO8B84toNPGz_cYUDuoxvvrS6ECpo33z-5p2oT3F7qkxIDcBEXcjHo"
  },
  {
    "lat": 43.659443,
    "lon": 4.056802,
    "name": "Les Petits Fermiers",
    "url": "https://lh3.googleusercontent.com/C0mPwvBfI1kBzWLzfsHwwHgzIYsTDQ_UAZwsirZ57qFKKqSm1VV_k31jqmOmo76yKEvL7ScbOfRhrK_j7KtIjJSg-w"
  },
  {
    "lat": 43.64173,
    "lon": 4.040392,
    "name": "Skate Park Mudaison",
    "url": "https://lh3.googleusercontent.com/6-eyv1wjpEccrZxK6lT2vqM7mlXRym7Pyw2OG_vSavEAdTdFaE0vOsdkHEyqEmNkDSmt67-a9eLUR1O2iE0Pxos05Q"
  },
  {
    "lat": 43.621193,
    "lon": 3.997214,
    "name": "Fontaine aux multiples visages",
    "url": "https://lh3.googleusercontent.com/8DeUbtV-etHNUo3SncXXGCffmhhh1pLwCTAPw3tNh3uYVjf7O7qL7AYeip-HXAufGqU7dB7JV_GV9B19u9g0jscX_g"
  },
  {
    "lat": 43.616528,
    "lon": 4.00184,
    "name": "La Fontaine au blason Melgorien ,",
    "url": "https://lh3.googleusercontent.com/V5fr_Wl-HYywPVirDASs0XsTJwbyUClJnDMRdTIxlZIcjqQz2FefryBpd_Uz4AEU-A20i4G6jaFN5njoBPpBIRFGk3U"
  },
  {
    "lat": 43.621616,
    "lon": 4.005247,
    "name": "Le menhir de la capouilière",
    "url": "https://lh3.googleusercontent.com/a7m3qROZC8-F74V9nLT1BYJqim24GClkza7XIhqzXBixY0LdmUNmOMwAOq0QnRnsQqO-O2C4HECZAx4gioE57k6Fdl0"
  },
  {
    "lat": 43.615864,
    "lon": 4.007266,
    "name": "La crucifixion du Christ",
    "url": "https://lh3.googleusercontent.com/LER5TzNknXcnNCxv07ZTUxrWxSnkZnffuPqSoYpn3kUTLRpPhu4Qq7GCuLxavr-VBnMh4jDnCjAB23AOrNHq00lf5_rv"
  },
  {
    "lat": 43.61834,
    "lon": 4.007546,
    "name": "La Croix Des Muriers",
    "url": "https://lh3.googleusercontent.com/YqH8NWJo-dGXwh_q3duiqBYakWE1i3xNphR_RAmbCTTo6JFVHyjuTzR_UgUxd10Z7DLe8opy3N8OKeHl4-wnTLdxdDM"
  },
  {
    "lat": 43.61502,
    "lon": 4.006159,
    "name": "Mur Aux feuilles de ginkgo biloba",
    "url": "https://lh3.googleusercontent.com/xZytAvdW3KK04NxawTjffgX7EUb86S5jcr7F2-KYIPsGJj6-8RcFlMZkSsx9CWfmUmiZaJPJwabF8dhxh5idguAb4MXC"
  },
  {
    "lat": 43.615448,
    "lon": 4.005561,
    "name": "La vigne grimpante",
    "url": "https://lh3.googleusercontent.com/8V7rsyvSOzKr71SClotpUSUj7w3Ad_fg-kgOK3wgvAX-8U-TNGa-OQRJczpqcYmQNs3iq6k7A5wzzmcQO4vQ5AYIIEQ"
  },
  {
    "lat": 43.610325,
    "lon": 4.011079,
    "name": "La Vierge des cabanes",
    "url": "https://lh3.googleusercontent.com/OFKUR-wOG18DA2p58PJZzl3VDFLMYylziMQf-iEg07dTaX9C5P-utt8iIRyjvqdJAwHfiABHj8lBiJNhLmzT1mUuuQ"
  },
  {
    "lat": 43.60958,
    "lon": 4.013251,
    "name": "Rampe taguée du Skatepark De Mauguio",
    "url": "https://lh3.googleusercontent.com/7UnAP4a98eu5aOUJtGfOLN4eQqwlwn71hQz0j23ChxFsZOdwraEWoMVrapLXsVzXpAeRHoDQqjKgTsZ9JLfkYzMCDDv1"
  },
  {
    "lat": 43.61465,
    "lon": 4.012101,
    "name": "Ancien lavoir de Mauguio",
    "url": "https://lh3.googleusercontent.com/_Gob0cFNSdKWbnPOKweOaPiVBnMJ739T9tmMDZl0SJPnUvM3k_o3niYVvAQR4L-aZKLNydmEE03IISz2-jS_P-uXsMM"
  },
  {
    "lat": 43.61477,
    "lon": 4.008566,
    "name": "Taureaux",
    "url": "https://lh3.googleusercontent.com/dQLSCFyoNMxIUGPhnKbqcbJd5u_ythbIW-mslUmxWpkR8Cp82rfmf35-1me-eq4rJVfCt1pb5-7O5XVojOfvxeHMjgBWEFpc6LeNXrpz"
  },
  {
    "lat": 43.610764,
    "lon": 4.015855,
    "name": "Terrain de Football",
    "url": "https://lh3.googleusercontent.com/XnvtPKvxFpKw_uklb3eAZLR0b-IYzmDzc_UdC5dt3dKguVteRdDBZylQxmMG1LsepplEfwMFGhwQI4pxsW36vmOathw"
  },
  {
    "lat": 43.61168,
    "lon": 4.014717,
    "name": "Courts de tennis de la Plaine des Sports",
    "url": "https://lh3.googleusercontent.com/zjNqb4CcIHH7qSwWJm_nE2EKueTsc1GicugPeVA5cOGq0RFVvgJCQp-6zEWB0oxh9gQUbLQCJKcwSgLXRWJ5CK3XyskP"
  },
  {
    "lat": 43.60884,
    "lon": 4.015581,
    "name": "Arbres des Morts pour la France",
    "url": "https://lh3.googleusercontent.com/jp1oZyDHDghGllcb5eo1AvQwvWbC5gr22fBd5WuhqCP0P0oyyOfZryqUgNewb2r5wYgvm_l6eRDsZD-HVArn4_qeeFc"
  },
  {
    "lat": 43.6102,
    "lon": 4.013993,
    "name": "Chaise de musculation",
    "url": "https://lh3.googleusercontent.com/K4QGtcUMgRJa5zdvsD6D_yhX-BIatjNQTdApJdBcSl8NNgKR5xX15NTT-tPOUq3aUEBmCq2Yg4HHiQWpZVIYlhUXGZsZknnCUQ5zeZ4n"
  },
  {
    "lat": 43.61065,
    "lon": 4.021077,
    "name": "Cimetière de l\u0027allée du Bois",
    "url": "https://lh3.googleusercontent.com/dwbz7OJPYNFGqIvr4yRZNV5WFxUfmRlNC0CX5hitmB5vuEv59iL8BnBf2Zxb6WgQpeg2BZXIGe7S6E1uFOYuj3wmJQM"
  },
  {
    "lat": 43.619724,
    "lon": 4.020512,
    "name": "Aire de jeu et de détente",
    "url": "https://lh3.googleusercontent.com/TjKDBT-VlaQJAVAfKR6CZ_epKQEIv9FzQAsZWZjGfK9PtqJHqUFEVRtzt02rl55_4WQftLoj8nxhTcR1PStz20sJEx3L6tAVYyoAkHc"
  },
  {
    "lat": 43.6208,
    "lon": 4.015976,
    "name": "Pétanque Sallende",
    "url": "https://lh3.googleusercontent.com/nN5SBoOAxQFeXaRGaxEr_k1t8Fz4_w5pC068qQNH04kpXoYO65OnZODGM-r-wHdrBLPYsR8PFaEJUw-AVd3kTuHuu67HMjw01AuZcoA"
  },
  {
    "lat": 43.616005,
    "lon": 4.01195,
    "name": "Théâtre Bassaget",
    "url": "https://lh3.googleusercontent.com/EW_NnYxrwzFi1O8FMS-WWUSzWKx4Zf3eimztcf5DR4SSjEFlmsqDPlboB7k4zJn5FXJaPdzqasXDzmkNVWyyveYRN1g"
  },
  {
    "lat": 43.615513,
    "lon": 4.009753,
    "name": "Tour du Jardin de la Motte",
    "url": "https://lh3.googleusercontent.com/OX67v_rBBO1J37xlFyjwXGopuOZ0mLQQMq5OsjQ2VHLw8h6LwYXXicPOTJnOXeNhJ2i4rloGbrIum9adnpVuSy5Cfw"
  },
  {
    "lat": 43.624462,
    "lon": 4.008374,
    "name": "Pétanque de l\u0027Agora",
    "url": "https://lh3.googleusercontent.com/ueurd8tOnmD2AwC1TLDmtkMzItp_7eFKNtzpCBpQ2cX2OCVscIR3B-A7k37MVKCb_UgXswF75TRXFi3QNrWQRqOS6HMt"
  },
  {
    "lat": 43.63852,
    "lon": 3.970565,
    "name": "Espace Jeannot Bessède",
    "url": "https://lh3.googleusercontent.com/nphclV_H87D_PYkm_dHemeSUVmRjux3aZT6ZhCK5F4Kg-AjutD2asWOXQUls_GNSf7Nx8RozXOBJI_UfD2oLm47zUA"
  },
  {
    "lat": 43.64322,
    "lon": 3.96874,
    "name": "Le Jardin Des 4 Vents",
    "url": "https://lh3.googleusercontent.com/UHMyWr23v8vubgZw33v4A6PGVYKk4ey3_f2GxcXgtChes3EzOlKVSGLXHcu4JQkxXKDKh4GnzuXxf4tJw9TBMmUTNZc"
  },
  {
    "lat": 43.6418,
    "lon": 3.965369,
    "name": "Saint Aunès Tennis Club",
    "url": "https://lh3.googleusercontent.com/MF8cwCmNSQ2_ujldsT4Q2eEasfUZFb3PoIfFv2t18oh_pzy-VbQ-iEYatqVdI6O2gTqwejWoNw8vkc0w7oBD1Lhpxk0"
  },
  {
    "lat": 43.64094,
    "lon": 3.964276,
    "name": "portique pour biseps",
    "url": "https://lh3.googleusercontent.com/bfUTNsmRK8MMdFI20UvhU4ZCjiPo2dp4AsvSt5zlCh35DMjCb2VMheILUsNP9wnhGBksIHgxPuso0---ztbzXMhyRihqrLZrWX5CPIKUaA"
  },
  {
    "lat": 43.636772,
    "lon": 3.96517,
    "name": "Fontaine de l\u0027âge d\u0027or de Saint-Aunès",
    "url": "https://lh3.googleusercontent.com/fuhJd1EvnFiDbmGaJp0PiO0AV9b1xC2j-60hukCkYZ5V8PwyXnmCXpXPpV3PBg7HBjUrdMQw5A1ACnrHucDfuzf07a4"
  },
  {
    "lat": 43.639027,
    "lon": 3.962947,
    "name": "Poste St Aunes",
    "url": "https://lh3.googleusercontent.com/_lG0ULAjIcZo0pMNCXuYV24zP-fMfntm_lEuQP1xQ_xPi3kzMaizjS2Ca1IRFbyeX2rI6ZkUlUy4j4o268NasQU8qzI"
  },
  {
    "lat": 43.641953,
    "lon": 3.955801,
    "name": "Parc Châtaignier",
    "url": "https://lh3.googleusercontent.com/AY0UssGvI4EJ6Tj2307COQ1kFOXkI-nT1F4BYEa9cxvs2-hjBLzxN5UTSkeWLyvDKK1Mv8Z-lzQ48WmYE1mkWj_ZhTg-BwFJWoCm4GzP"
  },
  {
    "lat": 43.63554,
    "lon": 3.964782,
    "name": "Croix Coeur St Aunes",
    "url": "https://lh3.googleusercontent.com/23oyg2R3jajnFRBqpVOMsdGBcS7VLaN3JHC_Gg6rEbtoJ3RAcnkJt0IxQOsrODZr0tHxQ32CJcwVit5hX8cQWS3xMfo_"
  },
  {
    "lat": 43.634743,
    "lon": 3.96488,
    "name": "Puits De La Mairie",
    "url": "https://lh3.googleusercontent.com/NyzOiPQnXj3eDM56gRkLleN_oKjdJ7u6Y48OTaKVdJ40YcCemWH5u6zfk-IU_K0LBX6kmzsrMx81KZ-MMCsVfLYKdI8"
  },
  {
    "lat": 43.57889,
    "lon": 3.958488,
    "name": "A la mémoire de Pierre Colin",
    "url": "https://lh3.googleusercontent.com/YJQN6yiFNTVEdYVkXodMVQKiyGPTRXUsflkCdr91YZECkTG8LcLqYANxKY3BziPb2ipXwnzgfC4crS0RB9d7O1MSipk"
  },
  {
    "lat": 43.578617,
    "lon": 3.959033,
    "name": "Aéroport Montpellier Méditerranée",
    "url": "https://lh3.googleusercontent.com/_cVFPdbKXang0PP4QAevijEuOZXWL4_VhRDYL-M5R7RdhHx-fYUmQzlPNiZ_EpqVs95EQlAwbjh3NMyAnbd_vx6tIes"
  },
  {
    "lat": 43.573,
    "lon": 3.950129,
    "name": "Parc Des Expositions De Montpellier",
    "url": "https://lh3.googleusercontent.com/5qLLeYvILsvX8HtCTOPQXwaHrxyddoidLoVVHpImWy50GtJMwGCwxLFQarL0Rhs4to7QkzLa9syjCfh_x0JizpW2qnwr"
  },
  {
    "lat": 43.573772,
    "lon": 3.950809,
    "name": "Arena Park and Suites",
    "url": "https://lh3.googleusercontent.com/o8hMtXDtItlzos5XVtzAanBH5tzOjElkGsMtyuCw7wVGxpdsX2oUdd7-G1TRfQRZBpCc0kHc9Qrtsjg9stftSxZZH-g"
  },
  {
    "lat": 43.59284,
    "lon": 3.958631,
    "name": "Poids-public de Vauguières",
    "url": "https://lh3.googleusercontent.com/TXLimZY2fWYQD7W_yOWCuLbaJU1oKpVcwFy_TEmbAq2b2fZBcHfP09zuFV6dh4PdjlogGoAHJJvsATK-keghw9oL"
  },
  {
    "lat": 43.59013,
    "lon": 3.932318,
    "name": "La Poste Boirargues",
    "url": "https://lh3.googleusercontent.com/5L7YcffaGEqLj5yeNF9WMhKga0r7lITM2WCFVCBTh0xzFZVwSAQxes8OO6H08oSehzGOZd8UKNinFT2buIEwFN-EBgm3"
  },
  {
    "lat": 43.587105,
    "lon": 3.939553,
    "name": "Création Métallique",
    "url": "https://lh3.googleusercontent.com/b_UqzB6pjVXyuGpuA6i1f81Hjth-Zqp9sqIVdIKw2ePwWvz9Tq4z8oYSZ2DTfJGbB9ihvZ_EY6rK1fbRWAK_zIhp1sM"
  },
  {
    "lat": 43.579468,
    "lon": 3.93963,
    "name": "Les corollys",
    "url": "https://lh3.googleusercontent.com/STvFWZLrhWfQEUW3GGAcMMdlOvuJQTKNjI2A2iJ749b5wGmBVhsc8lkrgbXPX8rPekPJQP_I6lO17BuV1KBk-0rshO0P"
  },
  {
    "lat": 43.580063,
    "lon": 3.937728,
    "name": "Colored Building",
    "url": "https://lh3.googleusercontent.com/_wW6XK8vIkzNorOwQuniRKiW3cNs5vMqLnx7pM-t0P89P9ypBVk_6H69Q7Xc2d6TsmBtrFb9Lev5n2lDxa6OGcIMcA"
  },
  {
    "lat": 43.581932,
    "lon": 3.942254,
    "name": "L\u0027Indien et son loup",
    "url": "https://lh3.googleusercontent.com/cO2hNQmJqbLtsBNU9-ky9gP9RCpCZav9XdDSizXI1Iu0sedSpemx6L5Y9sQf3hg5Scag9ZuMnRat32eeDe2foChSEpI"
  },
  {
    "lat": 43.570343,
    "lon": 3.945762,
    "name": "École Municipale De Musique De Pérols",
    "url": "https://lh3.googleusercontent.com/DS73mjrpMswC9owsqWEsOOihg6FW5-pvEx9_lg7sQ2N4UBeBZyNTZBMHxwsYm8eejLCLLavHolZb7UHWWpC3BL9Avw"
  },
  {
    "lat": 43.578564,
    "lon": 3.936671,
    "name": "Le Liner",
    "url": "https://lh3.googleusercontent.com/-bttmx4VWRiVBzHa2cy0XnsMWzPQSOxysbLCcgtVYyxsc-W60iRqNGMb4BUNKyyWyYfu8nFTMHQt6ZtUKWa-IkaypQ"
  },
  {
    "lat": 43.58195,
    "lon": 3.929879,
    "name": "Grand Sud Entrée 2",
    "url": "https://lh3.googleusercontent.com/tUAoLH56kV-kxnc83jwpS2pjAHDmheiEmUOP1_EWSZE8GWIDgSSAoMpeRKtru513cpJqC_6MHviyhGMhyyEmR1u_px8"
  },
  {
    "lat": 43.584118,
    "lon": 3.935671,
    "name": "Charlie Chaplin",
    "url": "https://lh3.googleusercontent.com/DtPMsQK0_D8d7c4emojql7Lqn--ZZAOHqzjKP9r-HJ82CS4JVrHvW3v3xutAmuLCyLTcqkkkV7GIUwpuAbCiMnPeRIA"
  },
  {
    "lat": 43.585068,
    "lon": 3.931994,
    "name": "Megazone Laser Games",
    "url": "https://lh3.googleusercontent.com/ZUD7pGT5-bq9noR1iJwUx9n447sFGMHY_3osI57rjnGFEnAE_luvXbFRc5J0szomyYhj4V2krd9n0kmQzdosnFG29wY"
  },
  {
    "lat": 43.587143,
    "lon": 3.929058,
    "name": "Grande Presse",
    "url": "https://lh3.googleusercontent.com/_0RPFTAmX-NMrdip0GCesFN4Ftij1LnS3PGQ7hKI8hmF-6Jm9APj0VDSmzqliKvcn4pMXxS81MSuNNQBXeXAkIgyR1be"
  },
  {
    "lat": 43.58709,
    "lon": 3.924778,
    "name": "Fontaine Bacchus",
    "url": "https://lh3.googleusercontent.com/Oj_tiZyRTOdKvzW2LNvqa5FB0yt0vuUcZSz8-bnEjmOQplDe4mjAK-PNnWhoPfZRDn_l__sdG7fkiqukc2QdPJRYUOs"
  },
  {
    "lat": 43.582592,
    "lon": 3.925699,
    "name": "Arret Tramway Boirargues",
    "url": "https://lh3.googleusercontent.com/ANBS6TUCS8TicRmWcsdxm-N4SLYntZeASX_kyMnCdPYEhJmWexBmTKtw97Jeq9wiBnwFirir_IDSe6kVSlAge59pmg"
  },
  {
    "lat": 43.57352,
    "lon": 3.918251,
    "name": "Les Jeux Du Parc",
    "url": "https://lh3.googleusercontent.com/JNS4i7QFfO_CeCUgrw5aeDHm8nxDH3K0_9MRaUYvRx14qb915107s-N5Rhp6wcInqBL4Kr5etgoJiz23xBCzNf-P1A"
  },
  {
    "lat": 43.571968,
    "lon": 3.915005,
    "name": "Sculpture Cougourlude",
    "url": "https://lh3.googleusercontent.com/jCWgYxExypoRzSCkdOzYSCMHj-sAJCJXET4Zrc9YT4OsWfbfKBkRXYsyvDctbGFn6NRZ3cCrO98Yl6T_FRi62KnrN1g"
  },
  {
    "lat": 43.57153,
    "lon": 3.907355,
    "name": "Les Colonnes Colorées",
    "url": "https://lh3.googleusercontent.com/FJp6ltA8e2Aa3krriw4V3Ecob4JncV1Yfm9GtESOgLFN1j_MYtHsl3EcdRrBGoeLv5G0F0stClZT6jFejJYc_OhoEMg"
  },
  {
    "lat": 43.57906,
    "lon": 3.907899,
    "name": "Transformateur - Les petits monstres",
    "url": "https://lh3.googleusercontent.com/8hYTuI5zAzmjRoZeUwp5zrrbmrFzxabEB82U5oIACIz6Jnz8PNvttxkSvXKoyhGQDCQzjkGGFDXsET3EKjCZ9CpjGQyXy7o57V3Qzyc"
  },
  {
    "lat": 43.588367,
    "lon": 3.915105,
    "name": "O\u0027liver Pub",
    "url": "https://lh3.googleusercontent.com/5kcyZPzEpgYvkhNZWyEiwtzFttsssTNQFUyTvZT0YOLsqorSY4dVDk5qH9vBuf8e32BbbQwVls1Tj28EX2vQWOWBQQ"
  },
  {
    "lat": 43.58903,
    "lon": 3.907672,
    "name": "Tribal Graff",
    "url": "https://lh3.googleusercontent.com/Ogkd5QUEz0AuNKsDa4miWZ5kFxXP5XlNWCrzZPKgSBEQllEudtss8n7l5BLp3RVQPpwLilhgRko7Koq5ZzAD57mwUEw"
  },
  {
    "lat": 43.589966,
    "lon": 3.910431,
    "name": "Salvador Dali",
    "url": "https://lh3.googleusercontent.com/sKCv3Z5eDHjk7JLqYrC_kl6g2fwOibjqyFD4wiHmBtaP8XMljMw2wpYEbw0ClrriJtltEHeEZ741NjNcqhWKWR1snC8"
  },
  {
    "lat": 43.5944,
    "lon": 3.915555,
    "name": "Cloud Tree",
    "url": "https://lh3.googleusercontent.com/H-1JakM25JOH_7raQ8Vb9FDwELlfKBcA1NkCfRfJOCqoo1SdjDtpYHBPPKwrXZPAS-MFLuVn8U0Swa6zF2QgWlOzOMSn7KiosMlTZ7ETQg"
  },
  {
    "lat": 43.58996,
    "lon": 3.921163,
    "name": "Grenadier commun",
    "url": "https://lh3.googleusercontent.com/FdovoYVzxJOH5UI2AnhOa0_Qya_2q5k4192iElvL3oqkstqHHzWN15Lb8pqUPJ1UOJ6eoAnbGw1_4mGn70SNuZW61Q"
  },
  {
    "lat": 43.5902,
    "lon": 3.924935,
    "name": "Bateau et Tortues",
    "url": "https://lh3.googleusercontent.com/_KuEmsSNK4gKIHjhrn2gnYmjGxPNeOKP1FezsqtWJ8W8w0MIQayEYi8TBXrWoSxTJVRaBvEfoy-_htQSmw0rrap9Pw"
  },
  {
    "lat": 43.59019,
    "lon": 3.926415,
    "name": "Aire de Fitness",
    "url": "https://lh3.googleusercontent.com/DTSzGhXM0jGUUAgIAW0PgR6fURolNFz8L3Dm0XlQ0cZ_ShpbQI_PELJHTjyn9PaUGGHA-GZiojaa8i9B7_X5vlTCGNY"
  },
  {
    "lat": 43.595623,
    "lon": 3.923415,
    "name": "Sculpture Hashtag Montpellier",
    "url": "https://lh3.googleusercontent.com/Ibwr58USy9xJLDu2ompxmaNgvFf9tU5ixOag50F2nM_b2_w9V3vc7YWvPw5U9b0TpeJv5GLBOPa_6S3L4xGfzPis9A"
  },
  {
    "lat": 43.60358,
    "lon": 3.918783,
    "name": "Statue de Gandhi",
    "url": "https://lh3.googleusercontent.com/q3fqUY-fTnJwychxGrFSyQaGVNrZtCVjSX09ySQAgWPSqYjwL_QwVA0GkzzL5mUvhFZrwHNfIFQBXkF6bGQnqib_4nBF"
  },
  {
    "lat": 43.60333,
    "lon": 3.91836,
    "name": "Jean Jaures",
    "url": "https://lh3.googleusercontent.com/kTq0Q6muC4RgiDqPJ9D1DM2GBNxSkzohZWKgLHjBt3-bqNnSlDCwwkV5dE8FaMZuOtp6UC7V9XBd3b9I7oW0uHG6OPQ"
  },
  {
    "lat": 43.603622,
    "lon": 3.921646,
    "name": "L\u0027île du Soleil",
    "url": "https://lh3.googleusercontent.com/wPLwqCNc2svrHjdQ94LGYaT6B8yjIjNg1kFywN_kT8jyJjQU5TaCE7P46gyubPQ-8R5NQtxyq4hQBV8T_aGc_3X8Iqhb"
  },
  {
    "lat": 43.604298,
    "lon": 3.922237,
    "name": "Place de Circé",
    "url": "https://lh3.googleusercontent.com/FyLGrfPpBxqlacA7GS36Vv9_6e6oN8p0dGnRXxyXOPEMmfOQRcnu8WcVr64AshNZ4Ct_Z-vTJgOZvS5KjaJqq87IcaG1ISDwuEv298_QkA"
  },
  {
    "lat": 43.60716,
    "lon": 3.92296,
    "name": "Maison régionale des sports",
    "url": "https://lh3.googleusercontent.com/GpFtHlr40tCvadH3oe9xQeCzund9H-XnuSaDHMI1_Cle_FTKyl5CKMJns2_QhOlRTi345oac1iJhRai-X-n9Do6tdHSU"
  },
  {
    "lat": 43.60432,
    "lon": 3.921183,
    "name": "Les Arbres d\u0027Argent",
    "url": "https://lh3.googleusercontent.com/08El0QP8UsjQn6WGtDqbAby9y6lWsdMs7ZAzwLMatHhLGsESPEnuctY0mTk2rkDUU6Dd4AD9net_b8GDg9JMBZR767Q4V2UL1_v7dAK6"
  },
  {
    "lat": 43.604324,
    "lon": 3.920582,
    "name": "La Voie Lactée",
    "url": "https://lh3.googleusercontent.com/r8mtAy4hP3g8Zdd8Cfdb3uXYT5LcVd7slS9uucHToKJufCIjCNUVPN9YJAg5Nmf3beV8-SL4m5EGXndrdMvFyti-L8E"
  },
  {
    "lat": 43.60456,
    "lon": 3.912683,
    "name": "Statue de Georges Frêche",
    "url": "https://lh3.googleusercontent.com/ZDbpOPTGYmP4Dq4BItGbe6p6rNYp6wMdxfoq_rJs85od9DR0QoD33Msidam0b_Bf1TB40jHF-YtFTNgLCpvD5-QYbBXV"
  },
  {
    "lat": 43.60428,
    "lon": 3.915574,
    "name": "Cinéma Gaumont Multiplexe",
    "url": "https://lh3.googleusercontent.com/ODzmyYY3zXpUGgzihuhdlZ__FsciaYnktDbUkKfvd58Mf-PIcZZePfywKVsW7UfpwONwLt4fBBFm5e6ESEliPky3phc"
  },
  {
    "lat": 43.6038,
    "lon": 3.915729,
    "name": "Anneau de la Place de France",
    "url": "https://lh3.googleusercontent.com/3n18fr9Keq19iUEO9oQAYM1nxiPCEnDG-3uQDPhNIxk6nojid53PI9kvxvWmN2Ld-9prhugqDOEKx6j51KEss3E9mw"
  },
  {
    "lat": 43.603436,
    "lon": 3.915524,
    "name": "Patinoire Odysseum",
    "url": "https://lh3.googleusercontent.com/ctBcPDilU4GOenMC6mmVwTBwg50kCqpyK7Bc0vgwl-0tAJUq1-lGG9E2cn1mJSRdbVm78AAEkABia-iwE1ZjswYHPQ"
  },
  {
    "lat": 43.60413,
    "lon": 3.906657,
    "name": "Folie Divine",
    "url": "https://lh3.googleusercontent.com/uvBb-sIU3xzFkhqkssLlFioreBGzjNLu0_yTemQWaphr54mzA3Pmo2vp-5j-65DiKmva0p-QWi0Wpc2ctI0rxDR0ZOw"
  },
  {
    "lat": 43.60858,
    "lon": 3.909183,
    "name": "Puits à manivelle du Vieux Montpellier",
    "url": "https://lh3.googleusercontent.com/jmWeUpaw8xOE89WLK4OmIgwbufoombQuLPqNj0vK_YCO6-xiq38OixuZ1ovgB-54rcw4mCmls7DZ25UgUjyBhyB5Gg"
  },
  {
    "lat": 43.608265,
    "lon": 3.907788,
    "name": "Graffiti De La Tête Souriante",
    "url": "https://lh3.googleusercontent.com/GUXaHKobldJ_ShcY6OCk1A7VSb9KpSFKtreD5Ie7ev7loVVfVnj644Xu9nQDG2uNxHGl545aM4Gxv9QF_MFNf-r_grrh"
  },
  {
    "lat": 43.613556,
    "lon": 3.908242,
    "name": "Hommage Mélina Mercouri",
    "url": "https://lh3.googleusercontent.com/v8nJpyCZRJ5batwsWu07SUmXUlW9Iz9BkgOalWFJ6M99F9NsW9HVeHsISu5tUt6fUMAW5KCVh70jzmKTeM-TFrHPh-q2"
  },
  {
    "lat": 43.61308,
    "lon": 3.909635,
    "name": "Les Yeux Du Millénaire",
    "url": "https://lh3.googleusercontent.com/D29ggZ7iMcCvKLy4AZhwe013rqv2Jwtn9Vewl5wJHxzGhl1VaOh4oYZq9jBr_SIdsiy4BKYGPwcTP2HVnKC6r2N0xQ"
  },
  {
    "lat": 43.611446,
    "lon": 3.912303,
    "name": "Arrêt De Guglielmo Marconi",
    "url": "https://lh3.googleusercontent.com/QddY_I5cZULYUXzDoh-dRy7IoRxUL04NRIvoD_4yfkUvIkdmF_rzgCXXBnEQChHbWNyT1_RFBCg71KpMH17BSho5htHL"
  },
  {
    "lat": 43.616344,
    "lon": 3.914457,
    "name": "Bâtiment Le Gaia",
    "url": "https://lh3.googleusercontent.com/URBEj0_D4OFTGIMLDK9zsEEJERhLdtMGgWelCYd8KK1xS3gH3JLZkwkqprcNARZFrdrt9hmWifQnIue-IV9lgVKxY21v"
  },
  {
    "lat": 43.618244,
    "lon": 3.914864,
    "name": "Peinture Murale Du Millénaire",
    "url": "https://lh3.googleusercontent.com/j5b9HRnfPvoUwCdT6IxBM14cnPCewpEZe9YmbwQSnXypdcXwIEKw9xMUTA0-aP8Hzt4nyCeSepsQge7hDyZkVr8V"
  },
  {
    "lat": 43.620567,
    "lon": 3.911091,
    "name": "Le Terra Verde",
    "url": "https://lh3.googleusercontent.com/i3vMoaYPWA7HnhOeiSH_GbSui4p-ZWshAQ98aT6hdzoW4KqT4FQ4AEBa4TQ5TLDi7CyNYv-4oBMKGuZojeaFKRqZD7LU"
  },
  {
    "lat": 43.627544,
    "lon": 3.906522,
    "name": "Statue du veilleur",
    "url": "https://lh3.googleusercontent.com/azxNahcvNcSTbLciSWfgQsxKwwS9pknw8dePqwjI5dT7dGOAWnR_S3m34eM-74g1fvo0OuGuuM0uaiSXUmJST_8zc-4v_3hU-jUWWlg"
  },
  {
    "lat": 43.625813,
    "lon": 3.908419,
    "name": "Platane a feuilles d’erable",
    "url": "https://lh3.googleusercontent.com/INKLzxdsvbNnvkzFTWHFFRwM-9KXl0XYjOKPBy1VCS6u2kRX7Gc4RUylh5ljAtt-Q_E8yabGm9IhwsPR3BUrup3IUlPiPktOpXLcuoI4"
  },
  {
    "lat": 43.62707,
    "lon": 3.911827,
    "name": "Chambre Des Métiers Et De L’artisanat",
    "url": "https://lh3.googleusercontent.com/XuZ6QdDwWbq5BHNY4zg4nlOiLwDVKWhjsmeffc6_EqsEwooC5JmfIJDIJArzsiQc8SATNW4iVv1v6cx5otKZZAh0ru8W"
  },
  {
    "lat": 43.619225,
    "lon": 3.913232,
    "name": "Pôle Eurêka",
    "url": "https://lh3.googleusercontent.com/mHKXUsdqEFeaaC_ty3JTD87oTWnbiJCyklI5lnEKNwj2DvfJ7puNgmD8ybCsMaBNgwOvy3g0PsNHk8N4IaG5cIj0Znvr"
  },
  {
    "lat": 43.622795,
    "lon": 3.913712,
    "name": "Immeuble Au Mille Feuillage Métallique",
    "url": "https://lh3.googleusercontent.com/DJ4tNiRIOnwWut7OBeai1dO5fMrUUg_ndlw2Ywn2qUQq9cjW_7RPDh1fvD4-lDlLS_aHdTEZyQd9OQ2_daoSD5RZtyc"
  },
  {
    "lat": 43.6228,
    "lon": 3.920599,
    "name": "Petite tour",
    "url": "https://lh3.googleusercontent.com/NELL8X1o55ZQg5MtT-dM1qOXE89mfRyXX-cd9qJbmGLvdhwCqPO47uH4LYChA7XlQw5VAeW5wHjLlOw7h08Z-_e-5e0"
  },
  {
    "lat": 43.622192,
    "lon": 3.923128,
    "name": "Fontaine Du Domaine De Verchant",
    "url": "https://lh3.googleusercontent.com/HEZcKIO8WyTBLJT2wLPU0shiovVfRR1uBWIilNKkxd1vVGBUCNMBmqbl2ykZbsYxIYNu1iWiOW462UJ-S4NNJXDIL43Kh8t3iI1mnQvj"
  },
  {
    "lat": 43.617805,
    "lon": 3.926355,
    "name": "Statue du Parcours de Santé",
    "url": "https://lh3.googleusercontent.com/jmnV7HcEZFCHV1p0-lyx1AabpV7-NRWUZMz8tCA5gBK9tL9ma0LrgYqZbIBS6P1AwOYM6ixsn5CeBpjjKhOiHdRYBFX-"
  },
  {
    "lat": 43.609665,
    "lon": 3.916512,
    "name": "Fontaine du Parc Club du Millénaire",
    "url": "https://lh3.googleusercontent.com/ON9Nmhx7rbNYtCQCBLVt3ltcxTrzNdQf2fZhSxzWRy0fFjE68Vc4rapZLAEfNG6fW8-lj_-jwHRvROfGdWxMN62JpQ"
  },
  {
    "lat": 43.6122,
    "lon": 3.929737,
    "name": "Tag De Kool Klayne",
    "url": "https://lh3.googleusercontent.com/Z5SV1CaTWvAEUXQqMl-6Tgo9DdAIY-IuaeJiRUYFViYF8FBy7dqlp3_YmQEuqbbhFvB7_muS0bhrGStQ8PUhwG2sg2U"
  },
  {
    "lat": 43.6124,
    "lon": 3.928528,
    "name": "Graffiti Girl",
    "url": "https://lh3.googleusercontent.com/xHw-Qb4uz2HTXZNe_c_kWR2wDB0yh8C9Wt2eIjcwwZs0brL7OkdtPjTN0fkCmBMnpunsq5wneLWNlWkq46DaH-AbXw"
  },
  {
    "lat": 43.61593,
    "lon": 3.930441,
    "name": "Arrière De L\u0027Église Orthodoxe",
    "url": "https://lh3.googleusercontent.com/0FNtBuHq-ONHT0SXJUxVLy0ILzbYqGE0oxIWkk4UmcfVD5x8642lnPTpweVHrM5gtYqUwIKcrr7D7U5EtM84O4hwKwWJ"
  },
  {
    "lat": 43.61525,
    "lon": 3.930173,
    "name": "Vieille Charrue",
    "url": "https://lh3.googleusercontent.com/qkjWrtjDRkN_bc90ECjd7YHP5a2DtuX8XNWRa5W8-G59TG0awRGfXc0ZGlowOcJ9TAWCBvziehTN5lHG6VwlDo2dX2w"
  },
  {
    "lat": 43.615673,
    "lon": 3.935145,
    "name": "Entrée Cimetière Saint Étienne",
    "url": "https://lh3.googleusercontent.com/aEgF0uWGoHRmBTe_yKIYBgl_zHpj0FdQ5bP_yYErRN6o1C4H-slT9oYWDk3QnB70-4TU_x1uO-pg8MPVAGpSpViwUEY"
  },
  {
    "lat": 43.642834,
    "lon": 3.946156,
    "name": "Fresque enfants Skateurs",
    "url": "https://lh3.googleusercontent.com/e0BOm8LA4oiB1goYuxVtQny0tMOC7szW3gmziS-r_qnSxDvDrtkhJ42HBzSxXbRzYuiFzhUp2w5-eZ43v25wHE0jTxQ"
  },
  {
    "lat": 43.644264,
    "lon": 3.936382,
    "name": "Carrefour Général Delestrain",
    "url": "https://lh3.googleusercontent.com/t0I2wRVJTiF949wwZNudNXVHFHdl81h9w3C98-8KaUvg0pTDKCYqKN3RTjJL6zZEIP8ujpXiYdHRvTFnQrWZ64VH1XPd"
  },
  {
    "lat": 43.64296,
    "lon": 3.936321,
    "name": "Deco",
    "url": "https://lh3.googleusercontent.com/UTVtxH1t7BixgDQNLiZ_MPrhaQptKAY6s3CZTYC9b1jG6anvvnQ8mDLfJ8_Qw6sWBkVOYnlSrYG65DhLeLTVZ830Al4"
  },
  {
    "lat": 43.640842,
    "lon": 3.932638,
    "name": "Musée Saharien",
    "url": "https://lh3.googleusercontent.com/05hNxnknz7-14-rGy6e2XvK6uv1yIrXyLt5cTYtf-ozwL9dR4hS687MvKZ-g8t_Y_gm_eF71yI59MT7PAjORb1nN_0g"
  },
  {
    "lat": 43.646496,
    "lon": 3.928403,
    "name": "Gravure Romaine",
    "url": "https://lh3.googleusercontent.com/qbB1k67pnRbTsZQkjU1mZhrq4eosfd84DBtYPds5b3bWiadx7tYRUcbjvFPdGp7LZxq11a6lwjm028GD9gmhmBbeHYgbMGYg1xcvwrGh"
  },
  {
    "lat": 43.64249,
    "lon": 3.922158,
    "name": "Jardin Partage Du Devois",
    "url": "https://lh3.googleusercontent.com/9fou7g-wFmXbmw1nn70IXjCGUKfpYxrY-d-0szGVNH6BF_0-FTzrrD_HqkSAtUP-UyPS-SOMUztYjVrWlVjJbIBs5zih"
  },
  {
    "lat": 43.64228,
    "lon": 3.917427,
    "name": "Bureau De Tri De La Poste",
    "url": "https://lh3.googleusercontent.com/5Gj2jcyrtaIggifoknYlt0QVbyjUq1FUKqYpXS46wHlkuDqo2gA3ZHvGXw1J3afQVO6eryWX-MOya1LjG1zKHbBhu3g"
  },
  {
    "lat": 43.639496,
    "lon": 3.922497,
    "name": "Centre Commercial La Tramontane",
    "url": "https://lh3.googleusercontent.com/OVSrBAp0JfC3U1CmdFl9l7VMdbD5XO6CYkpZpUlQssLKaVyoMwaL3-41NFc8mqe5YqaHyTX0p74M0XucgCky8w9GcHQ4"
  },
  {
    "lat": 43.639446,
    "lon": 3.923337,
    "name": "25 Ième Anniversaire Jumelage",
    "url": "https://lh3.googleusercontent.com/cFWxGdtT6eQc0Ntt0slICbRY3CRyV23okaJv8Dq51NhRqtSkQQU8P6lfkrg_D2XyIpCHxFJfWka29L-_xjtwlmLF7w"
  },
  {
    "lat": 43.635517,
    "lon": 3.92437,
    "name": "Boulangerie Moulin De Païou",
    "url": "https://lh3.googleusercontent.com/v8O79IImIw9ck64ByCRwLe6Cf8dk_xIBRkdfsHbE7jkQwhg8qRFJjG5oPnNw4a8XNV1mjczg1Nj4aZnJkcVE7Sml5GU"
  },
  {
    "lat": 43.635178,
    "lon": 3.921299,
    "name": "Square Alexandre Chabon",
    "url": "https://lh3.googleusercontent.com/YoqR0ss_zizTEm1FlfaUi0ROq1n_0-GyaTAHXrPHRS-pH3_M-Fd702rd4XRHUGwWKDWYnAd02UevweWGjjCc4G-ZzgI"
  },
  {
    "lat": 43.637463,
    "lon": 3.91158,
    "name": "Place Simon Weisenthal",
    "url": "https://lh3.googleusercontent.com/cro9ZTCO82_foN7wG53jzb6XX2Zzauv1Juz2SaWG3mfw-T6bKterGzRXLnA6VCLV34vWbieUGAQhn4IE02JJxqR6Yow"
  },
  {
    "lat": 43.6328,
    "lon": 3.915603,
    "name": "Arrêt Centurions",
    "url": "https://lh3.googleusercontent.com/5wLrpiKA3QOiZfNWjO03sEgA5xA6X74wNOkGoPdKATcEG98-ZCUzOO5zM8BXj52e2-LFbezVX_YhHFd97vo_R7pbIgxemUHclDpXuCs"
  },
  {
    "lat": 43.63211,
    "lon": 3.907677,
    "name": "Jardin Des Perrières",
    "url": "https://lh3.googleusercontent.com/BdO5_hszCFhv2iyp4nrHqimRidRRN8ejP-6rsSyfxEmL2adZv7y89ScGf9Gu1c6LVR1ga2q8-tCdFlpvY53b6K2pCSk"
  },
  {
    "lat": 43.631405,
    "lon": 3.908969,
    "name": "Station De Tramway La Galine",
    "url": "https://lh3.googleusercontent.com/FIvBc-09VhJp0ogqke1M1Z-QAiNZ3etqEJklUwbZ8miV0_k9qeqbRqL7p7z6MfqkmaY8z83VO802na44p0v0G1haOQY"
  },
  {
    "lat": 43.634327,
    "lon": 3.906818,
    "name": "Halle de Sport de Castelnau",
    "url": "https://lh3.googleusercontent.com/gPSBTCY8cUeFUg3-o7qc6F6gi3OmSHndBEyCAu2NVRiKDH01WpJsWw9c_B7j5L4u1wcvsFMQWfklP1ZUl7ESpziscgQ-2nSS8jTdU8E"
  },
  {
    "lat": 43.638744,
    "lon": 3.914216,
    "name": "Grand Parc Laporte",
    "url": "https://lh3.googleusercontent.com/QnMzh8YVxZkOfj6EcpbuZrpE3L-tGuQ4HHzPK1j3piayUaxY6lkvrTcSjsskk-oEROvnAcA5Iq4j8DChqYqXn2DzphOX"
  },
  {
    "lat": 43.638367,
    "lon": 3.914476,
    "name": "Le Tchoutchou En Bois",
    "url": "https://lh3.googleusercontent.com/sEp_S1HjWeXCafYCfR5fuGyZcjsAstmige-IvG3t7r3wEmsx5apyBTIj5x7jxeoQOePDXjAJvX111aA8ZI-v_T9_Og8"
  },
  {
    "lat": 43.644928,
    "lon": 3.913519,
    "name": "Graffiti Basket Castelnau",
    "url": "https://lh3.googleusercontent.com/6yhIXJFfRmrFdQ_QGicGN-vo2HLcg2FxXprUmg6dHOaFWZakaqMPqTCg5Jr5PjOAOkarDrCC03zpcMYPLVtjoFuT9jc"
  },
  {
    "lat": 43.645397,
    "lon": 3.913829,
    "name": "Graffiti Du Futur",
    "url": "https://lh3.googleusercontent.com/1RUQlpjhh-VxfLzWQKFhbszLFNt8-fT16VOmRqhX71wIYeK1oz2A6HlgZJJsLqvK6w9pa3PsOLpiPFqmY0CHPaLhcDQ"
  },
  {
    "lat": 43.656807,
    "lon": 3.911634,
    "name": "Centre Oecumenique",
    "url": "https://lh3.googleusercontent.com/jXVE_N0WyKOLNaWR-yFqHUjkA_ZZE3BHHIWGGUt_9PAg9gwQOF3E2hPhC0itThbc6223ua2w5yitVErz-HH_1aS1OQ"
  },
  {
    "lat": 43.65454,
    "lon": 3.912702,
    "name": "Station Jacou",
    "url": "https://lh3.googleusercontent.com/FusoIFydpeppGwIK3sJU-jdk0mzVPlgV5x9o4InBq_CH9WG5dd8DPSydBDRdlF0OEGMAPgB97AU1rW7bpEwCnG_hMes"
  },
  {
    "lat": 43.650547,
    "lon": 3.913566,
    "name": "Jardin partagé - Graine de Caylus",
    "url": "https://lh3.googleusercontent.com/5oLUucXwbrYF58td_A7MYizigEZQ6Qsze-KT_-3nhlShilAN_Fh9a_dws59tUJ0CMrc5VTvUH24OyqDF5sFTwm0DRWgW6z_I0hmA_eyC"
  },
  {
    "lat": 43.655003,
    "lon": 3.923416,
    "name": "Panneau du Lac Jean Marie-Rouché",
    "url": "https://lh3.googleusercontent.com/I0otRj7YCiMiUiOBfMGL1wDV1fi9mpQo5LceGiREpy2J_EvggPhHod7JvYTjjHY7azaud5nsXjYPu_phsut4xq38GVLvvl8TSbW3H0-S"
  },
  {
    "lat": 43.6529,
    "lon": 3.919753,
    "name": "Entrée de l\u0027écoquartier du Caylus",
    "url": "https://lh3.googleusercontent.com/5xQ3NPOmABwOORlc9G4n6wC3Hl6Zg34q9pVcCJCmnLrvEc2PeJ7kIQN0-rzutwZ2k6lap-uenpy7hfHMIrnpr4yhJVO6"
  },
  {
    "lat": 43.658684,
    "lon": 3.919364,
    "name": "Aire de jeu de la foret de Las Bouzigues",
    "url": "https://lh3.googleusercontent.com/PA7Rqe9BhsExobUplg_lAIuPKayjpUNnYegSyekhmJrTgIx6S-DBspAN-yJVoJKJMWy1g8e5tZ8dPz38LbEg_MD35pLWKqK2_MJ2wIhJ"
  },
  {
    "lat": 43.659653,
    "lon": 3.926059,
    "name": "Piscine Alex Jany",
    "url": "https://lh3.googleusercontent.com/TluNmp4BIusDawX1zwjjK5XlhxuwerBjVYVUEWrfRASDGhJVg2IyLsQWBgCPH-OVgkNFQFi78b0p9bAMjbwhZETU05w"
  },
  {
    "lat": 43.662544,
    "lon": 3.911795,
    "name": "Terrain de Rugby du Parc Bocaud",
    "url": "https://lh3.googleusercontent.com/PrzO6LGQ2YC_w2p8W0MuApKsln0yMo4h4Bxc7kIRZ0S--AXIHVCk_b08G2M3vtYG-GKMkVCUqrtA8b8iYRJiU-PawEjb"
  },
  {
    "lat": 43.659084,
    "lon": 3.912547,
    "name": "Poste Jacou",
    "url": "https://lh3.googleusercontent.com/zpzoS2OHIl8xV5pFE_bVySJ5JQXppPGkWemg-OkrNKPTlEcRvfnBbn_2_n388YdGoVjJabOahd9BnKTr38zNulixDtTA"
  },
  {
    "lat": 43.661293,
    "lon": 3.911133,
    "name": "Lavoir Et Château D\u0027eau",
    "url": "https://lh3.googleusercontent.com/pvHY_GoW0Asi87WxUAIwi3i3efn1iFmDMqvGwzrGnfkroq9nxCPoRoZKCEL8OjsldlPYW6U-oNYOmqaBiltb7BE25w"
  },
  {
    "lat": 43.661858,
    "lon": 3.910769,
    "name": "Boule De Ciment Du Jardin De Bacou",
    "url": "https://lh3.googleusercontent.com/Aa6_x2nKkeR6wUf7EHQqtdKp2sO-ZE1kSyfpaoczxuVIyfux_ax6F1Wc3FhDSbcVzPvBjb3WxLf_RD8BPhehzkl577g"
  },
  {
    "lat": 43.662464,
    "lon": 3.91027,
    "name": "Parc De Bocaud",
    "url": "https://lh3.googleusercontent.com/YoUjh8W6PNDl2tSMKZ-P6aawj97jnuyr4jWrnDHMvhQCkguKl5eRRjdeyqKlvjPWydUlnk-BdxOYHbez1KMLQ83cCIc"
  },
  {
    "lat": 43.667515,
    "lon": 3.912397,
    "name": "Coloris peints dans l\u0027insomnie",
    "url": "https://lh3.googleusercontent.com/QboS4m9oYjmMz4YR8Xa6B_HgHawEFI3BQFomi4k1M7Fj0zuA--MuLEKq2Sak0rLs_D6y-D8XrKQ-8JuzVb69ti77SJFOYHUtPbV7MKhU"
  },
  {
    "lat": 43.66831,
    "lon": 3.918613,
    "name": "Croix De Bedos",
    "url": "https://lh3.googleusercontent.com/Wy0uUHTOwpudc-9OamJLQbQ0BWnt1likfSGhs_SQkwe5WRIhvZXH5R4KvJ35HJ3U_YFLgqZWgZs8Qo0m3iZPxOSIDl4"
  },
  {
    "lat": 43.65895,
    "lon": 3.944067,
    "name": "Salle Georges Brassens",
    "url": "https://lh3.googleusercontent.com/VmlTrBgP31bCQf8PVgv7TCS5SXs9j2oyl10VDV8_Luz2ktGGRQTn9m01TR_pK0PhsC73x3GIR3lg-AU5kaYpnxVQHoQ"
  },
  {
    "lat": 43.65922,
    "lon": 3.943699,
    "name": "air de jeux salle Georges Brassens du Cres",
    "url": "https://lh3.googleusercontent.com/qLeWjkPylz_7Oxpevdl1HrEoSnXTnxO4N8OyNgWRfzDVshCQxubtsJ_Vo50e2EWYG2wo97gZvuNfToyLWEcf66HZTuw"
  },
  {
    "lat": 43.659943,
    "lon": 3.931868,
    "name": "fontaine",
    "url": "https://lh3.googleusercontent.com/emdlNxr2-T2-DCSwJznpfEVuNrRrzJekKlV9AxqGp3evsShfFJXPusHWiuOWtaTe9FF5P0uwhjXLp4brWsbS1pk70OR_ejIxXriLlgk8"
  },
  {
    "lat": 43.65713,
    "lon": 3.933765,
    "name": "Éolienne De Pompage Sur le Salaison",
    "url": "https://lh3.googleusercontent.com/YBUXPVCBWmgUyQVMn_KCt2_NHmhKo7ZKS0jgACCYKVYTYb8lAT0T6_YVLWAK1ZwKXLCOKz7RzgRe80S67yf2k_Y7PCMH"
  },
  {
    "lat": 43.654064,
    "lon": 3.9338,
    "name": "Parvis Rolf Zeitler",
    "url": "https://lh3.googleusercontent.com/y7PUBJForV04O9HmylPRGN6T-qplCPEEGVDqa5kh81M7583DLgRfNbL-mpPnTldA-LSS9wuNEmfG_k33eLsYwPSS0g"
  },
  {
    "lat": 43.655617,
    "lon": 3.932256,
    "name": "Borne 111 du Lac du Crès",
    "url": "https://lh3.googleusercontent.com/xQl92sF87B21_2uQl1jIjPZKCjRXzExOt5t0xT6K_iMjo0gU5RnrD62akV6m4GKDfgISLQJh3lQNtQjrgZUWyyRfHB8htpH1HQfBx1Zo"
  },
  {
    "lat": 43.653465,
    "lon": 3.933158,
    "name": "La cascade artificielle du lac du Crès",
    "url": "https://lh3.googleusercontent.com/ocgravAgqHw7lQfpNqNKakb7D_1ITKvSmUGB-ofx4rGv4mW8zrzjtAlb9SMVtjJeUm9X2fuQQ3jlUFvBAUdNJ-dsKA"
  },
  {
    "lat": 43.65603,
    "lon": 3.930069,
    "name": "Panneau faune et flore du lac",
    "url": "https://lh3.googleusercontent.com/oyGMjocREPu2SFanzaOC1IXk6vOqprAmWTz82exITH4B1jirekoqiUrDXNm8wCiujshX51n56fcrut_an5beWLez4Ri4l4VYqdOJEmZj"
  },
  {
    "lat": 43.65466,
    "lon": 3.928705,
    "name": "La Carotte Masquée",
    "url": "https://lh3.googleusercontent.com/A5R7xo0z1-6lLwjsaqR0rl6kZXY83iUaYCzBCxBGqSGlTcPo_OBUQC_UIo5ruQw1YnT0WYAwZoSgbWOn27nR9rHUKQ"
  },
  {
    "lat": 43.65069,
    "lon": 3.931551,
    "name": "Château D\u0027eau Du Lac",
    "url": "https://lh3.googleusercontent.com/7Hwzxf-qgXc8XMQ2-XVK5DxVPdYH0ylDP89rBWVyHx0w3IonYdosq6VpSTrwKS6msbLZ4rJNWgdW88SHgH2d7eg4eg"
  },
  {
    "lat": 43.650543,
    "lon": 3.932126,
    "name": "Plaque Commémorative Des Réservoirs",
    "url": "https://lh3.googleusercontent.com/KfJIduVOhZq-euEUtIuqKViP3R5FfyZ6XPdYtMUSbs2kLU7H6IuI6DcOOHx3ZP8pt2u5_qjOwyLEeWzQ7AEvuPzChLo"
  },
  {
    "lat": 43.650032,
    "lon": 3.937495,
    "name": "Église Du Crès",
    "url": "https://lh3.googleusercontent.com/PoZI3ZU90DwvmYO_vVjU-iDg2OBrHwrlzMZFdhs7wH7KjsxdBR6rn33dYpgsItsZHLiS7DeBzRzku0iRBcIUg-P4Yd7t"
  },
  {
    "lat": 43.64982,
    "lon": 3.938155,
    "name": "Mairie Du Crès",
    "url": "https://lh3.googleusercontent.com/ntgIcAliNUiwKFLr-7ZN1Y8Dq1Y5K0n5ufXA_gomUf5iAqXcJ-dZziiKVjgSLVNHNW3spNgYuUQKnrY2J1Sx9D2JErk"
  },
  {
    "lat": 43.65275,
    "lon": 3.938754,
    "name": "Boulodrome du Cres",
    "url": "https://lh3.googleusercontent.com/GmmOOBdSEKkXXaQM33vn1z4wk4e2YA8LMniGx5_-cY9DEm40vO3Spplu20ONgMIsRqSImqu_wGmqmxDCPAIJAoi4Gw"
  },
  {
    "lat": 43.655773,
    "lon": 3.94698,
    "name": "Restos du coeur de l’Hérault",
    "url": "https://lh3.googleusercontent.com/sCOPVi-wWUrOENNEeQfzIepQkNG-XDkV4MJaHQZPFcKKbONTib1loezjoYHfvemsAcFwdrjCitb65OVc4obAztE9tl-8IZjg2Wk2mOY"
  },
  {
    "lat": 43.646507,
    "lon": 3.943041,
    "name": "Poste",
    "url": "https://lh3.googleusercontent.com/Z0wJl6DBYES_eMKayCh8aHX9wFLwa4I89tcXcjY5Ga5IFzSu5wufHqmPsAJyu4HIfnLV4ORWnM9fjNLKmuje6kAbSIYt"
  },
  {
    "lat": 43.64875,
    "lon": 3.943589,
    "name": "De Gaulle",
    "url": "https://lh3.googleusercontent.com/4pXRysZRw3vMegZXgW5JXEWq-0303et7d6modjjrY4ibTANVnLwvwV3vrjwekt5DsTTa_AALoGYws7VrWRVRuVAd2Z8"
  },
  {
    "lat": 43.660328,
    "lon": 3.964732,
    "name": "Stèle Vendargues Guzargues",
    "url": "https://lh3.googleusercontent.com/DR-oF-qjucWMVXaepH_svtujvvMcXFPGwbmjd99m4yg9W1Smh51g7yCQ_PouMGIPQ5ZV3V1XTyVZ8Wi8W3s4EScmaQ"
  },
  {
    "lat": 43.658848,
    "lon": 3.967397,
    "name": "Les Enfants du Potier",
    "url": "https://lh3.googleusercontent.com/EKzomAJidFEmsvofrpsFR7FnfdR1IFxkkQUgJJg0agrWenw3gxFuQk82Mi20GEChWu1ldU_sgtA3p2LTAk5KKX7necY"
  },
  {
    "lat": 43.658108,
    "lon": 3.965038,
    "name": "Croix Souvenirs Vendargues",
    "url": "https://lh3.googleusercontent.com/CLmjqgZQMqjdazDbgM9VqK8DlrXY3WroL5qrgwaJVThxOJ21TQIACvh-ukDJ1HMsJRVlsPu9e8IBkqUJq_AcTJp2YuI"
  },
  {
    "lat": 43.652065,
    "lon": 3.967048,
    "name": "Château D Eau Vendargues",
    "url": "https://lh3.googleusercontent.com/VnWTOS8-WqKiZOzKPnUFOjqTRgjf4hYjtUj1d-wlZXY1yyEYOpF2zUlu9wFr84seQdelmet8s3FVCq6UFXEJePCHqCK5"
  },
  {
    "lat": 43.65378,
    "lon": 3.970895,
    "name": "Viticole Clocher Vendargues",
    "url": "https://lh3.googleusercontent.com/kM0zL1nA4E78Lz-XIADZ3jQvRDXNGBTL1ycv_bUNu0C9BeQLZYiSQbj-FHkUIBdeG2vriNBnu8jLujLNOyi4GoH8Rh8"
  },
  {
    "lat": 43.652756,
    "lon": 3.976568,
    "name": "L\u0027Hyppobus",
    "url": "https://lh3.googleusercontent.com/GLydKcQzbjAjQJOlMJw_5NxlBxO-29f6ECjZEsqzF6HPHu77_gpXU0Bdmp2PyjF1_EZMsd6Zb477xL0IYoSrNy29R1xvw98LScVyGstWCQ"
  },
  {
    "lat": 43.65063,
    "lon": 3.977984,
    "name": "Enseigne Leclerc",
    "url": "https://lh3.googleusercontent.com/ybmr89LHZ_kGng0lGKMvi9ATeXtKtn4JfTkQUNX6apPj4Dy5it0tD_zNbr2r-Pu5_ikZofZqDRS_i4u6SbcoEpR3hQ"
  },
  {
    "lat": 43.657448,
    "lon": 3.986016,
    "name": "Lou Bosc De St Anthony",
    "url": "https://lh3.googleusercontent.com/tssKpGdU3hF5KwP784lONcxvl_w_zaNa8c4x0Oy3E1qzLa34xDmVVBHQWxCgv0Byu_ImbZXFOD1YczeDTQoEkT7rsCU"
  },
  {
    "lat": 43.66082,
    "lon": 3.973268,
    "name": "Vendargues Mur D\u0027escalade",
    "url": "https://lh3.googleusercontent.com/WladF3WXvF5xQfcczrGoKvAv9B0-zvGhLSAtFK8zYCZnB_6jbtmHVeBDMyuUDkrOptodiwy2-Vi2MsWSoiuW2ye7KZ4"
  },
  {
    "lat": 43.66115,
    "lon": 3.974831,
    "name": "Vendargues Parc Jeux Enfants",
    "url": "https://lh3.googleusercontent.com/E-GmjnENyc2wVGI5tg2Bzhge09FGVdAU3vVWnY3yQWBVPxhwwQsTQyoHscyvv_dNGmrB6x-vXUScS3f45tyJTMd_1Zzk"
  },
  {
    "lat": 43.65713,
    "lon": 3.972896,
    "name": "Vendargues Glorieux",
    "url": "https://lh3.googleusercontent.com/fIYqoSkZ9Gx14avKAugfnmDmpbAhF8YwaXKfEI9NFcvqduVzAXXN7RdC9o0dHWTASQT7ASXt3wFYjzgBrUk6D4R0RS0"
  },
  {
    "lat": 43.659023,
    "lon": 3.973106,
    "name": "Vendargues Place Aux Sports",
    "url": "https://lh3.googleusercontent.com/wM_QEGpfhtoPq0pabE6LN19bt1ToHCH0INhDTM3e52lCF6HLCtz03Pv4jInu0LhIgV0cmkxVmBNjLmPmXVRR7UF1Ew"
  },
  {
    "lat": 43.65673,
    "lon": 3.968253,
    "name": "Statue De Saint Roch",
    "url": "https://lh3.googleusercontent.com/p-cKnfA2PHuVZDlLJgsDJh2bel6fgt8nkRBKOCsGLE301semvEGcJ4aYywaTWrAuZGnb0dh4rT3qcN2896c307MA6w"
  },
  {
    "lat": 43.656853,
    "lon": 3.969552,
    "name": "Vendargues Se Souvient De Ses Morts",
    "url": "https://lh3.googleusercontent.com/o1M9riuoksTzEtzsVC3QkZ2a-9xPX6m2ONGVBazyU5gbUNYN7otIBBbiq8rR5xYRxqFOKMvhgVLzizbRH4eY6Um9cDI"
  },
  {
    "lat": 43.65993,
    "lon": 3.970182,
    "name": "Croix Jacques Daumont",
    "url": "https://lh3.googleusercontent.com/eyiMIHyvVycmFkUn2CQ7F5TQV53PCqTro3PiHJOJNZkFL_0IEKTTSK24rgUOi5QISuSn-kMrT6LDv6cUkmJnABAFng"
  },
  {
    "lat": 43.664948,
    "lon": 3.970449,
    "name": "Le Petit Paradis",
    "url": "https://lh3.googleusercontent.com/l3VFxYplQA5S1qtJfCKVtGoL5YyQAFDXPs7uAeKcdjIhhkqzxG_OXVTjvwBXQZ6OhJtUGumysgqcQJQX0ZOjBbX6Uw"
  },
  {
    "lat": 43.66596,
    "lon": 3.974785,
    "name": "Aire de jeux de l’Eden",
    "url": "https://lh3.googleusercontent.com/Lib2z06fCI29HQB7h42FhYCmSARAAgO6Sf6EZseWfDOUTgr9elrwn04A77wMZEEvbyV5FesNqbQYAUlguT6PqqGqTNn5LC6Fwi0saXtM"
  },
  {
    "lat": 43.663567,
    "lon": 3.89696,
    "name": "Parcours Sportif Du Bois De La Plaine",
    "url": "https://lh3.googleusercontent.com/GaQnm8H2mqMZXPNPa9tARu3sQ0X-wHpajER1Rw6P4qrQpCsUpFpqVRAHSZJejaWyPyPt1R5ioVodYKKxIXgEXx5m53Y"
  },
  {
    "lat": 43.662735,
    "lon": 3.898158,
    "name": "4 - Le romarin",
    "url": "https://lh3.googleusercontent.com/BCHI_86mCUfhZ-SscjfrCq-UX6mRAAX8Mn8JnFPWdnCjvOIvq0WpdeIdBtiNnsIAhxL-_IFc2o8hGUHaiLmSsv07ui_0iZoxwK0bnMil"
  },
  {
    "lat": 43.660187,
    "lon": 3.89658,
    "name": "Le chêne-Liège",
    "url": "https://lh3.googleusercontent.com/jNmsZWloSyQhfQVJyAx0jTuRo4YLRRUzfXC6CKKhrt8pjQKmBOLPAxTAqLHcLU-3FKgN4YPd5liAUeS4vJUDrCrsHSHVbUWsgNlnlFU"
  },
  {
    "lat": 43.659473,
    "lon": 3.902841,
    "name": "The motocross wall",
    "url": "https://lh3.googleusercontent.com/pFi8Uh8LpgRpN7_12hL8OhdHizx8AaVCtjA3Ex4ogd2fPRRfemT0NR1PZGSIDCUobAnxJocU3XUNIvna0nDQ--s4hZWq"
  },
  {
    "lat": 43.65179,
    "lon": 3.897268,
    "name": "in memory of resistance",
    "url": "https://lh3.googleusercontent.com/hqezRsukN7LEEPtijFS4NdGPSwQovQxxX3bQT91PwRbTH1bNcDpdUFrcDpchk7uq6HSu8Z1njtxqJvlpHkhbEmewkmCcDV7Dqqk2FRQ"
  },
  {
    "lat": 43.65453,
    "lon": 3.891896,
    "name": "Peinture paysage",
    "url": "https://lh3.googleusercontent.com/qZPHn5lW_BVd5hZjXLFjYB0b1ujfYBwPDR_-CJhi54iswnA9SipNTDN65rYydDqX0rZFazvMDNZMDmon5DZ7EzHGhlTm5lysO7gX9MEl"
  },
  {
    "lat": 43.651344,
    "lon": 3.894657,
    "name": "Aire De Jeux Du Plein Air",
    "url": "https://lh3.googleusercontent.com/n6Hm9crZxmIUXvY570nES0qhtF_5Kjut3yNvJHtdTr8GgP7EEvqKsnCTb58NyQGTQlh7UC0b0ZM9p3PGsfNigy5GQA"
  },
  {
    "lat": 43.651134,
    "lon": 3.895218,
    "name": "Mini golf",
    "url": "https://lh3.googleusercontent.com/Nu9AH86-rf5jcv0bOOmuQbMY8kJqjMvUrYkCg1aGJlz-rgcTM49d5Qmb4Hqd8NOX24ktYA-2kY_QD3KTSI3-zF_Ggyk"
  },
  {
    "lat": 43.651695,
    "lon": 3.890665,
    "name": "Complexe Sportif De Clapiers",
    "url": "https://lh3.googleusercontent.com/m8WusGiuFtPwzX5ByBLZmA3roIvZPBbiF3iJPHdLijmLZQWKxdF1u8pv_KsCTpw5Y5NARaSS-NCf-upsCem_3cF1H79yjJjjJ5aCLjIT"
  },
  {
    "lat": 43.657043,
    "lon": 3.888418,
    "name": "O Crux Ave",
    "url": "https://lh3.googleusercontent.com/R8hIjWNf-K7QTyVLiuGIpylOmy0a4I8cr7Dh3pqZNTgEBZ-zadxukPeWtHEwNHjd9Kgq9utjGBVJBYfJxinUoJmQnwc"
  },
  {
    "lat": 43.657345,
    "lon": 3.888713,
    "name": "Clapiers Church",
    "url": "https://lh3.googleusercontent.com/sxAj365vawIy74jLzcaAtx8_K4PTsbwYzrJl-WwpOmqLmFbko99P3JgbvG3HjZ7NCMfOPD4FSElXGBlxTY24lH5mH8Hv"
  },
  {
    "lat": 43.66096,
    "lon": 3.887248,
    "name": "Clapiers Bois De Romarin",
    "url": "https://lh3.googleusercontent.com/LHa_OWK5MjYnVpsyLrWpBw2iCBUXAvxuRRDxcmEguAMM06eMCrWIG1CgYJASjWJQBdfAAUHzaOugW1OQrVhK1bN59A"
  },
  {
    "lat": 43.65914,
    "lon": 3.890638,
    "name": "Aire De Sport Et Jeux Ludique De Clapiers",
    "url": "https://lh3.googleusercontent.com/G2ciaEvtzjcg8vlYkJKXZQz0yDFYd5DVR8ohtp1Ya6FA3rm2rhEVnxx3OnqiiVRsCPS2yyStc4tSBThHAfRDeilE-hYE"
  },
  {
    "lat": 43.659504,
    "lon": 3.891595,
    "name": "Place Des Tennis, Clapiers",
    "url": "https://lh3.googleusercontent.com/5SgYFq8NK0Iaw2FdO87HkD8ILMpbUZqTNpPMXb11-dZdMvQTb09iCUTMZpqumLcbYjvmEhyo29d5I86MmDrniSmHlg"
  },
  {
    "lat": 43.66747,
    "lon": 3.882621,
    "name": "Le Jardin D Agathe",
    "url": "https://lh3.googleusercontent.com/0jv9yDjE-_BDTA4XukbtxkM_WQIVz4SwnCPMPcV6S3gjZVL3LuyiLmj3g2r-KSe9oJ_iCr1CNQ2cSrVayGTLHMKBvek"
  },
  {
    "lat": 43.661465,
    "lon": 3.884604,
    "name": "Les herbes aromatique",
    "url": "https://lh3.googleusercontent.com/9SXCdLLxXslls1rxt0i3C_D_DC8Ns7kXt1SasP3jtTTLWTEfF6X8WokrIBkW2Ujg7-Fte39BDVIS_VI6c_ShxBDY7TDz_IaQf27n8EI"
  },
  {
    "lat": 43.654037,
    "lon": 3.881123,
    "name": "Skate Park Municipal De Clapiers",
    "url": "https://lh3.googleusercontent.com/1S55Qb2w_VG6pj4SiVBlF33N5B7zUX6HNkl5OhDeB-QRVzaYPvihT1OGpABct7s5ToEaudRqv_nZ-Te6Br_91Z6PdQ"
  },
  {
    "lat": 43.656425,
    "lon": 3.883955,
    "name": "L\u0027éolienne de Clapiers",
    "url": "https://lh3.googleusercontent.com/z1E6zIqb2gm-4qhrN4EVqd4wQdW06MKHYz9G9HGWNZ01dEdse-2ZZHnw514UkHGO9L5ZlxR3Y0DYcTPmF2Iqzw4BmZI"
  },
  {
    "lat": 43.65296,
    "lon": 3.882487,
    "name": "Ave Maria",
    "url": "https://lh3.googleusercontent.com/gKouCiHJnXkQGra3jEFRkpJeLUovLW-4a6B8b0351aiuuH5_PAAZz9H6NaTWU-gqUvn8cGNpWxnDAnTzIeDX4KGQkmmV"
  },
  {
    "lat": 43.649406,
    "lon": 3.879073,
    "name": "Le Site Natura 2000 \"Le Lez\"",
    "url": "https://lh3.googleusercontent.com/-iLuW2eGXdg8GEc7yKfj-7JMJqTJRl-EYyaxdn1SDvoFtsXeSXzYMO0PRveYH_-avW7Jqe2hVosL0j1v53ooHC9PCa8"
  },
  {
    "lat": 43.655235,
    "lon": 3.880755,
    "name": "Médiathèque Albert",
    "url": "https://lh3.googleusercontent.com/GmYS9JOTEidnZz--LfLiPRhY5VpVnERZA1UeL51t7uQzGxddjaMvY9CMb-y9vrN1RLPKBBAJ_WJ6oxbXdVnt8PLU7g"
  },
  {
    "lat": 43.667873,
    "lon": 3.860885,
    "name": "Montferrier : Aire De Jeu",
    "url": "https://lh3.googleusercontent.com/eg9Vn6fs-x352HGXHhHFSPt0oOE9n7hueb-H7LWOgBcco776PcY32dMS4ovb932pqZx3IgJLVBhmn11U9KF75xGwMScP"
  },
  {
    "lat": 43.667683,
    "lon": 3.860468,
    "name": "Montferrier : Croix De Pierre",
    "url": "https://lh3.googleusercontent.com/iYZuSBu6oXQf6JWGW_zx9alj8OyzzETijjX3JWNurVcAtB_dOtH7ZWkb7wNFOVNODR0IDRqoHTCtgCmtn2GVsrdEoBg"
  },
  {
    "lat": 43.666756,
    "lon": 3.858482,
    "name": "Montferrier : Croix De Fer",
    "url": "https://lh3.googleusercontent.com/muE3-deg8D00nMabDbyCYLekmDPfvBWxEKxS2o_CoOBZ-oYeFPtNWR6DyYOQx7B0wmhXdCjdYzPLOQJvxKFuCvZQaw"
  },
  {
    "lat": 43.66637,
    "lon": 3.860253,
    "name": "Montferrier : Souvenir Du Jubilé",
    "url": "https://lh3.googleusercontent.com/wRmZZfOVWRELZQeharL6G8OjrY9Bn2hEbhkzkf2A2YkSHNh6sU2Qi3KcG4i0f1mlToH0m6jDwyzPZkbSKzuR-FYLWg"
  },
  {
    "lat": 43.653465,
    "lon": 3.856967,
    "name": "Acqueduc Saint Clément- Montferrier - Montpellier",
    "url": "https://lh3.googleusercontent.com/1FvTQWEniUrTWD3UTvfOZ6SYRO5jyAbYHJXXx5uLxiLCUPqkxXESinD_IB6FccjjM_I4AbJj0wtG9ExdW--KqzGTu7nh1hj7JfAl00Gy"
  },
  {
    "lat": 43.651535,
    "lon": 3.851436,
    "name": "Borne Saint-Clément Enmurée",
    "url": "https://lh3.googleusercontent.com/RaLgM4H410juE0oe2pRA8tXhYF8X-PK6M2tmQiCgEbio66VkctGyS4DJsu00b_MpiKbmtCYbk2dZsBD7Ev5lWWvm1yzKgckqbAuCk8qM"
  },
  {
    "lat": 43.65072,
    "lon": 3.84885,
    "name": "L’art du graph",
    "url": "https://lh3.googleusercontent.com/leAth1xTRMr0nrCt0I0qG7kjfq11kqK8DC64cJpfToPRMS-q9I2PEhxmV64MJJnuLhmblZ8fA7XZkuNtJpgO6cCGZeAfEFjBIxt4BnWi"
  },
  {
    "lat": 43.666016,
    "lon": 3.85362,
    "name": "Cimetière Entrée 1",
    "url": "https://lh3.googleusercontent.com/qFthO59PfC92t-jNguZn-paSCIx6jSVNt_5P6FD_Gnk3NTaGfdBpU061GSvvifiPTPOMHxnearoz8exCreLYLx3YWEY0"
  },
  {
    "lat": 43.65772,
    "lon": 3.845018,
    "name": "Au coeur de nos vies",
    "url": "https://lh3.googleusercontent.com/UsEIcIBguxHHjXUjREH_Qxxpa1R5sgCMH1n1UtrHrjIID5C9lLJqZOXEWYEaN49jvsDoRNtBW8ukmgB2bIGDvyp4fsb_epvnMDTYw-0w"
  },
  {
    "lat": 43.65545,
    "lon": 3.837467,
    "name": "Table de Tennis de Table Campus Bissy",
    "url": "https://lh3.googleusercontent.com/eBbMG9Pf7EHka7Zw6ar69xCKbAq9HfW4wPalm32IBeK6CZ3wQbOqUb82_V_KL4riYB-FwxvEU8-uE2VP_hlQFjZa4G28"
  },
  {
    "lat": 43.650425,
    "lon": 3.834293,
    "name": "Maison des Témoins De Jéhovah",
    "url": "https://lh3.googleusercontent.com/ikQogyL0tj9NQUrCvvtDFmTYX4A2e06SvmCtrmikrZXfNU8rOK83icbT1WxTw_587DNqBQGR10FkzrKQNFJIhFNaNOAi"
  },
  {
    "lat": 43.6515,
    "lon": 3.828376,
    "name": "Kiosque La Valsière",
    "url": "https://lh3.googleusercontent.com/6E7NZ6i1HI-j87owsTR2J_0kFadgosguAv8nqgyxQ2BRZQEceoLTnvSaHltgTZhhi2RgnRV1idRxEF8CQvt6qN5I7CEP"
  },
  {
    "lat": 43.655125,
    "lon": 3.829407,
    "name": "Court 6 ASCH Tennis",
    "url": "https://lh3.googleusercontent.com/9ls-WlI0FVdMztSNSN6x5_yIXnlydsnVYk0_j5g1IbpD1VqKv-uE6YICf5OHz85s-qIdr5qMWKJAmbgdCcLCZabendyB-IM-csjhaSIoOA"
  },
  {
    "lat": 43.65108,
    "lon": 3.808135,
    "name": "La Petite Arche De Grabels",
    "url": "https://lh3.googleusercontent.com/S4c7iXm-GMAHe0bqX2rNgRziMAuR5FpxZF0yozJGGCiJ32qUcgIa8srCnpEnMbH_9l4vqLWMivALCXLE9uAadplLEw"
  },
  {
    "lat": 43.652103,
    "lon": 3.810686,
    "name": "Stade Serge Oltra",
    "url": "https://lh3.googleusercontent.com/JqAgLgVeFFcM9WRD39ZijcHZ0aE3uHYR72Rb_Bohm8vhtOchvfq1rJtNMtdObHwwluAWbuc4C4V_PsKY_4hqvw6riho"
  },
  {
    "lat": 43.64379,
    "lon": 3.817632,
    "name": "Château d\u0027Eau Massane",
    "url": "https://lh3.googleusercontent.com/W2TerQAMPYrDGyrdl4w3HHXO5I6IEpwhpmgZ_XQIEWKSk5lE7EUXBUjQZxzml3ihRmJ5f_-aECgZYFPtGXwd19n3aA"
  },
  {
    "lat": 43.649178,
    "lon": 3.810714,
    "name": "Aire de jeux pour enfants",
    "url": "https://lh3.googleusercontent.com/upsjdYPD4kn8dkAPSnSRt7l8m0A7UDfP1ATgGp7Q-Z2QXCQ6I-H6LRLBq46hkVELXT4FujwxK6HztXY3msT62aISpcw"
  },
  {
    "lat": 43.639072,
    "lon": 3.813181,
    "name": "Parc Georges Brassens",
    "url": "https://lh3.googleusercontent.com/1d_qrZ5jKw3D0n4yoCUMDtkonw5KjCp3F4E9FtUgf426RZNRfnpZDNyciYrK26np5GgW6veFMdA3sXiAWLKlPhmG0GBrXVbvPVR4J3Q"
  },
  {
    "lat": 43.63299,
    "lon": 3.819701,
    "name": "Mediatheque Jean Jacques rousseau",
    "url": "https://lh3.googleusercontent.com/j4oZS6NBAZ2fG9CsGPPxW4bAAR5QbeUXq4W3garsh2kgtHkRsOQesERTIgLMPQ9GWyUVsKElQE0V21ShdnDqoRsGeQ"
  },
  {
    "lat": 43.63198,
    "lon": 3.818948,
    "name": "Église Évangélique De Pentecôte",
    "url": "https://lh3.googleusercontent.com/sjPxX3--jL84t3yXDOUrlH9At2hAR3drP1lastouWrcCa7AjTyuzfuH4_hgMu6SPd4KWlGZQ_KMRktRRyz_7ynchHA"
  },
  {
    "lat": 43.639084,
    "lon": 3.817024,
    "name": "Cade",
    "url": "https://lh3.googleusercontent.com/aTyM-Xq64vb6NC8ljeB0ONq0Os6gg-zsX8KIjHcq5-yomXSZZhOJqZZ8-Itc1D9vijhqdGpYJzeJNx9lJHfUayYNlAv_xOEV3lg2xNs"
  },
  {
    "lat": 43.63768,
    "lon": 3.817241,
    "name": "Parcours d’orientation du lac des guarrigues",
    "url": "https://lh3.googleusercontent.com/zlVF1Tsu0jVmr1hEmPjUIZ5z6VXIsy5Qva8IdxjeCCl2dInkU2J9fWY0QFMRNvS3gWYGPA6slmhVyuSCVS-Wube13w"
  },
  {
    "lat": 43.63917,
    "lon": 3.81643,
    "name": "Tamaris",
    "url": "https://lh3.googleusercontent.com/ZK5_SJm46bC3jCtSZR26sBNthZ1_1JLjNdWOSqu-pzlrB1x74ZI8-qgrU8NwQIJyfgnT-J7b8wnI2azAGXNIUlbCDrBVi4OKeXK0iHv_"
  },
  {
    "lat": 43.63636,
    "lon": 3.823755,
    "name": "Faculté D’odontologie",
    "url": "https://lh3.googleusercontent.com/pNLQDwvvN9Zj6hvyYgS-t8txT4x9k-ER2YuF5-_PUf8z2Y3n6nZSvRl108w_wuV69Lac2oao987EVDZuFudR2bp0Sg"
  },
  {
    "lat": 43.63187,
    "lon": 3.820547,
    "name": "La Poste - Montpellier La Paillade",
    "url": "https://lh3.googleusercontent.com/8cEzNK9FKWwlXaAjquGpw4FeZSXpH_i6tEZW3x24KEcKdC4JCgjwyPO7Pzut_eIKmCwxMr4kb--lRx9_boC7DeMQ9Rk"
  },
  {
    "lat": 43.63264,
    "lon": 3.82046,
    "name": "Gymnase Jean Bouin",
    "url": "https://lh3.googleusercontent.com/AhytIOhtxXn5eZ8Z3m2pGgwwDruaVwCavsO1Sw2ic2EraCf5Ok7M53oWX12oAyGERj-cSrtrUNdTQuNBSxKFXNSgcmc"
  },
  {
    "lat": 43.626823,
    "lon": 3.821281,
    "name": "Fresque De La Mosson",
    "url": "https://lh3.googleusercontent.com/8jtD0yQ1NymFD3CZsq9Y4FBtftRwQP4QhW2lIn2eyV-Ax8coklbKj3yXwcpZJqEUF1l0Bvc8LdsjNpb0Dy3IeHMC5Q"
  },
  {
    "lat": 43.63045,
    "lon": 3.821798,
    "name": "Mur Trompe L\u0027oeil",
    "url": "https://lh3.googleusercontent.com/DX0uEndV_tpVYfG7RMIj-_yb7Ywh4Gw5FAQK5UBSuoe3y3EAKe-1TB2cGqnO2lXsQDBd2t1FJV7osHEXnJwR5Jnd4cU"
  },
  {
    "lat": 43.62848,
    "lon": 3.817823,
    "name": "Boulodrome de l\u0027Hortus",
    "url": "https://lh3.googleusercontent.com/6V00WtATdO86arSLRDVzOvNuDtWlg2lgM78j2X-kR2I5mNYXo6W88FJgviZa8_zcnFXfiW8rNoUtITD0GOke1ceBaCWR"
  },
  {
    "lat": 43.62713,
    "lon": 3.817331,
    "name": "Kiosque de la Mosson",
    "url": "https://lh3.googleusercontent.com/xzVmBYFzkoXh8vwriWqXvRazui-yVnq9emW1KOCWgEK_0XQx5g8bKTai4SgDPq6XIPpGLkATcqbkwJxfs9UEXAC3Gg"
  },
  {
    "lat": 43.625477,
    "lon": 3.816757,
    "name": "Aire de jeux pour enfant",
    "url": "https://lh3.googleusercontent.com/hXvfU-NEdRKsPypUv_kX_H-B6FssV6mKc_8OwN61QqelKBChwnLkaE6xOin24ejB5fKZSW7F22qh7wqsEr4F72V4DQ"
  },
  {
    "lat": 43.624474,
    "lon": 3.818033,
    "name": "L\u0027île aux familles",
    "url": "https://lh3.googleusercontent.com/H4Cm52yTtzrWl43ohn2BuBb7cCYGDSdz1WzLY8kRHiH4XALNmkQy6YaAtcPG0WaJJjyuNCEFOdMjh8gHiOd4II0Jz4Wt"
  },
  {
    "lat": 43.6239,
    "lon": 3.823276,
    "name": "Archive De Montpellier",
    "url": "https://lh3.googleusercontent.com/n6vrqaNJO9c-E3kHfrBibcxYflS9T_xgvIcFebMcSUeSqR6_XvNuUT3I0rhCqILEOg8LL3Gk2oBHVG0kh7NgEKj3xg"
  },
  {
    "lat": 43.6245,
    "lon": 3.822761,
    "name": "Jets au sol de Pierresvives",
    "url": "https://lh3.googleusercontent.com/Q3lkzHbOdfUm7R5O_JwyRAAxv45ATALPw0STSxVyJZmwS2fZ_ARc_xV8Zk3aRp7iXBKauHXCW4M2C45h29V1AKBoaKU"
  },
  {
    "lat": 43.61726,
    "lon": 3.822633,
    "name": "TOTEM ÉTOILE",
    "url": "https://lh3.googleusercontent.com/LoSVHh30V9D2JZxV9qs9Q6M8_837W3Pbz68qwdlaIJ1P4KBywSETYZ562NAp18ZF_lzcSoTgYrwqPZnbAbyx7_HfDe-G"
  },
  {
    "lat": 43.61436,
    "lon": 3.822428,
    "name": "City stade Louis LE VAU",
    "url": "https://lh3.googleusercontent.com/0W5ypYkSPkmV3H2GYHzavZZWwZ2L5tyCJ2_pfuAgfSw4oBlXOQueLF6LkJUHYWOQx8f_zs7HxjxWKPOVMxUFfYyeHaU"
  },
  {
    "lat": 43.61628,
    "lon": 3.819646,
    "name": "Arrêt Tram Mosson",
    "url": "https://lh3.googleusercontent.com/JXrUUoV2oS55ouNNt-oWtgWfqV6CrcVzw1I0fDDbg8ddtf_5iViSD9ONkXRfoKRUl2j_GkTBuyV7IUOct3g3LjWuj-Y"
  },
  {
    "lat": 43.614605,
    "lon": 3.817029,
    "name": "Pont Romain",
    "url": "https://lh3.googleusercontent.com/EHxy4aqpsg1zck9t9atmf2mLqvCU_g1I114HzUN6ydHffN2NsiGGr_GWj_L_EwvQFZvzfZVlKZsN8mGyAft20e3j5s4"
  },
  {
    "lat": 43.620224,
    "lon": 3.818134,
    "name": "Constellation Humaine",
    "url": "https://lh3.googleusercontent.com/To2IZuXE_oWoOEUsIpkBluOHDsc8B1-qW1BPUnshvna7QN6yCv29mltq7HYJkHfWLLr2O4ejv8FubzA5e3bMmiyICQ"
  },
  {
    "lat": 43.620777,
    "lon": 3.815315,
    "name": "Mtp Nord Aire De Jeux N Enfants",
    "url": "https://lh3.googleusercontent.com/PrzDAsQdh4vdEkAKDAITi8EaV7XSmywR4QBN7bSs2gMfmInaHsMVB9Z1zB5WHPBb0AqYmUL1sf_MPg7LyUZBO3IQr6-X"
  },
  {
    "lat": 43.617455,
    "lon": 3.809976,
    "name": "Terminus Tram Juvignac L3",
    "url": "https://lh3.googleusercontent.com/ixSNIQZjcls7JF4qwZeKBqnhvwdCIDphLNYGt6j66eFAlLggBK06rb1dza8M7Yn1l5_Ls64C863cAZZscp8r4rXkl8wK"
  },
  {
    "lat": 43.612957,
    "lon": 3.813138,
    "name": "Licorne parc",
    "url": "https://lh3.googleusercontent.com/C-kdH7bbXzl4RuMxLOT4RYD-fi08pF5-ts-GQ2GWLCTodBg69U4Ax5wVmZilnkOJ8d0j2Cw5L9LKo6wiFRiKFYQaKR8a"
  },
  {
    "lat": 43.613873,
    "lon": 3.812483,
    "name": "Square Maréchal De Lattre De Tassigny",
    "url": "https://lh3.googleusercontent.com/7RzA2jz_Q3A0GZPLXS67H1WWn49QoeWjp2zfWQy3rQlrs24AVDxeMGiRNFP1br0PFu0EIv5ohCKWQ_vqiHC1NmH8BA"
  },
  {
    "lat": 43.613697,
    "lon": 3.805427,
    "name": "À Nos Enfants Morts pour la France Mémorial",
    "url": "https://lh3.googleusercontent.com/MMubD4e4k5wJ4FadEJYvci8pHnb7fggnArp9h-H-qpeEizYXiecHhwsfz79YG420t-WAODIEAZaZs0365wKE4vA5MA"
  },
  {
    "lat": 43.616673,
    "lon": 3.808626,
    "name": "Salle Des Sports Jean Moulin",
    "url": "https://lh3.googleusercontent.com/xWk4zFPaHK4QbaxNEJQPykTdM6E1bndhnlucIazULUpC5fQRtQ0z-9VDwLosaiSKRqR8QNskvlRf9dMVYHCRie0Nxok"
  },
  {
    "lat": 43.618374,
    "lon": 3.809504,
    "name": "Espace Claude Levi-strauss",
    "url": "https://lh3.googleusercontent.com/U7sOL6mA7461Tum6h3aNSMHpTVIR5ujnxuieVNEJ2Ql5ElaaeqYgsXy8pgLmT6W03OsedDZu7_8CBezwQvQv42zicw"
  },
  {
    "lat": 43.622288,
    "lon": 3.813052,
    "name": "Montpellier - Stade de La Mosson",
    "url": "https://lh3.googleusercontent.com/yBOe_Ixjglq_J49-4qsOO2zDrxSQgYKZzxS8H2ZeaPFBgikXsHrAuyFRyGoOj5b9qonDPb_xgKg245f2uGzhc9dxB58"
  },
  {
    "lat": 43.626785,
    "lon": 3.813223,
    "name": "CityStade Pailladin",
    "url": "https://lh3.googleusercontent.com/gAhZtUrk0BxwpNXYtoqEjv4ZP3DnEMi-HFk30Ohy72Clnzs1aPGNF7F7pcrt3euyakS4q4Q_kZjaMbUfI_MuIo41tYM"
  },
  {
    "lat": 43.62776,
    "lon": 3.812124,
    "name": "Chapelle Des Thermes",
    "url": "https://lh3.googleusercontent.com/vkS0M1iT6f5Lly2qbTTofokCY8Y2wFQdEV8EA4WPoQ6lTDMjrKyf9EtwA8CFgThq9VjigTEiaeHcRH2__ibMhxZ35Z4"
  },
  {
    "lat": 43.628574,
    "lon": 3.802721,
    "name": "Les 3 zébulons",
    "url": "https://lh3.googleusercontent.com/2BlXVJGvlgMU1uHqVeAaiYqxxqBW7oR6ud8l-PHXTgODInFWs0AQu0DQO-eMli-zsZYc2FDVcNIlSRypvtzWPPiLh_od"
  },
  {
    "lat": 43.626015,
    "lon": 3.802894,
    "name": "Fontcaude Jeux d\u0027enfants",
    "url": "https://lh3.googleusercontent.com/f7_ROy1SbduuLRPNPoIbMkjUcYpaDjXD_mW0R2_gV01PH1EEdPmzA0XrOkZEzpPk0LDHuHxEH4UOkj1wLuBh6sHaTbY"
  },
  {
    "lat": 43.620327,
    "lon": 3.799686,
    "name": "Falaise des fourmis",
    "url": "https://lh3.googleusercontent.com/SD9AE_dnaN4e6DXS4TDC99XXSh-j7iRM_SixQ_swU6h4DuXC8m_03Metg48AmW9Iy52zn99yHcExh7hyJYPWPBKjO8U"
  },
  {
    "lat": 43.61437,
    "lon": 3.80044,
    "name": "Fontaine en demi-lune",
    "url": "https://lh3.googleusercontent.com/o4MuYUkmIsP6el0eCcvf7Eaj8cQWrd5Odo0v5Y4xPhOZ38lSYU8JG2S7DcszeQmoYCqiKX4wcZyGu5PO77AuQybSdJM"
  },
  {
    "lat": 43.61791,
    "lon": 3.795717,
    "name": "Fontcaude Vieux Tracteur",
    "url": "https://lh3.googleusercontent.com/opsvUY90-64OBJaruMWyqv7ycAUHgOAhgaWLpf3YOKlRB9CeDjhd-qA7nJObo68hskqAaQNJ-Zh7dI_qGJmwNvG4hfQ"
  },
  {
    "lat": 43.62128,
    "lon": 3.791366,
    "name": "Skatepark Juvignac",
    "url": "https://lh3.googleusercontent.com/458qeHtcssHE1svtAWZ-SWizDAfAFLQCz5fMKtFqccUQYxYT3gElTNd1xSj7qrL4PkEwKyX_8EMNDpfybcp5Lhh5xg"
  },
  {
    "lat": 43.61468,
    "lon": 3.794193,
    "name": "Panneau contre les dépôts sauvages",
    "url": "https://lh3.googleusercontent.com/kQz8lx43HjWaDBW336Mg_yramPcVphkMULrFsZDDXXm2yr59ENBMp19SpRIzdLBTJpZwxbr0tykLYiBqt_OD0VVbyl7qJJpVlb8gb9ohyg"
  },
  {
    "lat": 43.64603,
    "lon": 3.796063,
    "name": "L\u0027Olivier - Oléa Européa",
    "url": "https://lh3.googleusercontent.com/uDlpXWZglh_CueX_t4IGVQMu9BjINpTD_fv0kxOw-tSJLOO3zRNy7gmnGd7VN1t6DqzuzREmp0bor57UwbfmZD-0p7cl"
  },
  {
    "lat": 43.64646,
    "lon": 3.796327,
    "name": "Repère de crue 1971",
    "url": "https://lh3.googleusercontent.com/rT_1y89zHdIpWIbBCWIgC98-FQBgWQsbixq7V4m1T1tscXNk4JfqiMqXtVXboQdUBmA444ISgyDW-vLR__cESoC8E1wI"
  },
  {
    "lat": 43.646233,
    "lon": 3.802841,
    "name": "Terrain de boules - Grabels Saint Charles",
    "url": "https://lh3.googleusercontent.com/kvrOReyh_XljHl1XtBXkBtjm6VIDN6ajuy84bcdVyrw45et_XY1EqIBKr-28w5L_8cNz0kmLvzOqZkFGlCTT-8HIn6kZ"
  },
  {
    "lat": 43.645218,
    "lon": 3.800951,
    "name": "La Croix Perdue",
    "url": "https://lh3.googleusercontent.com/EwOznn66nwc8PEE2qW-WuUyjsyETlf09WkKIN3swj-xsFxhIuUo7rDVF7t7p-fRI1DhgrBooVJNV0NbeXghverocig"
  },
  {
    "lat": 43.64725,
    "lon": 3.802248,
    "name": "Fresque Happy Cédric",
    "url": "https://lh3.googleusercontent.com/EutCDK3kPIclhi_l7uIWrDWtrcmSIOF_mIZWiibuwFwKs8ET-Vm7QYdHqYvw5127_kKqNnC2hZgdKG9gs6AgvofV83Q"
  },
  {
    "lat": 43.64696,
    "lon": 3.800218,
    "name": "Les 14 Stations En Croix",
    "url": "https://lh3.googleusercontent.com/Z3U4YviFLi5_EkfmpBPNWcsBIn7r_3lpIg0ONz2krtGWOl2E9CZT2WqITtSCtW75PC8P0Blb6bWPhuwfSUTGgEusiXI"
  },
  {
    "lat": 43.647327,
    "lon": 3.797019,
    "name": "Grabels église",
    "url": "https://lh3.googleusercontent.com/tznrN_IAtYhtDernUOkaHCqFR64CgeByQ2tIFnFyTLLaO22JMyDLUw8rSEFtY-1guuSRlW3wWvQTyh_uYmdSGDk_FwK8"
  },
  {
    "lat": 43.647,
    "lon": 3.797049,
    "name": "Grabels Mairie",
    "url": "https://lh3.googleusercontent.com/jQdD3tmhAJrGrlb52XYdAeIMB2h1tjUBHyZ5b8X76zBvUM5ODNYsBnAhJtPHumCAY5z34s4559SRng6BAYjXsi-J_XGS"
  },
  {
    "lat": 43.646904,
    "lon": 3.792748,
    "name": "Sentier de découverte de la garrigue",
    "url": "https://lh3.googleusercontent.com/xQDIyuknbdt4fa-DDcXVsrrCyapmLb2y1vPanLdfIuZqd20lYKtzP-untdC_Zbpxt4Vx_OIXUUfl_w5BowubmsCqnQ"
  },
  {
    "lat": 43.64955,
    "lon": 3.794226,
    "name": "Plaque du 6 mai 2015",
    "url": "https://lh3.googleusercontent.com/spCS9brbQQzvD26fNS37592lCcA3njSISFO0W9jCNAOwLGv9GmZQmi02XT9wsiRvx-73416YwDIhxvF21H4X1Bd-wDg"
  },
  {
    "lat": 43.646667,
    "lon": 3.792787,
    "name": "Source de l\u0027Avy",
    "url": "https://lh3.googleusercontent.com/RZPYNSt3fjVK-AV_Xw93oXW1dHUx6xLtnkwDRSy4LM0-qjUoeNmobaHDvfvW6TQGnVnS2d-1v3fZd1ZLMFHfkc5kAABf"
  },
  {
    "lat": 43.61065,
    "lon": 3.779715,
    "name": "Croix St Georges",
    "url": "https://lh3.googleusercontent.com/Pfafgc7iUqGdYPeLSR2UImGrsSP0iY6p09c1Cd6lfpuYJvnCfGGquiuwm94hpGR_bnaNKiZi0V8p3k4VBqvKzgJqIVY"
  },
  {
    "lat": 43.60973,
    "lon": 3.781192,
    "name": "Eglise Saint Georges",
    "url": "https://lh3.googleusercontent.com/CM-I9k8qMxM07yR9ngh4VVvKfeOF00SO3zP45ARUpOlc294Zx2ZifQJ-T9DWCrLUXh79QHZ9bJx7CmSXdjR1EtMbEgVk"
  },
  {
    "lat": 43.61261,
    "lon": 3.776265,
    "name": "Croix Bel Horizon",
    "url": "https://lh3.googleusercontent.com/hx5DL6Vdgv19plDUD-GIm4mnVYszGZGFPpruowIZ4wvPAvnJjFPeiGiODh3LPnjlpRGz0gZMjkv9s6FvHuana4Es6w"
  },
  {
    "lat": 43.606636,
    "lon": 3.784015,
    "name": "Cimetière de Saint-George",
    "url": "https://lh3.googleusercontent.com/90puXJ75Uhcj9aGMDQCIZjiNgeJo-UfXFE0i2l0LR-KpCbCJD9_TPlihHjt6SSTjXsBjNnTyy22eClPTTiBv5Ebkhw"
  },
  {
    "lat": 43.59523,
    "lon": 3.770503,
    "name": "Alien des vignes",
    "url": "https://lh3.googleusercontent.com/bTCO_x1rhkJMrkdQGep2_6FM39DDHtRo_avL9n-xbZwY-LTW_G1TRz8QCuAhSHfShNaSzzYcnbFf7J1mopKnLEh5lkj0JTIxBeoFT5fQ"
  },
  {
    "lat": 43.604584,
    "lon": 3.750541,
    "name": "Croix de Rinette",
    "url": "https://lh3.googleusercontent.com/iRvLrhmwyvHCUsLOmt-MQEM0tW_iXbQwTx5AzhfDFg1I1TeLx0uVyXLs9qW8HysqkkDjann4Bz3dipb1DHchI71Ex6YiqUa_2gjA5sk4"
  },
  {
    "lat": 43.585938,
    "lon": 3.760524,
    "name": "Avenue General De Gaulle",
    "url": "https://lh3.googleusercontent.com/MiyVRZGhnlE59_3BTaK1z7BDw-T1OuAjzKE8cQeTSOf_Q8US3nc67Q8GMEa5OtqsH9VpNA_sod58za6h96BKKaE6SoM"
  },
  {
    "lat": 43.58411,
    "lon": 3.753148,
    "name": "Stelle Gaston Defferre",
    "url": "https://lh3.googleusercontent.com/1JviY639RKL0XTHHpZf_0c6FnEiz2C2QxyGgtJYK4oPDe9jh5c0JI97Y43xF5iBH0LV3XSQn2Z9zovF770-YAlId9g"
  },
  {
    "lat": 43.582047,
    "lon": 3.744209,
    "name": "Pignan - Parcours Santé",
    "url": "https://lh3.googleusercontent.com/aP-PwYalLjTssFWOd1EAiWrB0QoM9SEbLpXBCRTQ16Arqohk7KlHKP6JT8uYcwIb3bog6l_4EZv4VEyCftiO48zlxBjp"
  },
  {
    "lat": 43.579956,
    "lon": 3.744609,
    "name": "Espalier",
    "url": "https://lh3.googleusercontent.com/g4AdVjEyNjic8IGYfCmN_54ahNC0eHXoDPVo5S6muro29F4TjPn-eOohdJjn2GV7YxNkybP4ge81ZU_r3fSZkJuu_BzPmtxwXSLPUXZ6"
  },
  {
    "lat": 43.580185,
    "lon": 3.745338,
    "name": "Barre de suspension",
    "url": "https://lh3.googleusercontent.com/hlYI6mPkfqrS_0lUa-ynJGVYuVFKZ_0euEYedNz3M-pKO6DB5OG3ZiAhRuhCsj7H1azcXOn65urZMUPmomKJD93l9D1RqDBrAKzaerDcAQ"
  },
  {
    "lat": 43.57735,
    "lon": 3.752733,
    "name": "Coccipierre Pignan",
    "url": "https://lh3.googleusercontent.com/GyUXCdtdwWRxisuV_zY1WKvl9R2APvTSNEmxybeVhyKGwsip-YGNulvA9Ecb87I2G4SkmRchCaVpRnd6o8MVuKlmYqs"
  },
  {
    "lat": 43.579147,
    "lon": 3.755038,
    "name": "Toujours Des Croix",
    "url": "https://lh3.googleusercontent.com/0yqW7m57kvUJ8o2uKjgVIYmK70l_XF0kptU5SI44xjF6llfOHeGnEMV_LxStpdmA07DKh6qFcv5S0MNzd3NIxU3fmg"
  },
  {
    "lat": 43.584686,
    "lon": 3.757915,
    "name": "Adveniat Regnum Tuum",
    "url": "https://lh3.googleusercontent.com/BtNtklo2de9xGrEDECg0ODneT11-yLyhz9CGpSBOidnSRw3YLjf3kCkjNktKigYwPaKRmvJDx2pCxoHi5vvXiw_Zncx3"
  },
  {
    "lat": 43.581814,
    "lon": 3.761667,
    "name": "Mairie De Pignan",
    "url": "https://lh3.googleusercontent.com/QZ3V48Hk_k6ys53IX2zsK7ctJiOardK8Dwv1aD8oa2_nPCmPVYMQTejKKRN6FfhAE_EH_aYbmwCTFhYKSqRaj5jkEg"
  },
  {
    "lat": 43.58095,
    "lon": 3.762327,
    "name": "Cave Cooperative",
    "url": "https://lh3.googleusercontent.com/dDQ98S2iWQ4_UAsa3YGOKfPoE3elLR2Wndqf74IxENirNbUu3wqAZXKTKdXvmefeOzi9-BV3_jQ6ONIhW8fbhBqCTw"
  },
  {
    "lat": 43.579853,
    "lon": 3.762361,
    "name": "Halle de sport",
    "url": "https://lh3.googleusercontent.com/C3L7Z5ndLJO_bIBJBdEgTjNrLhcs-J-_4h7EO7HhrslXkKKLjYBdvAaLTHKm-uWFZpJ1Ez3Q3DcBfpO3mWkOwIG6yjvCBnIeNJcVNSY"
  },
  {
    "lat": 43.58018,
    "lon": 3.761346,
    "name": "Ancienne Sculpture",
    "url": "https://lh3.googleusercontent.com/xQObfZXGADeoz7_V_v8-X5HpE7bzamBJYnvO3Cujrs9y6-VbH7gDF78NpO8l4AMImSpCUTcMvnobmm9zNMcyW4vTfA"
  },
  {
    "lat": 43.58291,
    "lon": 3.77013,
    "name": "Complexe Sportif Serge Corbiere Pignan",
    "url": "https://lh3.googleusercontent.com/kiFdrj9JZ8W4ZJOR2d9ON4sMWxVz6VJD37CwHovtA5dqJ580Tw-YcqGFNwCGU7wnad2qEFFdr5z3D8NbglXcqFDhPKA"
  },
  {
    "lat": 43.583664,
    "lon": 3.765199,
    "name": "Ancien Puit",
    "url": "https://lh3.googleusercontent.com/9DkhQQHCsT2jVYXk72EotkC2z5MRj4oObzC8Zaeip-cFd-BES-tLrn4d7z5lLNPmOpgU0lB-39sVLn5Uc6DqkYJRLuQ-"
  },
  {
    "lat": 43.58757,
    "lon": 3.766939,
    "name": "Croix Catholique",
    "url": "https://lh3.googleusercontent.com/UGsKqwLh4eJ6LFjmRH21RyulpXx5QXiBR8-gruy4Wyd1jDCTL6EHq9S4s8giYfeZYbBCwX-ZsAjbxXiC1gXeItQfVh4"
  },
  {
    "lat": 43.585384,
    "lon": 3.770643,
    "name": "La girafe",
    "url": "https://lh3.googleusercontent.com/kxf5Q50kW1iwhkhaFzszDbi5L1ZE4V25W2ktpwSyzbeaJ-fOmxIQFwrILQYPP0loTxgy_RKxZRmiIOXKSQmy1MBiwh-1D8vGwpt50VBezA"
  },
  {
    "lat": 43.58401,
    "lon": 3.799498,
    "name": "Stade De Football De Lavérune",
    "url": "https://lh3.googleusercontent.com/d_5WrB1pmv08YvkKy8l8HX6bHZgUGZXjnhPnacjjcOC2J8nnhTz3SPr-5fXf2IgXPUCkpy7uSGfUxWn0CXJ5SpuT1Q"
  },
  {
    "lat": 43.58385,
    "lon": 3.803903,
    "name": "Cour D\u0027honneur Du Chateau",
    "url": "https://lh3.googleusercontent.com/pxuNI8EFg_EZzn5Py5fFKNAFlPv0MWz8iO8ZcXqWPHCE8GS04T6uVN6d7v7qNU_VOCTgKaAM0J9PZV_Bwdn83BKFVQ"
  },
  {
    "lat": 43.586895,
    "lon": 3.802944,
    "name": "Croix Des Aires Lavérune",
    "url": "https://lh3.googleusercontent.com/FAwOlvFM6qgGMQZFbm2Xs9Mi4n2yCTWbgmSWwFwRR1Dia4OwSujrx0--qoaHyWGdp8L3nEUFvpaVtumDD5a8U01aJIwX"
  },
  {
    "lat": 43.586983,
    "lon": 3.80417,
    "name": "Cimetière De Lavérune",
    "url": "https://lh3.googleusercontent.com/qwejc4hP7DYvYH5A1o8jlnBQAZhrIFH-6vQGay7QlxlF-iIqoeAVc-et9N0peh1mAXDb9lyrYF8D7aNd-QpSSYwkuKbu"
  },
  {
    "lat": 43.60554,
    "lon": 3.785912,
    "name": "Skate Park St Georges",
    "url": "https://lh3.googleusercontent.com/jm72TmDoV5akXP9db7FlVH6j0YtWIg7RfebAE2gKNe7OsXSmFO3cBKqWkMuZBsQ6zc_he_XYnxW0kOtTqx30iwkUmw"
  },
  {
    "lat": 43.61042,
    "lon": 3.7847,
    "name": "Poste de Saint-George-dorques",
    "url": "https://lh3.googleusercontent.com/KMdRMHeo0T8z5oVNajWUmiY5QsGgAAVYgjLIybjgfnt0qzRcY0pK3xw-ZaS37u46i5dctXhqFtHztod4_PPLLWDbiQ"
  },
  {
    "lat": 43.59698,
    "lon": 3.807099,
    "name": "Chateau De L\u0027engarran",
    "url": "https://lh3.googleusercontent.com/Hz74_5xW22CgaQVh1jlaVGd4PL8lEsSTHhe-jiX4wQFE5O2V6xz4YZ77ZoLc2s_2WBKbzkf_1_xd1tdLvWJpqQAfkl8"
  },
  {
    "lat": 43.594555,
    "lon": 3.814043,
    "name": "Domaine De Biar",
    "url": "https://lh3.googleusercontent.com/PZjtc7xWKq7JVeANoZ2RgTDX0hAwkIFLRRNIX9TUC0u5kFTJWAH6YviglmSOpNuX7UwjfEgxSRsDNKnlGnnID_cjaZk"
  },
  {
    "lat": 43.587498,
    "lon": 3.804934,
    "name": "Hommage Aux Laverunois",
    "url": "https://lh3.googleusercontent.com/jYfDekTVhPbBLf-VnR3qB2pU1d_B1ayPOB4XRV_zWrn8d5vqSsMOHD_9VvWTgnwg2cG5h_5C_JzIR9bSkOCR7_8tO6cM"
  },
  {
    "lat": 43.580643,
    "lon": 3.812115,
    "name": "Mas Des 3 Cloches",
    "url": "https://lh3.googleusercontent.com/nXVQme3goxe6Xf0fQ69D8pPXdwti-3CZXFi1QCDqFlP36JtBMSu8DWFrA9jKGtQrV3q6H0MP3GMgmH53h68i4yeKSKg"
  },
  {
    "lat": 43.583683,
    "lon": 3.805077,
    "name": "Serpent Soigneur",
    "url": "https://lh3.googleusercontent.com/rPLGQmlGNBoGXJExUfOopbb752g7WO-Ku_3blB2iqGCigmsPC3e_bYwRDhZ5Rc4MSuqGRqF159JICPCuA-loWDWHMiQ"
  },
  {
    "lat": 43.578217,
    "lon": 3.819423,
    "name": "Tennis Club Vedasien",
    "url": "https://lh3.googleusercontent.com/fZnmhPhuqfBd5XqdW3TNKFx9nffjWbP3enL1IqCOtTXGn3JEAfHtPKLPf_CUVuClcUr3TAXs1pu3NSXog_sWFyKvvg"
  },
  {
    "lat": 43.580387,
    "lon": 3.817582,
    "name": "Stade De Rugby Saint Jean De Vedas",
    "url": "https://lh3.googleusercontent.com/-ON56F8a3fQ9ba0_eQFzQLd6JndQ2HD1KtmJf9Xv8YCH2fMlDMN6M11RnJw4arA9lNyuFbztNX1H6-r-AYbJGcwRKw"
  },
  {
    "lat": 43.57955,
    "lon": 3.817205,
    "name": "Club Taurin",
    "url": "https://lh3.googleusercontent.com/yvujSNjhGyUTOJWj-mGDo3x6WjTYKvu1sRTJcpfdoxBdCnCGez6nFflv6EPs9-s7jJSVHCaIjApcaiZBnMXS7KZA8aMY"
  },
  {
    "lat": 43.578896,
    "lon": 3.823777,
    "name": "Tag Soleil",
    "url": "https://lh3.googleusercontent.com/dV1e9Qx4sz9syecJadULqfZ8uWxnGHHqsA_mmvau23ZzoBmU8JddcGhs3V6MCpUMiObxHwgXRDbE9R-pmcd0WN0l8w"
  },
  {
    "lat": 43.57721,
    "lon": 3.819759,
    "name": "Skate Park Saint Jean De Védas",
    "url": "https://lh3.googleusercontent.com/QQBOUREKWoEbBvWwlwcKvm4oVeA8nkzh82R97ZLPZB9iizD1ysGBLcfLB1m3Z9Iv2BpP-F20k5bZfHG6eg7z37OgeM3T"
  },
  {
    "lat": 43.576378,
    "lon": 3.824046,
    "name": "Mediathèque Jules Verne",
    "url": "https://lh3.googleusercontent.com/h-5pHXkMq9AuRV58Q76xqgrRD4VBW6DLqZXFgAdpvlVub8ajqHqj_jDWO0YZF1SDhufZJWp2JxP6T1QaEXWIMlX8Rng"
  },
  {
    "lat": 43.57577,
    "lon": 3.826838,
    "name": "Mairie Saint Jean De Védas",
    "url": "https://lh3.googleusercontent.com/Y28yxJIwjmZhoCLJ7BdjDK2Ttfpalm5KtxQ742l8_6O8xiRd2N0GsuY6Rsb7jbkcc1XcQ3P7rn3xMJawbCnvivzrpOM"
  },
  {
    "lat": 43.57729,
    "lon": 3.826667,
    "name": "Memorial Aux Enfants Morts Pour La France",
    "url": "https://lh3.googleusercontent.com/FdTYyKCirXEzTCNlU73LbyS4KffQDqohpjdElNlDhg0sjSLkQLbvBZsesVAjVZChuyban7Xz1L204yQGU5ORys6iPg"
  },
  {
    "lat": 43.576252,
    "lon": 3.828645,
    "name": "Croix De Jésus",
    "url": "https://lh3.googleusercontent.com/V7hUbd7ORk-WthXdnrvBbgLo3Cdci8l0D9QzMrDwgPIHPfoyx1bFPR2M8iL4V_mB1LqvrmIDkOhfYxuXjtyzM8X9rsQ"
  },
  {
    "lat": 43.57486,
    "lon": 3.830763,
    "name": "Arret Saint Jean De Vedas Centre",
    "url": "https://lh3.googleusercontent.com/Dip-XnVqxvSW0S0h6DmgmhBb4I4Z6k9Ev0yNnPG76pFuzbdhHCyBVp7liL0xzJKIUErQFlrPy9uHSSjqu5OncJz5_w"
  },
  {
    "lat": 43.577778,
    "lon": 3.83001,
    "name": "Cimetière de Saint-Jean-de-Védas",
    "url": "https://lh3.googleusercontent.com/ZlIb5mnM7QVh-NIsKzcD31c_vgyNA4B-3Emt11HV0bD61Wd6Cf_HbNwgkvYZRD8qzAEU1HViLg8ewbbm3rWd6likt2s"
  },
  {
    "lat": 43.584698,
    "lon": 3.829569,
    "name": "La Dame Au Papillon",
    "url": "https://lh3.googleusercontent.com/HXxvLWlw-wv2UXdU1pMbQsE7ylY0ywzg4iwJjbzL9YEOpAnQYuHMFPca6zs6i3XBCijxV9nWS7MTaH7Swto3Gi5hlw"
  },
  {
    "lat": 43.585712,
    "lon": 3.827422,
    "name": "Arbre Inverse",
    "url": "https://lh3.googleusercontent.com/tQsKdVLhT04CrxrsO7ngjtZysUBnSvm2O5_mLKAA7n85zF5Cnu3sdvIsld1KjUNI8Qi4BbK_ay2G_fGdD8yB5ddYAFE"
  },
  {
    "lat": 43.58495,
    "lon": 3.829955,
    "name": "Sculpture Meule",
    "url": "https://lh3.googleusercontent.com/T2KwXVORWUS6EqfhagRN-H1Cn9tmfvUDaKJrbHgaSeGpX-0XbKeytWBIek58jks6sXdHOKqx0ZknKOVB9-cbZR4n08k"
  },
  {
    "lat": 43.588535,
    "lon": 3.843726,
    "name": "La tour du Rieucoulon",
    "url": "https://lh3.googleusercontent.com/KbFB_dBvJZJatYFwBsl61HXNHcjAMDdBY-sC6vHPmGg5an4JWOh0d6d-CSBr3pRBs1o9H6ClpYM0q1bcVun-DlOI5eM_-z48i5JyCNIK"
  },
  {
    "lat": 43.59094,
    "lon": 3.844065,
    "name": "Le Mas Africain",
    "url": "https://lh3.googleusercontent.com/65RGnisA_ioeRu5GBsz_2R7bBrzW07ZVz9VYQZA7RN-lMo3NSX9LbI4wgL5dR4MpCNRf7dZAzt7xaDx-8cPBsYx1i_w"
  },
  {
    "lat": 43.582363,
    "lon": 3.837205,
    "name": "Stade De Foot Saint Jean De Védas",
    "url": "https://lh3.googleusercontent.com/YEUDLT9lIihB2csHkWV4DtR1Eh7YJt79rK9jwo5eAv3orIkiBBd0eQAYUaaKpj16bJQb6Se4m1sVoI7jjSu2xB0gwg"
  },
  {
    "lat": 43.5781,
    "lon": 3.835465,
    "name": "O Crux Ave",
    "url": "https://lh3.googleusercontent.com/m1Po_HcMGWjNilJZmWjb_AQN-mfCeOzmI7sy_9WJFiJ1j4I6tMFnwCLCKzEXuiJ4ShL49BXYsBcSSCelGdIMqj_hqfpc"
  },
  {
    "lat": 43.57374,
    "lon": 3.8371,
    "name": "Théâtre Parc De La Peyriere",
    "url": "https://lh3.googleusercontent.com/qJ648Soq2o8aKgsBFGq261UKxDlrNbet1_iwpeefQB29YuY6YTIihZhpueoHbizpxHqkN0-E82u-iQ7IjHgG2ZJ7FPI"
  },
  {
    "lat": 43.575146,
    "lon": 3.849643,
    "name": "Station Victoire 2",
    "url": "https://lh3.googleusercontent.com/GqKmyMP1of_oVvXlLCPN_JqFglxYKsegb-V4PqlyRpow3VhmT_Q9VFtUsmH3ZWCIJvPFECi5_0DqboK0D95uDgJ3ink"
  },
  {
    "lat": 43.58216,
    "lon": 3.854285,
    "name": "Ancienne Fontaine",
    "url": "https://lh3.googleusercontent.com/IFSbrh4WaVWfIs4ioQ0KfnETxJvFvzLmwZsk8d3EOlEWdIOzA9GQ7o0kiwXcTXaRCqIwpKDg-wh53ckZESt4uITMF7k"
  },
  {
    "lat": 43.57375,
    "lon": 3.85319,
    "name": "Victoire 2",
    "url": "https://lh3.googleusercontent.com/JI3OutFEhLW-AaBiqQeQutwW_CAEHbIXcBsBQlim7DvZAKRNnK8u-3kPu3V03dFEBTpA9hWX94VWUTfwwD5flfyQqgb2"
  },
  {
    "lat": 43.573673,
    "lon": 3.861818,
    "name": "Business Park Garosud",
    "url": "https://lh3.googleusercontent.com/m9rpY6aZDvOlT0L6LiEWOy4hX1WdjMMmn8w6iMXLIRxNlCwcjofu7U42Sbcyo8l16EmGzPU1gL5RqUuIw3dYplDkfd2nPkuJfus0dJCDDA"
  },
  {
    "lat": 43.58173,
    "lon": 3.862548,
    "name": "DRAAF Occitanie",
    "url": "https://lh3.googleusercontent.com/HvQ4Via6qKHZybWg0IDcduXCC-Pyl81R1pajzo6TG3Z8IRS4woRdH-ar22bB9vbtDF6VUS_UmdLB2CU6bSp0avfZyco"
  },
  {
    "lat": 43.58156,
    "lon": 3.859842,
    "name": "L\u0027Escalier lui va si bien",
    "url": "https://lh3.googleusercontent.com/F6lzSpDQJ4_8whHupmVYJRoEUwXFgYqKOLr3s9whR28zaJcAQMmEShrDi4G7driAzuS6-mKM8uDWaFxfrZ5zIGECKEM"
  },
  {
    "lat": 43.579823,
    "lon": 3.859815,
    "name": "Parc Saint André",
    "url": "https://lh3.googleusercontent.com/h_KTYlcMzThh62qhuLY0QIsNZDrMRq2WhvQ8A4ipwSJ4zxAs4_B7QMpSUOawbp8q__9PUec6w00psUIKIBfcNdZXCQ"
  },
  {
    "lat": 43.58376,
    "lon": 3.860049,
    "name": "Station Sabines",
    "url": "https://lh3.googleusercontent.com/shYyJZVWGFk73WViBjEHj1I10gGXe956kXqSaMDIp_d-8OImBgpbn8SOga26v3PqFgIzYkCOqc9ihWLN7JC_71CKdg"
  },
  {
    "lat": 43.583454,
    "lon": 3.8588,
    "name": "Aire De Jeu Rouge Et Verte",
    "url": "https://lh3.googleusercontent.com/LEnSpQiB7_dm5BKi2yq13pvxCMe-2qfOo8T1cmXbShGEvV-V79gk1oqcZZtiMMQUOiEPIJPBWlw3NfgauPRNA9Gruvk"
  },
  {
    "lat": 43.58335,
    "lon": 3.860795,
    "name": "Graffiti Fleuri",
    "url": "https://lh3.googleusercontent.com/qFj6fRLgOa6EFWE9u7mKYtMirGtk0A3lTJJNXOD_3o4e2v8Pj-_-hi9zSTptxsd2DYtOrAngNZ2m74yFVTkQ5iR_eRFH"
  },
  {
    "lat": 43.58886,
    "lon": 3.863956,
    "name": "Tag Fournil D\u0027argent",
    "url": "https://lh3.googleusercontent.com/BeXz2WFPGZSMTZlr2ECBEt0mFFL8CdcbjnaYPP2EnPshhQqdAYhzmNSVUjQQYX9KKtVohLPr7jYzeCf68cDmCE1Lv7g"
  },
  {
    "lat": 43.591076,
    "lon": 3.853628,
    "name": "Chateau d\u0027eau du grand M",
    "url": "https://lh3.googleusercontent.com/jdRllfcSwAxBLsTHWCffTTt4eTC469GmmCZi0C1G391Z6ZQLuCklDptEX-LXMHick1_7GKOugV6PZCFpH1uoVmO1470t"
  },
  {
    "lat": 43.58789,
    "lon": 3.853399,
    "name": "Fontaine Ovalie",
    "url": "https://lh3.googleusercontent.com/wZU_nYH99GLUPh5SZrgRQ35fDNpw7AQYeZrbFFBP2WAijTGT8Y5f7FDyhVJ181gBgMzmI4koWP6SF4KcoHLOSQk44OY"
  },
  {
    "lat": 43.58279,
    "lon": 3.854238,
    "name": "Château du Puits",
    "url": "https://lh3.googleusercontent.com/K29NHGE0WfrrxDd0uU6v9AM2QTRrH1euESFDH09hi5il5ZEM_v94Oa6vIpKxW9t3tOOMnMrSXbsHUskWeJYA3FkwfxE"
  },
  {
    "lat": 43.582497,
    "lon": 3.853811,
    "name": "Les Grisettes, puits du Domaine du Grand Puy",
    "url": "https://lh3.googleusercontent.com/CGGsbuGV4Ix-AjSJT7MPcriBmJ-KOe73Kb2YOsq9nX-RW8tsBoYnJCYn5dtBGTZr-J6j2-Fg9-Eadiya0f_3GP0_VQ"
  },
  {
    "lat": 43.589832,
    "lon": 3.846341,
    "name": "Mtp Ovalie Aire De Jeux Verte",
    "url": "https://lh3.googleusercontent.com/c-7YudR4uj-mhs3qYLWb0QJ9VRAD6UBXsTRMkMgd2PsdEBxJky11bHOMtxqjFlN6ALGfSfrkyGqN415wM_ObBKMN30YV"
  },
  {
    "lat": 43.589684,
    "lon": 3.846707,
    "name": "Eolienne Ovalie",
    "url": "https://lh3.googleusercontent.com/l9yJE9PlOwQEPdca2-rVmIZFBD4ErZyeKGLnZ-VNllfWmb-F5mGdlRNGNgNsBTIXEMTY9GF8Gwl3kVx13iV9HR0nlTJr"
  },
  {
    "lat": 43.595085,
    "lon": 3.846014,
    "name": "Fontaine Géométrie Parc",
    "url": "https://lh3.googleusercontent.com/jFVV2cEaVFq8PY7bbS5sS7Vorhtk6SzPLbEwNIc3L4xBE6yuGwGJJLKcXwCIxPWQa1F_AxAfytsXso6oXvvhgRIsmw"
  },
  {
    "lat": 43.60136,
    "lon": 3.850172,
    "name": "Maison Pour Tous Marcel Pagnol",
    "url": "https://lh3.googleusercontent.com/ARgHefaqU5vCy1QmZ3FDQRr2uF9qaGkjCOf4sJyXmuf44S1Qqti2yWPYXfmsHlcrYOlcWod5W-K_9vflQM-3rSv1aw"
  },
  {
    "lat": 43.60138,
    "lon": 3.849115,
    "name": "Kiosque Charles Maurizi",
    "url": "https://lh3.googleusercontent.com/k91sUqwhKs4aSMkt-ADnUSDGYB8EcUegQshL6oMhq689tiJe7u_EYyzv-80NDWA3IAbRShN0dR1zE7d_9j-wlM2cvdx6"
  },
  {
    "lat": 43.599487,
    "lon": 3.850378,
    "name": "La Tour",
    "url": "https://lh3.googleusercontent.com/pHF0tGbBfvA1Wmut7aylPd6S698A_rdeSnidLr3DggPV35QCLXUHHaTPjpbhMUKY_PXjKrXe_PUvWN9Q_pn4RSjE49U"
  },
  {
    "lat": 43.592274,
    "lon": 3.850556,
    "name": "Stade Yves du Manoir",
    "url": "https://lh3.googleusercontent.com/G-dGsxV3_QJ_ffUz85o42vprf9luan8UFF5TBimml7Ir7h8WWmMnQoqr83lIlJXX-WJiJCqq6O3QQA0TVXf309gm2kE"
  },
  {
    "lat": 43.593346,
    "lon": 3.850381,
    "name": "Septeo stadium",
    "url": "https://lh3.googleusercontent.com/THJHwOlCoXTShRlkNOrlM5avT0pk8oTu7k8JPUbR62vaAc1yrPj0v4hMgqYodBSZkccctsvIBznssQZe_0NEPAv3KfaA"
  },
  {
    "lat": 43.5936,
    "lon": 3.860166,
    "name": "Espace Arc En Ciel",
    "url": "https://lh3.googleusercontent.com/fqELg4Hy-rxOzy8vujwRtZB4FozWRfSA3oEqVNIxMXZlrgeIkhfByEMybSvox8sIm_MZwRisdwPWGCTujE6L1VMqIQo"
  },
  {
    "lat": 43.592213,
    "lon": 3.858323,
    "name": "Tag de la Boulangerie",
    "url": "https://lh3.googleusercontent.com/WhGgDOZBfMs-BWU4GHOUTzdoSkrXr6X-vQG4987EAKgYC60njgfGJpDs_s7wWQeJaDxk5OpRZFeIlQh4jP7EPBkYna4"
  },
  {
    "lat": 43.596252,
    "lon": 3.865475,
    "name": "Statue Victor Hugo",
    "url": "https://lh3.googleusercontent.com/jF6JWkCzvv1p0qM3XLFveAloqbP77DlgSscu686qF8i3uaN4R1HowvQa5LCGywTXXrhD4jrfWqxJsYV7SQcm-BOp3L8"
  },
  {
    "lat": 43.594616,
    "lon": 3.862636,
    "name": "Terrain De Pétanque Croix D\u0027argent",
    "url": "https://lh3.googleusercontent.com/ZMv4TqbTVD3hzbJcEHGgcDPrLmM6T08ISL-3wbpeRztaUa0fAeBPs78SvRNzBo_VzWpXytXxdq3v0RKW0O4sdGvicR7W"
  },
  {
    "lat": 43.59665,
    "lon": 3.865283,
    "name": "Médiathèque Victor Hugo",
    "url": "https://lh3.googleusercontent.com/_Wl0h5FfFgU0rOGZCVREMRUqd1JhUHyQd7m3gBJQEZo1zgp62tMjMTSLkWf7JJQ53EZIGWXn4E5xVWmfi6WggvMbPVI"
  },
  {
    "lat": 43.597683,
    "lon": 3.863941,
    "name": "Fresque Les Chasseurs",
    "url": "https://lh3.googleusercontent.com/zs8j_a05i-luC1rYASCzydnWwCNRQRVOmsbTiId54HuHb0IXNHy4bjUaf6U-bvOKOrxJg-MwiddCrLACJvX0_MSEyg"
  },
  {
    "lat": 43.60015,
    "lon": 3.859355,
    "name": "Parc Montcalm",
    "url": "https://lh3.googleusercontent.com/jQw232Qjp30njKcucIReBVnwZVXxuEFG1Hk6etv09cgkbuZQJtFtcg0-9pn43TgCN6NHlJ52Y4RDHW3GfqjHSioA6_c"
  },
  {
    "lat": 43.600742,
    "lon": 3.858538,
    "name": "Grosse Cabane En Bois",
    "url": "https://lh3.googleusercontent.com/DdUeIzQUp34Tzp40r9uD_MlM3RAC6ddOv-OTqGghR4uaPFZFV5gik7IVID7EPOpuFJ497BYYQrl__J4jJC-5LeFQ72ie"
  },
  {
    "lat": 43.605015,
    "lon": 3.857023,
    "name": "Salle De Boxe Jean Farre",
    "url": "https://lh3.googleusercontent.com/Z9TJnQgj9XUUPZ7mSuQjPA6x0TEPw_CtkXdzBwzmR5CQETqJsFK-QpISFfVSgCXoZmu5japgFsyacfqZcFpXQfYtRrTK"
  },
  {
    "lat": 43.60531,
    "lon": 3.856379,
    "name": "Gymnase Jean Ramel",
    "url": "https://lh3.googleusercontent.com/_TZJuhIdecOg07aygo1y-7HZSC_16DCHQ0EpFNcuRnyFoDf4e1QDHnRdeOfdlSJF8z1UKGj5CFuTYvADm5Gw4uwbPYs"
  },
  {
    "lat": 43.604675,
    "lon": 3.864112,
    "name": "La Feuillade",
    "url": "https://lh3.googleusercontent.com/LenmjxVsRNZdFVj4m5ffT87I0myov1EP9xnYNdGghP0MX5hHhX1BWzptN9UBBJHVGvQodNyZBT7Sf-7UyuXss_iVlsGL"
  },
  {
    "lat": 43.601524,
    "lon": 3.862755,
    "name": "E.A.I",
    "url": "https://lh3.googleusercontent.com/uz1pxZ8b1nxjUK29EnbWfYQWKwIcvJeWxWxmkVtwmMD675rZSEPBMZL4AUo8x4KDBnpafK2Ebs31OwI7moJMhSHoTQ"
  },
  {
    "lat": 43.609818,
    "lon": 3.862308,
    "name": "Montpellier Arceaux Basilique",
    "url": "https://lh3.googleusercontent.com/uK6GQ7WZLnkPKd2KU4-pZVTGrKVxPJmVmil7ofN4ecvMgAe1JA4WmflxKMMesEI2zI3XfoSOUOb3iPEVp3Ms45YCKNg6"
  },
  {
    "lat": 43.607754,
    "lon": 3.863866,
    "name": "Mur De Graff",
    "url": "https://lh3.googleusercontent.com/AKh1i6fM5Y5mVM0swDn1KWPrUMAwYj6YP3S8ODI5egTz2Ail515Sd5XWgYVzLQYfnsO0P2uACq10EAegE-xTrUSpmmQ"
  },
  {
    "lat": 43.610523,
    "lon": 3.856689,
    "name": "Stèle FFI",
    "url": "https://lh3.googleusercontent.com/e-2fd5bL4jFU89iFpymn2MlZJ6wDgXR8IIMkPLkfXiCSe2LNdz0kBdW8iS1AdaIfpjdqMDuVtDQBfnivk-fj0tdxcYc"
  },
  {
    "lat": 43.60964,
    "lon": 3.858334,
    "name": "Tour Buffel",
    "url": "https://lh3.googleusercontent.com/ZV5gWd4GXvgd6XLcmPDiqcLU2oe58nk0KKoNq5UPT9mfhsM4dOxfVQXZ8hgsxonogbDZRyI2V5Vc0U93VfC5L_cUY6A"
  },
  {
    "lat": 43.61024,
    "lon": 3.855116,
    "name": "Arrêt De Tram Astruc",
    "url": "https://lh3.googleusercontent.com/_aO7W3ezkXaNl-3Kenh7bcivj7G7SB_FY0MmDEZIjNe0x-tYmf-48HkZZhgj_djwNUID_bWy6JNJqdfnK8akgGf2B8Ex"
  },
  {
    "lat": 43.605145,
    "lon": 3.852093,
    "name": "Les Cœurs Cachés",
    "url": "https://lh3.googleusercontent.com/gRgKWjuXaEyyQdVY1fd3x5CnEK7LKyH_nsBHihc0u_-pwlsVztS0ZBNwQXR5slvdUk3dFzxn9kdfHhbUKI3Aebwd2yg"
  },
  {
    "lat": 43.611294,
    "lon": 3.846756,
    "name": "Arrêt de tramway Jules Guesde",
    "url": "https://lh3.googleusercontent.com/sSFnGsRwle8C8gTHHqiJtkSIolaySexvPayAv-Uc9Txf9tqKT-H0JIloP5BZzMgv6MbXH_D85ARiKgpcUBTk-N_0zw"
  },
  {
    "lat": 43.608257,
    "lon": 3.840088,
    "name": "Square François Dezeuze",
    "url": "https://lh3.googleusercontent.com/0hMOTGE27PueYISK4xSzxctT0vqq5-O_tLYrAuHYckKAl7BNqO27X1iYI-FQ8nRb9MbsFWT1EglD_D0XafSqATq-eEI"
  },
  {
    "lat": 43.611233,
    "lon": 3.839834,
    "name": "Nichoirs",
    "url": "https://lh3.googleusercontent.com/34MwYHqS-foqw7LZqx5tMUDkFZC5L90nMHlts2yxiJHvhStCkF21uP7aRMNlE15KIH-dg-pMCqL6zdFxD89hxMmqvaE"
  },
  {
    "lat": 43.604694,
    "lon": 3.841376,
    "name": "Aire De Jeux Pour Enfants",
    "url": "https://lh3.googleusercontent.com/iOnI_qHtGTJt3rKD9bRHVMEqxpAyDYlWiiK1Baj8jDjxAPlCnbTJtkK-su3M-YchPTeOiPrs2jpR_rR9qKZS4jEOYVk"
  },
  {
    "lat": 43.60451,
    "lon": 3.8416,
    "name": "Parc Petit Bois De La Colline",
    "url": "https://lh3.googleusercontent.com/Vw_yWrVKSdU3fPK9Tyarl7slRhEnu7KX2r1Wf4SajHK9ROoGMoeJOt_dYCTRjkp-t2hrIuEinHYjWFk4L4q0-ONba68"
  },
  {
    "lat": 43.59848,
    "lon": 3.843309,
    "name": "Piscine Municipale Spilliaert",
    "url": "https://lh3.googleusercontent.com/TjJfWAg_E1AmmTTLGROWVCwlLvSUIr3ydht6Dz_5Rm0zAKWBgCqyDnd_UpANyUoU9Sj9rF3MbST63V1bGvIEk4MMerU"
  },
  {
    "lat": 43.59805,
    "lon": 3.844047,
    "name": "R.I.P Docteur Salt",
    "url": "https://lh3.googleusercontent.com/lPPwSjxUPi8Jll5aACi5wOf6Hb8pWj-FXzNG_IVUVSCf-32cOVdpnaNcd5SWhR75-aPqefKdWH6zUov2REaH7NfNjQ"
  },
  {
    "lat": 43.594826,
    "lon": 3.845153,
    "name": "Terrain Multisports Bagatelle",
    "url": "https://lh3.googleusercontent.com/H_mx2sgpNsTeOED5bBTSi_ZELHzKKEEjTl7xuLdKe4pZW7s66ZBz7MdnPm5pURB8AmPC9rIp_jS5FowOQ_wf0uJ2mqA"
  },
  {
    "lat": 43.594234,
    "lon": 3.838337,
    "name": "Pagode Vat Xieng-Thong",
    "url": "https://lh3.googleusercontent.com/X6QuLl5qpYty7R3IYqNyLqmjHClkuzR8G2Tq23pCvpLiVdgYS4MhDGuly4x3OEXzccjN2NSsdtSLR0HMWrH0zgC94d-0"
  },
  {
    "lat": 43.592766,
    "lon": 3.838591,
    "name": "Eolienne Du Rieucoulon",
    "url": "https://lh3.googleusercontent.com/q5EdGAYXevSvp9jYCK1ZQhbw23PtHJh_tE9zK_GSB5t_3KefI9m5Szw0XBrtKYUGJdrHho-wFika8sverJWk3Rd86pCi"
  },
  {
    "lat": 43.599262,
    "lon": 3.835065,
    "name": "Plaque Antonio Machado",
    "url": "https://lh3.googleusercontent.com/-9J4GF0RPdY_SOEmuBIdZGJrxRQsNOFd6aWqWCfbU5T565nRdexjOcNQwcNxIja_NY4IzBFCE9zF7UscH5dvmZ0hUGA"
  },
  {
    "lat": 43.597816,
    "lon": 3.830303,
    "name": "Fontaine de Fontcolombe",
    "url": "https://lh3.googleusercontent.com/mGT1oAtDKnD_9E-mk1KDJtqTOtH5ITvY90NMtWTm1tuVVQqy3p7zT_my0hDl8zrwpQIs0vZwzLRo191ASdEobzXHGGI"
  },
  {
    "lat": 43.59983,
    "lon": 3.83134,
    "name": "La Bulle Bleue",
    "url": "https://lh3.googleusercontent.com/W9o3ds_6HrELBUCF__tjk-L5hMAoXbNufngVtwyo0P-vNH-FVUm3TUIOQlpMa_Fr7Qx2HKzNjCdXYTUmx_xXX28CGJk"
  },
  {
    "lat": 43.597424,
    "lon": 3.830524,
    "name": "Aire De Jeux Font Colombe",
    "url": "https://lh3.googleusercontent.com/EIWOAcQ-AVfr1cEBLJfXJ1t2WNugnMl73hKLZbWQvS4k-cbtSiOMyeOZR-Mk_ztsrwdycz3WOEMJAA9mDV5Or2iKjQ"
  },
  {
    "lat": 43.59733,
    "lon": 3.833341,
    "name": "Graff Du Parc Jacques Roseau",
    "url": "https://lh3.googleusercontent.com/WxYJRKvQM7et0Tqe90-rwCE8J9INjzoVwVY87kxYFtujsceJrYbmfYoMFNuKanp6kEgm9VmQWAW8QpdYKPIVo3SKZA"
  },
  {
    "lat": 43.598747,
    "lon": 3.828252,
    "name": "Château Bon",
    "url": "https://lh3.googleusercontent.com/aqg5dWfK98uuLCkiUm43lc2p_8i0OE8Y5OrhIrbOgVmFiwK2QIrwfRiljqLSkujWwK6x0cQUsOy2zhVDJZ_kxDZn4XvFXktVN_bc6nWW"
  },
  {
    "lat": 43.609257,
    "lon": 3.83368,
    "name": "Fontaine des jardins de l’alhambra",
    "url": "https://lh3.googleusercontent.com/9ozQlupYsMN5VVwH4FKwrgNHB_JbyFmonE7l3RqaDtjGXJymRw3W1vgriT74cwyLFgBni9EO7JxpJHLqoNwzMO0hLzMN0AjaeD1_X60"
  },
  {
    "lat": 43.61452,
    "lon": 3.828886,
    "name": "Place Pierre Renaudel",
    "url": "https://lh3.googleusercontent.com/RuXHyZ2TOFHfnu_FR39AM8TdMSMo1Bz02e5OL4643-rHp1OAEjiEghThg4jw0g4qJqHiSzkAE7eoWydMYjAS9i81ydYV"
  },
  {
    "lat": 43.61196,
    "lon": 3.829719,
    "name": "Croix De Celleneuve",
    "url": "https://lh3.googleusercontent.com/9LbpO_MB0X0W3d4BR1nSESmPvpzWnMZZx1uVJA4H-_babXHnw5H-FDW2nY232uvDJiJXMLDQFGb2tKqV_Y4wUA29-b4"
  },
  {
    "lat": 43.617176,
    "lon": 3.827257,
    "name": "Gabriela Mistral",
    "url": "https://lh3.googleusercontent.com/wQCHiin7fe_NDBw9UUSLUtHfTAeD4ST8jZ51Agq7XO7R5tC1p4tmgliawF7u0UgWRkUFYf83JlKDpE0en2xRn3D2bw"
  },
  {
    "lat": 43.61746,
    "lon": 3.832652,
    "name": "CCAS espace Bel Juel",
    "url": "https://lh3.googleusercontent.com/UUTMiFXtVc_7n-QNqg3jwaA0UVx9BzBu-0OHYaa1_eQtXDwGjzjPqmMVP2sihK6iOSgKDQtG2OPbkMTENceRN56_5TUB"
  },
  {
    "lat": 43.613007,
    "lon": 3.830606,
    "name": "Maison Pour Tous Marie Curie",
    "url": "https://lh3.googleusercontent.com/t-Zofb5NjWGLMM6Dv2SLcVdBWkwtCi20iwpxZxTpyKiZJjzS2PXNalmCQ291r19lfHEpnitSvHIZegGF_KEVjy0eq8U"
  },
  {
    "lat": 43.613068,
    "lon": 3.831842,
    "name": "Celleneuve : Aire De Jeu",
    "url": "https://lh3.googleusercontent.com/ZTMZR451STbdZNt0BwWTrC6v5nJ5jFqRBxi0AAYzOPa9aGu3JlpMCqpuzkxrGrJBUyiP84T7xYYUiFIeg8DZCbmKcx0"
  },
  {
    "lat": 43.61344,
    "lon": 3.839567,
    "name": "Tram Station Tonelles L3",
    "url": "https://lh3.googleusercontent.com/SEjwDq6R_ZvvLh2s8tzSHbLXsv09n7yI-IbThHBbpxU5kpzvlVEbWpqjTA5LAUZ1TPSGu8kBk9GU0VFDwJ2SCsWSww"
  },
  {
    "lat": 43.61327,
    "lon": 3.841289,
    "name": "Château De La Piscine",
    "url": "https://lh3.googleusercontent.com/AhkSxZRpW4aUHgBGx_y2Gi5p2Cf2RBs_TFdRy-_gwHaDhFiv8uoLfoqIc33k2M-7aeAzqXVQ-fZwcih_8PjFe7UfmwI"
  },
  {
    "lat": 43.617855,
    "lon": 3.844634,
    "name": "La Poste St Clément",
    "url": "https://lh3.googleusercontent.com/-tq2ek2IPDq1MsWIY_7ZUi3WLITrkKeqXDcpSXq68aawoLz7VF9TpwO6m6aDRD8Wz30hmYhX94c1ujt5Nn4b5GyGWwY"
  },
  {
    "lat": 43.617146,
    "lon": 3.840166,
    "name": "Rock\u0027n Style",
    "url": "https://lh3.googleusercontent.com/IZV5ekGYTqT2qy6JOtq54NzpatvkxZdnkrEio0RIkRRoBQZGGFNL-9ipdWpC0FmzmJa1fZvMlC0pXEF9kYA8OKorjiVbqDF9QzY_Ygn_"
  },
  {
    "lat": 43.61715,
    "lon": 3.838194,
    "name": "Aire de jeux Pergola Petit-Bard",
    "url": "https://lh3.googleusercontent.com/tJgEO0QC6bYBqU2R_97lTSCk3pGoBkQ5FHjcgmjWciS8QE2LqiqxZC_xMljxPb1PMvPKIJb2BumCzwAPB3ZxHITRoDoaXZz8i0HuybE"
  },
  {
    "lat": 43.62354,
    "lon": 3.836538,
    "name": "Hommage À Jean Moulin",
    "url": "https://lh3.googleusercontent.com/KjbiFoz29c7kehaX1kOjtVcBi-ky-SY1hAvL66YCLvGI-1IVJxRxewFCr4NELGByLba58R-X58zVNe8hqIBAIvdHwQ"
  },
  {
    "lat": 43.624203,
    "lon": 3.836738,
    "name": "Escalier D\u0027eau",
    "url": "https://lh3.googleusercontent.com/jta0qlfzbYLqFBr-cviJa3wvL0Ij3rEqV4jS_GT2Im_7Tt9qQyZvx5dWZCdmOKCPEZqnpMLUhYugaVqhkh84rE2Wibc"
  },
  {
    "lat": 43.624756,
    "lon": 3.841873,
    "name": "Maison pour tous paul émile victor",
    "url": "https://lh3.googleusercontent.com/Ms25-fgINVmYSCg6unqn7RlLjrqMIptJY4W_j0c6eF9MrCOEajBwtNAMaID6hUUKxQOpZ0FzpHb2ZJVbbK9Tntvr5vd2"
  },
  {
    "lat": 43.62424,
    "lon": 3.842759,
    "name": "Le Cri Du Roi Des Animaux",
    "url": "https://lh3.googleusercontent.com/fDCW55RyCwZWZwrYugrLVTyI2jthxUlq5Ynkst6dZz9wJU2KrvBUL7JfVTL52lzSJMBw_dbgbaen-a61a-fKEcN5oq4"
  },
  {
    "lat": 43.62864,
    "lon": 3.840188,
    "name": "Malbosc Tag Hot Dog Sauciss",
    "url": "https://lh3.googleusercontent.com/thVZMgganWwmrzSCQWYrLio9AENMe9_PeI7ySJrJJ7ihd0eksuc-la1RsZlW898vZIV3WnkyZtNNLVnglUjUrDaAWbpK"
  },
  {
    "lat": 43.63056,
    "lon": 3.843141,
    "name": "Croix Chateau D\u0027o",
    "url": "https://lh3.googleusercontent.com/uj-3qcUmfUNeH_RhmGsD33zDr2IXcBSSJr9bUcBnv-2UsBP6YmQ9Pbwky5wK6RvNt08Bajsiu6QuYD6rZkOC_GFvHO0"
  },
  {
    "lat": 43.627,
    "lon": 3.839658,
    "name": "Coccipierre Verte",
    "url": "https://lh3.googleusercontent.com/d84duX0-71o4nctOBWr83pXf-VkzeAGonTBoPnR-NmxrMTb3ytKLi_m-BatCjeBtO9Ob3AZjuUZTQ3ToCbqTeqzhAw"
  },
  {
    "lat": 43.627335,
    "lon": 3.840017,
    "name": "Coccipierre Violette",
    "url": "https://lh3.googleusercontent.com/dLwSyPScQF_ApmTDQRSbB4ciM0BRPjWsIuBVnAtPx9UsHgCyiZpGhp-kKxvYx6_fT0A8VJUQIXOebnHmBxqSbfz_"
  },