[
  {
    "lat": 43.607754,
    "lon": 3.863866,
    "name": "Mur De Graff",
    "url": "https://lh3.googleusercontent.com/kLucAoAEiBFGjpEqknnJ6wEWSqlbPCN-T8UAyvXEd_9lve0uqDqJ_YlJqmC4nNCa0bk9DMY7AgO530W-T0qW8JJwOCe9"
  },
  {
    "lat": 43.609818,
    "lon": 3.862308,
    "name": "Montpellier Arceaux Basilique",
    "url": "https://lh3.googleusercontent.com/uK6GQ7WZLnkPKd2KU4-pZVTGrKVxPJmVmil7ofN4ecvMgAe1JA4WmflxKMMesEI2zI3XfoSOUOb3iPEVp3Ms45YCKNg6"
  },
  {
    "lat": 43.62309,
    "lon": 3.862204,
    "name": "Faculté De Pharmacie",
    "url": "https://lh3.googleusercontent.com/bzE5DuZkKG9U4Q6fFStvGx7JRAofWXWEVC65WD1KRqkmvUQrlBuIMA_AYswnZ38rWlspQ6Yw4pRGBqGD9tK2gSX2AEI"
  },
  {
    "lat": 43.623985,
    "lon": 3.864265,
    "name": "Fresque Saint Nicolas",
    "url": "https://lh3.googleusercontent.com/MCIISPKkzg2iKxewp-jQUQgdFQaXYdWmdIqXFcWeAdQAQQe2W8d4RhoIEWTMpztA-PIgBWdwwvWLqoShhvr1y7hHs8lQ"
  },
  {
    "lat": 43.617344,
    "lon": 3.862707,
    "name": "Fontaine Magnol",
    "url": "https://lh3.googleusercontent.com/xIvmiAz3Pl_XLkDHMWtN_Zz6bijCBfFUlSlV37gfA4oSzzj10FtuEWhlsr3YeQW-Y_n-QUdO_ya68ssxKRBlrMDYdplI9psVZmwRaRUO"
  },
  {
    "lat": 43.61756,
    "lon": 3.862445,
    "name": "Parc Magnol",
    "url": "https://lh3.googleusercontent.com/GFr96jGuxwxQYtUklUhe56kS_eVguyYjPCuzUT16f2Z9-QS1Sz-VYcl_ahfFGRf3KRHyw2naulLLb4Z6bVApSsSJuw8"
  },
  {
    "lat": 43.611942,
    "lon": 3.861277,
    "name": "Parc pour Enfants Arceaux",
    "url": "https://lh3.googleusercontent.com/1z47tISLzK7nVqfA1Q8ZIl8rQDOOfSyyvsevHjpAtopd7OhUEXyb-I8JUy4hkaG7d_Q-Ge12T_BmK7CCm7aeSs6rboM"
  },
  {
    "lat": 43.61527,
    "lon": 3.864152,
    "name": "Église Sainte Thérèse",
    "url": "https://lh3.googleusercontent.com/FpY3kGEPFCpvWL15HHs1Akih6M3sRq9nYqatQCsKOk5dzFsfvIAjcAxmWG5teyrmL3cGAjOWKmvz1myEgry54YVLz2Hu"
  },
  {
    "lat": 43.61134,
    "lon": 3.869034,
    "name": "Château d\u0027eau du Peyrou",
    "url": "https://lh3.googleusercontent.com/ya9H--1Rz13ntxSIDgBeOwQzjpjfVi5JNf0aRpXuW81QXd4vO4jmyz4zR3njE0p20I6ZvOytGSzFubH8L_PK98W5x08"
  },
  {
    "lat": 43.611465,
    "lon": 3.867946,
    "name": "Arceaux",
    "url": "https://lh3.googleusercontent.com/BO5JLN9gOGPnp3e8PCWwM8ewVMf0tB7JPnb6hfuJ9bkQrcvUF6M1CqAkXxqKAKmOSnh_9s7Lp6aba9BGnbWgYndHk0SZ"
  },
  {
    "lat": 43.612724,
    "lon": 3.866532,
    "name": "Street Art",
    "url": "https://lh3.googleusercontent.com/X3Vree0_kcYEJSXCqDG0pBG5bD_FWFkzwIdApnbYu3Mgcwqu49GHTkpqPwybt6GcTE1uARneSuBRuiXT1nV3CsgtKzY"
  },
  {
    "lat": 43.616196,
    "lon": 3.869624,
    "name": "Caserne Lieutenant Gilly",
    "url": "https://lh3.googleusercontent.com/q--XPKlweXRdoGkASA3mxtemxks7fy0ifPZvwMQW06GsF-Bo0PhR-sWQpjMKhWWve9xcyO65_msEaAwgBqhNva_5IS4"
  },
  {
    "lat": 43.619453,
    "lon": 3.869591,
    "name": "Metal circle structure",
    "url": "https://lh3.googleusercontent.com/ASkwxUdB3Q5ysTNevNiVa06RAm3TEjByjpW8SVAdjFRbhaKYK7XDNQRYlaRjGy3phIsNq_LrYUDiuai1iBBD3R8CRTxk"
  },
  {
    "lat": 43.61999,
    "lon": 3.872959,
    "name": "Ancienne Fontaine a Eau De Rue",
    "url": "https://lh3.googleusercontent.com/6mmpfQi8W0lgFMkLH-rZ9GlZXgwY0FVi9B49YV8dQsgtBXjMQayu9l3Q_aqRcFYS1zMxItIJCeKDGiOfN_eovsT85pU"
  },
  {
    "lat": 43.616096,
    "lon": 3.874415,
    "name": "BMX dans l\u0027angle du mur",
    "url": "https://lh3.googleusercontent.com/cQaWq8i1LZKr0ZM3qCYsCl6wxnnedVNBX0JEbY5tIqR_44_kOTmx1hZ6XJP5hK9ju0d5ZCrcl5s7vioBTNKkHvUEHDw"
  },
  {
    "lat": 43.618626,
    "lon": 3.870942,
    "name": "Mur Avec Arbre Sculté",
    "url": "https://lh3.googleusercontent.com/uOsW-80AoTX1l_UKAneFJ66y1_X8bVJx28I8pAUw5fG2XzWHrahKCcnpul8bEf10wXrdgKiKDnZrNIxHMekoIbs9MQ"
  },
  {
    "lat": 43.61122,
    "lon": 3.872389,
    "name": "Arc de Triomphe de Montpellier",
    "url": "https://lh3.googleusercontent.com/DVM9hDy5hyKA7n1WVFB-XKVj532ffZY3Sve_PaGAixrE3tntl9JoHx30G6_SqN_MWkDV35tbnIJ-D86sok0YE6FRaww"
  },
  {
    "lat": 43.610554,
    "lon": 3.871536,
    "name": "Promenade du Peyrou",
    "url": "https://lh3.googleusercontent.com/HQZQM-blKxFxkY7N6M3el_69u2qne8fqZ354wER_Ua3_1cWPS-ZHO7cGH7rlfZaZ_P64890CRcpRowHTl2d-sx0GxWX1"
  },
  {
    "lat": 43.612766,
    "lon": 3.873951,
    "name": "Cathédrale Saint-Pierre",
    "url": "https://lh3.googleusercontent.com/QCogb13e8Vihk3s5HVeH1LG4bMHWuP7b97frprDEFXCdHN9AWMj7kg2d-gisw81evJXJWxA90sk8OPjGUCU7hhdrVXY"
  },
  {
    "lat": 43.610992,
    "lon": 3.876681,
    "name": "Montpellier - Préfecture",
    "url": "https://lh3.googleusercontent.com/2kDFHx7wezrLjIsLidABsgOXq7LTBQ2zjkVizQWycEo6WyTBPPZsoEXbeV5sp59SNvp-nigIi-na9hi25PVnkkMHPg"
  },
  {
    "lat": 43.613922,
    "lon": 3.880421,
    "name": "Bar Le Décorum",
    "url": "https://lh3.googleusercontent.com/YoX5TDO_i6xjmMxdx6EWOSpL-MfGOnJj1I-dy9UO7ZGTH6d0qvzVdn2qDEYeVHSXv90L53H3wOsQTnyXswnFqC0X1L4"
  },
  {
    "lat": 43.613003,
    "lon": 3.879481,
    "name": "Statue De St Roch",
    "url": "https://lh3.googleusercontent.com/iSYgeZ26tP2ytFKg_-3AFxxWXTqALrpzjvPeKUd0yxU3GzskMONzFEEH-ExJRSb6rA8oE-FHWU729TCnmlyMHKZbRg"
  },
  {
    "lat": 43.614483,
    "lon": 3.881629,
    "name": "Le Carnaval Des Animaux",
    "url": "https://lh3.googleusercontent.com/ao_uOWtoqMJOsyknZuQAyVlthR0n1UGPA3Pc1aSTrdYjy4omMFhdKLhX4ruJQRLql8XSNVnSTQMB6TrPXj9xbm3j7g"
  },
  {
    "lat": 43.611248,
    "lon": 3.881048,
    "name": "Fontaine Esplanade Nord",
    "url": "https://lh3.googleusercontent.com/HzKC7UmpZfMCBMGXvgCJr0jU-GpG2dF1_bnoF7NFj1LDTJ_HbQ1quPyWEx_6OTPeYSJY8mcT98vbDHrUV2k8DT4kC1k"
  },
  {
    "lat": 43.61148,
    "lon": 3.881733,
    "name": "Monument à la Mémoire des Arméniens",
    "url": "https://lh3.googleusercontent.com/nT6R9ITS4VFGKOEEXIMtwHBQ21nAU799cqFGMlY-qTxw2I1_86zS-o0q99g9yGT1FKV4Z0nW1b4a3HfJE3Gh0bST2A"
  },
  {
    "lat": 43.617485,
    "lon": 3.88399,
    "name": "École Supérieure Des Beaux Arts",
    "url": "https://lh3.googleusercontent.com/NRFET7EqqBYWm11wc2PrV_OVoHXUsnyD1-6JBWRYf-xp9LuffNbD5TtCAHNZ2Zd6XAnwlov4kevfSzrDPr9JAKfsoME"
  },
  {
    "lat": 43.61612,
    "lon": 3.88423,
    "name": "Maison De Quartier Frédéric Chopin",
    "url": "https://lh3.googleusercontent.com/dD5nbdCg443Nfw2duaUYEFt_zHmr_EtPkuOuE9JDFEr_uzVF3x7RjW7BbEeTS4ZH0mDQqg-i9NjpE7Pmy2bixvLzwg"
  },
  {
    "lat": 43.618183,
    "lon": 3.878688,
    "name": "Église",
    "url": "https://lh3.googleusercontent.com/jacwttWiTxOg0ID7qOF7nLkkeCSX5A7B0aRO3vOuwQY7HrR-bO9LycgHErWj-3azVvGfGRTFfjzsCEFkdMwXBEBKHw"
  },
  {
    "lat": 43.61624,
    "lon": 3.880384,
    "name": "Studios Lunaret",
    "url": "https://lh3.googleusercontent.com/B3Nix1qd9Ddbtp8e2rgDZV6FZjnqSzTf_a5CfxnI-YonFsuYnN170HAwvFH12cbzofC3p1hty9mAd_qE0_4eZuK4EaY"
  },
  {
    "lat": 43.61865,
    "lon": 3.879121,
    "name": "Symbole énigmatique",
    "url": "https://lh3.googleusercontent.com/AoDj3kMMx0dLe3rB-4sYPU6xMJIiN6jH1BSF1aJxbYSkhtWa430rB9RQrN-Z4J5XR0BOjNPYZ8r0I90nFrCwdXZj"
  },
  {
    "lat": 43.623817,
    "lon": 3.877583,
    "name": "Cours Notre-Dame",
    "url": "https://lh3.googleusercontent.com/WYElewVQa56RCYKknyJkENiAtgUY-mstmDF8vXFf-R8ugB6nJSwWaXHgTT8D-kISZ0PsAQtiRyUq6RKE4KJefxIIOw"
  },
  {
    "lat": 43.620907,
    "lon": 3.877922,
    "name": "César Palace",
    "url": "https://lh3.googleusercontent.com/dqakvtLMgybPOl3noljh20BDTAd1ilqESgIyfBlgviHreMPUEHxlUqdYlMBb0QxsciNEIGVpP98YpeCtXY_N-u8FaoM"
  },
  {
    "lat": 43.620056,
    "lon": 3.882389,
    "name": "Église Saint-François De La Pierre-Rouge",
    "url": "https://lh3.googleusercontent.com/aUITVe5GJxxuwdcZ5IkSobNjIPPfthF7AhLEixdQ0r2JFLeIjMmXJ-Nlm9wEL1l8tbybP78BxCB8pfmLgx7_tcR-Eg"
  },
  {
    "lat": 43.621742,
    "lon": 3.882817,
    "name": "A La Memoire De Georges Vuillemin",
    "url": "https://lh3.googleusercontent.com/K3jEGDZgRDKOpjiEmoHzyRG_lMTOuFKvGOVmsf56ReOjDMGPfXhY1gJpnDMfFg9zzLT24si85iVTdy30Hhrk7ZIM7TM"
  },
  {
    "lat": 43.624424,
    "lon": 3.875156,
    "name": "Puit abandonné",
    "url": "https://lh3.googleusercontent.com/Xuuqv1BDcfPOQcJZT1kE7g82wxt5lO9E37jnVyKKwxd_gTlB0kl-uU4wZbFaqnGfXti_voeUYY8sfmzxnBj9ZZ40JTE"
  },
  {
    "lat": 43.624264,
    "lon": 3.871836,
    "name": "Aire de jeu jaune",
    "url": "https://lh3.googleusercontent.com/toH4DPng_Ydj1XxIxoXJVCahbuwh6RLRRxjrzAABFvzSyyUKGk39jokjazCcBWzXtFEWet9rIlvFDwBWLqyoIZHoEsI"
  },
  {
    "lat": 43.623512,
    "lon": 3.872589,
    "name": "Fontaine du Parc Odile",
    "url": "https://lh3.googleusercontent.com/VFU_QwWENezWAkuRvEghY48aWVbwTJLn47suVvgX8HaIwQhPvAkflL7im8xC1g3i2zI66Ksovt0r1yeXdxTZvhs12zY"
  },
  {
    "lat": 43.622185,
    "lon": 3.86818,
    "name": "Maternité du Professeur Grasset",
    "url": "https://lh3.googleusercontent.com/VDHetrSNobFNfQC8Bj5TjIA_qf5haK5ISiOnHSygMGQi4BFwFRYW2h-xM_dzOWgxbJSQraR3zz1Mg1UYx7PGv-IhsA"
  },
  {
    "lat": 43.620422,
    "lon": 3.869676,
    "name": "Eglise Des Jésuites",
    "url": "https://lh3.googleusercontent.com/m_P71eMzYaKrHjDdPj_zT7HCxUcJF_9AZPprg9Xbp3zv1uWjh-QckSMqsMFvUWtxVizNvbdXpNBvRoYaL7Wn432mr7M"
  },
  {
    "lat": 43.62274,
    "lon": 3.888312,
    "name": "Parc Édith Piaf",
    "url": "https://lh3.googleusercontent.com/4vVGQ-FFCEw9CQ2yAGiZ6_lDG8QGoP9XI-9Fe958D6M17ZZC9msfmNu-5GMNvmGyE5NAH7MZ24FQGi1y5UmkWArGag"
  },
  {
    "lat": 43.624146,
    "lon": 3.888992,
    "name": "Nouveau Cimetière",
    "url": "https://lh3.googleusercontent.com/JeOwBbmqIvav30r4mUEx1lr7YZu29EHxWStAbEgxLNLLRxtkjiXzpcXAioIfQuGHnhyr8eG2-iqLZYkaApzcOVY8KmKf"
  },
  {
    "lat": 43.617943,
    "lon": 3.893718,
    "name": "Fontaine Rimbaud",
    "url": "https://lh3.googleusercontent.com/yfweXMWtvb2pDy6h_cm7zcwBmtY-wtNtijwuoIhPOpZHxNQiz48MczqAbiqh30gWsCY4In9hO5S4KH9MTr9sTFATep0"
  },
  {
    "lat": 43.61889,
    "lon": 3.893798,
    "name": "Plaque Commémorative De Montpellier",
    "url": "https://lh3.googleusercontent.com/TdbqpDUXp2LOWzeuYXhkospWjq84qen2KSEVMiVmGNGDS6osvvh2KcRFn-R8YckVxkFG6_V1AbPLoDUSOwaT-a_-CJI"
  },
  {
    "lat": 43.618065,
    "lon": 3.886198,
    "name": "Curiosité",
    "url": "https://lh3.googleusercontent.com/APatICfR8WTyjptjBSWo5FL7U28xZw2mwwdp9qah1wt57jHlXWwfrtsuvdisAF-JfCibXn-UIddE3cir7k3bU7yQaRw"
  },
  {
    "lat": 43.61392,
    "lon": 3.888234,
    "name": "Arret Tramway Les Aubes",
    "url": "https://lh3.googleusercontent.com/jq9VQX5u9AfIXZ6xypMxagBkInpIaf5JAwKx3T4Fk109SorcqZXp4knCpTT-SHMVGP-Hx2qAWP-OLaEZp0JQxwJHKAj-"
  },
  {
    "lat": 43.610207,
    "lon": 3.890703,
    "name": "Statue de Montmorency",
    "url": "https://lh3.googleusercontent.com/CA4A8TzljGAjb8ulqmIQmWWC_DgShDfjv4LpB4IHFtOlW4a6z6b0IkvhOjiSk6Sw2ZPAIhRJwDCmSMPyH-CGuTkQbMDM6nCd22VYrVTo"
  },
  {
    "lat": 43.612682,
    "lon": 3.895688,
    "name": "Grimpereau Des Jardins",
    "url": "https://lh3.googleusercontent.com/7r0A4Yi47c37FpCOntSpP60VjYQWtFKIP7ewPj12X28KsP5KyqOTLxQIc6ydCZvNpZvha1tFYduh_wLZbWhd_0BuywqmyEJEiNcjMCgY"
  },
  {
    "lat": 43.610516,
    "lon": 3.895506,
    "name": "Immeuble Pierrafeu",
    "url": "https://lh3.googleusercontent.com/-IbQbtBAdqwtmhg5sd05TUeXsEPTXvzg-4DrbN6tFabdSS16O6ltsb0YNWFP1GIvyhnm7Zu_lsbbD8qPEuO5nmTpXpU"
  },
  {
    "lat": 43.610626,
    "lon": 3.896554,
    "name": "Bateau Pour Enfants",
    "url": "https://lh3.googleusercontent.com/9OYXYbPyAXEyZX_H776wmsF32NEdbqhOqBmXV83ab5vWb1LunUB_p-wulMrugEvp18J2Mnsm9mQyy9hmkVaizsQ8fLQ"
  },
  {
    "lat": 43.607937,
    "lon": 3.891559,
    "name": "Place de Thessalie",
    "url": "https://lh3.googleusercontent.com/kdkfBo4vJYwxu8hjbowJfwvqeBig1T2tbjCWpalsl4ycTKbqAdKbgKD8QaxiYNMsqVvGbG41VW1gg_kvzv6Iz2jkWSf5"
  },
  {
    "lat": 43.607647,
    "lon": 3.893967,
    "name": "Montpellier Campsite - Social",
    "url": "https://lh3.googleusercontent.com/FISm0RN5KFF0IkMHs7wL8wkz1AQY1JkbeLRTqj-0mZPY5DrlJFlkoeCFZ2iZ0_0H75pb0QMnzSHJJ6xrBgBOm_dowl4zZzE8VJ2XKKVQ"
  },
  {
    "lat": 43.607975,
    "lon": 3.895023,
    "name": "Montpellier Campsite - Patient",
    "url": "https://lh3.googleusercontent.com/5ZkHQ6Pvw7ZNAJ-5CXRyseTwoEWi6XVOKh6vqmibQoXHygWHhkDffwcEqL237OGkqOrli411hEyfBZ6_IvGNDfgMHZM450bLUfgErDHMUA"
  },
  {
    "lat": 43.607624,
    "lon": 3.895694,
    "name": "Victoire de Samothrace",
    "url": "https://lh3.googleusercontent.com/FgtVrhFB8_Pl_vyRVrTPENC6oeZLtXBK56RjYiq6AWt6fUDGb46oC2-ennf79oAHtD4U3XsujUTdTfaGNDWbNDq08D0"
  },
  {
    "lat": 43.607742,
    "lon": 3.892546,
    "name": "Piscine Olympique d\u0027Antigone",
    "url": "https://lh3.googleusercontent.com/4IE6mfaD56T0z-N44AA1DQM0whq6DbjVk7-JAgyidf40leJWQkF1owMRUpjd4Gfi6AcsUoOqcQNCVbyKLW8mL9rN0A"
  },
  {
    "lat": 43.608456,
    "lon": 3.888881,
    "name": "Montpellier Campsite - Resilient",
    "url": "https://lh3.googleusercontent.com/TQyy-SKH-k8eVeP9FezqJCjRper_uKYjPu29wxz3g7ri7jiE7Xy-m3qx80TVo2J6QWdeUPkfpdQhrLYdn44T5ZODR2OkqNVplcla708E"
  },
  {
    "lat": 43.60766,
    "lon": 3.889308,
    "name": "Aire de jeux du Square de Marathon",
    "url": "https://lh3.googleusercontent.com/JjetjrnzFP7KlUDlCyw88zndyBX054-vDXiiOZrGLZJWeml104SMjVgJOSZzM7VHJFYDMJ9SjYnjaq3eoarVkYgagnk"
  },
  {
    "lat": 43.60755,
    "lon": 3.887221,
    "name": "Korais",
    "url": "https://lh3.googleusercontent.com/NwdoKK75PUtwusvhcWu4h6vdqiZGkXn4ebzK-FLLM5bmQXHLt1afCJLbcYxpeaOOzwAWKG_Z9xzRML7wgU3chqGmKO0"
  },
  {
    "lat": 43.608723,
    "lon": 3.887159,
    "name": "Montpellier Campsite - Kind",
    "url": "https://lh3.googleusercontent.com/qPdQtETdAOyjJ2DhnNToBVK_gDQ9ZqcFJzbX-VxBR2OkeVBuLaayEtCL3eUiyv-1DM6-I0OxbuHNAUf94cHDFlPoW6evBXsdUI766JRC"
  },
  {
    "lat": 43.608463,
    "lon": 3.886418,
    "name": "Antigone - Apollon",
    "url": "https://lh3.googleusercontent.com/YnQzSYaN9p7BlMLT4L6xoN_6hCRCQs1VXcLp-4_DKdMxBJFtDIaZyCtQZqRdcnL6ZyiaiRU09uARfCStnWafKxDVpw"
  },
  {
    "lat": 43.608273,
    "lon": 3.887937,
    "name": "Montpellier Campsite - Loyal",
    "url": "https://lh3.googleusercontent.com/HgwOJGsb9lcbwOlaLkGD09jOsdd-qqqvEfmEwLtDkTXcMhr0eLmvjd4zhc8hocUtp8OgAvcSLdh0vP9tomjlaIuewXdk3vynQ9NPzzss"
  },
  {
    "lat": 43.606262,
    "lon": 3.881354,
    "name": "Rockstore",
    "url": "https://lh3.googleusercontent.com/beEfx-knOvhCEuR3smOdonP38DJZpF0evXXrPeJaOwUVpo3-gdusCRfdVuTucuXq9u-ib2NjnyDdIU_iI8cZTWXRdqs"
  },
  {
    "lat": 43.608707,
    "lon": 3.88366,
    "name": "Polygone",
    "url": "https://lh3.googleusercontent.com/TkReeEqJEGAFBb1dEbpBF9Via7gvM2M1zSWzxRxz9WuYK0vdkYF0tyNHMCusk-cbveFhsSYrCx0N4XcED_eRHCVHHA"
  },
  {
    "lat": 43.60656,
    "lon": 3.883389,
    "name": "Eurociel Building",
    "url": "https://lh3.googleusercontent.com/XkSS6UxwvdxFXT44nq6QUHputvfs03XSPJNdLYOxp7RgpvadhXPCzXpmj5wbqGfQaO6mWqBB5imc98AWokqMcDW6Wg"
  },
  {
    "lat": 43.61005,
    "lon": 3.877789,
    "name": "Statue de Jean Jaurès",
    "url": "https://lh3.googleusercontent.com/jps2IrN-ZBeS1cSkGJ-GKd94AtV8-2PJvcXq4Cvc9dnQBD6JL-dioNmn_3h1_9D4gP3qHRXYLG26_DBmBaNKH_tdaO-T"
  },
  {
    "lat": 43.60808,
    "lon": 3.879055,
    "name": "Théâtre de la Comedie",
    "url": "https://lh3.googleusercontent.com/3BpiGuRnVv2u6Cy8euBK5laykFSRfF1pYK8l-rt4zi-lkgDnNEmbquQahaVIYUHFdvZC50eLsjfkTYFh9zlyUhDZuN0"
  },
  {
    "lat": 43.608448,
    "lon": 3.879543,
    "name": "Fontaine des Trois Grâces",
    "url": "https://lh3.googleusercontent.com/0-E2u5qBo-QXfF9APJ2C7-hKxx_EDDT2_biQ-4JWvSGBUvDJkGDvmp2IRyYlkoAPk7XDwJK6OT8v-5c-QDcC-ZgoGx8"
  },
  {
    "lat": 43.606556,
    "lon": 3.875664,
    "name": "Fontaine Du Green Coffee",
    "url": "https://lh3.googleusercontent.com/pZfamJTj8pswihvm4yDXPQvaSbpuQ4Y9BfgfIfSkJI-YT0iuDJUEtjkVMqTYEwsN2nZ5tN4abWB-6QaKaEmIbEaE35Bn"
  },
  {
    "lat": 43.60799,
    "lon": 3.874858,
    "name": "Art Abstrait",
    "url": "https://lh3.googleusercontent.com/KOpEmoXsf8c3MW0tVh-k1vQotlZj0D6CSjWMGkZcN2gMnn6pegqEvjRBUXAKHKeT8uyV6Sp_y1ZOwJt3FHUeBapdeQ"
  },
  {
    "lat": 43.61027,
    "lon": 3.874295,
    "name": "Eglise Sainte-Anne",
    "url": "https://lh3.googleusercontent.com/CYesty-qchlc0Ts4FdK9DbdS1Nt3BUSHpSBSs8UmbLO-CeJQrIjuNnJRCyo_Y8z91TMd2hPF0iq28nYpyAJ02XVQmA"
  },
  {
    "lat": 43.608555,
    "lon": 3.868438,
    "name": "Réverbère Art Moderne",
    "url": "https://lh3.googleusercontent.com/DhHLXCSqIl4ZTKbB8E4Eg_pd9bryCRo4H30LQ7BmBWFeK0lOf-fPnp9aGbnu-VKG2OJZXBa5oeFrUUxgOgNC_vXA4_M"
  },
  {
    "lat": 43.607433,
    "lon": 3.866808,
    "name": "La Pêcherie",
    "url": "https://lh3.googleusercontent.com/ZvO6MjRzUDoxuO8Ev67AYPwRG9N6PDUlTSYXgqZL6JY_RGUsud5zaN34jLr5Xb4TR68n3OCz-qy--EO37VtxkY68a0Y"
  },
  {
    "lat": 43.608467,
    "lon": 3.869138,
    "name": "Croix De La Merci",
    "url": "https://lh3.googleusercontent.com/YFoxEELp6Ud2a_TndcCvhilSMjyOTVTWU8RrF6s8h6vwrJDhF8_WjfNA2rFpM7Z0UaehLY_fC0qQQWgb9_DSve5aTQ"
  }
]