[
  {
    "lat": 43.621193,
    "lon": 3.997214,
    "name": "Fontaine aux multiples visages",
    "url": "https://lh3.googleusercontent.com/8DeUbtV-etHNUo3SncXXGCffmhhh1pLwCTAPw3tNh3uYVjf7O7qL7AYeip-HXAufGqU7dB7JV_GV9B19u9g0jscX_g"
  },
  {
    "lat": 43.616528,
    "lon": 4.00184,
    "name": "La Fontaine au blason Melgorien ,",
    "url": "https://lh3.googleusercontent.com/V5fr_Wl-HYywPVirDASs0XsTJwbyUClJnDMRdTIxlZIcjqQz2FefryBpd_Uz4AEU-A20i4G6jaFN5njoBPpBIRFGk3U"
  },
  {
    "lat": 43.621616,
    "lon": 4.005247,
    "name": "Le menhir de la capouilière",
    "url": "https://lh3.googleusercontent.com/a7m3qROZC8-F74V9nLT1BYJqim24GClkza7XIhqzXBixY0LdmUNmOMwAOq0QnRnsQqO-O2C4HECZAx4gioE57k6Fdl0"
  },
  {
    "lat": 43.61834,
    "lon": 4.007546,
    "name": "La Croix Des Muriers",
    "url": "https://lh3.googleusercontent.com/YqH8NWJo-dGXwh_q3duiqBYakWE1i3xNphR_RAmbCTTo6JFVHyjuTzR_UgUxd10Z7DLe8opy3N8OKeHl4-wnTLdxdDM"
  },
  {
    "lat": 43.615864,
    "lon": 4.007266,
    "name": "La crucifixion du Christ",
    "url": "https://lh3.googleusercontent.com/LER5TzNknXcnNCxv07ZTUxrWxSnkZnffuPqSoYpn3kUTLRpPhu4Qq7GCuLxavr-VBnMh4jDnCjAB23AOrNHq00lf5_rv"
  },
  {
    "lat": 43.61502,
    "lon": 4.006159,
    "name": "Mur Aux feuilles de ginkgo biloba",
    "url": "https://lh3.googleusercontent.com/xZytAvdW3KK04NxawTjffgX7EUb86S5jcr7F2-KYIPsGJj6-8RcFlMZkSsx9CWfmUmiZaJPJwabF8dhxh5idguAb4MXC"
  },
  {
    "lat": 43.615448,
    "lon": 4.005561,
    "name": "La vigne grimpante",
    "url": "https://lh3.googleusercontent.com/8V7rsyvSOzKr71SClotpUSUj7w3Ad_fg-kgOK3wgvAX-8U-TNGa-OQRJczpqcYmQNs3iq6k7A5wzzmcQO4vQ5AYIIEQ"
  },
  {
    "lat": 43.610325,
    "lon": 4.011079,
    "name": "La Vierge des cabanes",
    "url": "https://lh3.googleusercontent.com/UbPFyZTpydLxmNt9esU9q7LJdgAfakKTdSfN1SqzPHrzgyWW9QApToH_woTfRJRBr8AQCX33bMJroH7zvQKVh5qHrtHULaF7_cCIB_Hd0w"
  },
  {
    "lat": 43.60958,
    "lon": 4.013251,
    "name": "Rampe taguée du Skatepark De Mauguio",
    "url": "https://lh3.googleusercontent.com/7UnAP4a98eu5aOUJtGfOLN4eQqwlwn71hQz0j23ChxFsZOdwraEWoMVrapLXsVzXpAeRHoDQqjKgTsZ9JLfkYzMCDDv1"
  },
  {
    "lat": 43.63852,
    "lon": 3.970565,
    "name": "Espace Jeannot Bessède",
    "url": "https://lh3.googleusercontent.com/nphclV_H87D_PYkm_dHemeSUVmRjux3aZT6ZhCK5F4Kg-AjutD2asWOXQUls_GNSf7Nx8RozXOBJI_UfD2oLm47zUA"
  },
  {
    "lat": 43.64322,
    "lon": 3.96874,
    "name": "Le Jardin Des 4 Vents",
    "url": "https://lh3.googleusercontent.com/UHMyWr23v8vubgZw33v4A6PGVYKk4ey3_f2GxcXgtChes3EzOlKVSGLXHcu4JQkxXKDKh4GnzuXxf4tJw9TBMmUTNZc"
  },
  {
    "lat": 43.64094,
    "lon": 3.964276,
    "name": "portique pour biseps",
    "url": "https://lh3.googleusercontent.com/bfUTNsmRK8MMdFI20UvhU4ZCjiPo2dp4AsvSt5zlCh35DMjCb2VMheILUsNP9wnhGBksIHgxPuso0---ztbzXMhyRihqrLZrWX5CPIKUaA"
  },
  {
    "lat": 43.6418,
    "lon": 3.965369,
    "name": "Saint Aunès Tennis Club",
    "url": "https://lh3.googleusercontent.com/MF8cwCmNSQ2_ujldsT4Q2eEasfUZFb3PoIfFv2t18oh_pzy-VbQ-iEYatqVdI6O2gTqwejWoNw8vkc0w7oBD1Lhpxk0"
  },
  {
    "lat": 43.639027,
    "lon": 3.962947,
    "name": "Poste St Aunes",
    "url": "https://lh3.googleusercontent.com/_lG0ULAjIcZo0pMNCXuYV24zP-fMfntm_lEuQP1xQ_xPi3kzMaizjS2Ca1IRFbyeX2rI6ZkUlUy4j4o268NasQU8qzI"
  },
  {
    "lat": 43.636772,
    "lon": 3.96517,
    "name": "Fontaine de l\u0027âge d\u0027or de Saint-Aunès",
    "url": "https://lh3.googleusercontent.com/fuhJd1EvnFiDbmGaJp0PiO0AV9b1xC2j-60hukCkYZ5V8PwyXnmCXpXPpV3PBg7HBjUrdMQw5A1ACnrHucDfuzf07a4"
  },
  {
    "lat": 43.641953,
    "lon": 3.955801,
    "name": "Parc Châtaignier",
    "url": "https://lh3.googleusercontent.com/AY0UssGvI4EJ6Tj2307COQ1kFOXkI-nT1F4BYEa9cxvs2-hjBLzxN5UTSkeWLyvDKK1Mv8Z-lzQ48WmYE1mkWj_ZhTg-BwFJWoCm4GzP"
  },
  {
    "lat": 43.63554,
    "lon": 3.964782,
    "name": "Croix Coeur St Aunes",
    "url": "https://lh3.googleusercontent.com/23oyg2R3jajnFRBqpVOMsdGBcS7VLaN3JHC_Gg6rEbtoJ3RAcnkJt0IxQOsrODZr0tHxQ32CJcwVit5hX8cQWS3xMfo_"
  },
  {
    "lat": 43.634743,
    "lon": 3.96488,
    "name": "Puits De La Mairie",
    "url": "https://lh3.googleusercontent.com/NyzOiPQnXj3eDM56gRkLleN_oKjdJ7u6Y48OTaKVdJ40YcCemWH5u6zfk-IU_K0LBX6kmzsrMx81KZ-MMCsVfLYKdI8"
  },
  {
    "lat": 43.57889,
    "lon": 3.958488,
    "name": "A la mémoire de Pierre Colin",
    "url": "https://lh3.googleusercontent.com/W_hDdwHwIb8X6bG-tNeGhvRtrbUTsTWA_2rd7H_rqSR33dnu5RwQmyM-WysrXFse_kBhSvGwhFyNAV312vxFThUWew"
  },
  {
    "lat": 43.578617,
    "lon": 3.959033,
    "name": "Aéroport Montpellier Méditerranée",
    "url": "https://lh3.googleusercontent.com/m2ZtRBAz1WIV6AwVvdtn-_yYxPCiznMp_G1QAYtw_4RdeU198MLD-kGJ5jq-BGBNyejQj3ezJKc1DmTOT4jltRldkg"
  },
  {
    "lat": 43.573,
    "lon": 3.950129,
    "name": "Parc Des Expositions De Montpellier",
    "url": "https://lh3.googleusercontent.com/5qLLeYvILsvX8HtCTOPQXwaHrxyddoidLoVVHpImWy50GtJMwGCwxLFQarL0Rhs4to7QkzLa9syjCfh_x0JizpW2qnwr"
  },
  {
    "lat": 43.573772,
    "lon": 3.950809,
    "name": "Arena Park and Suites",
    "url": "https://lh3.googleusercontent.com/o8hMtXDtItlzos5XVtzAanBH5tzOjElkGsMtyuCw7wVGxpdsX2oUdd7-G1TRfQRZBpCc0kHc9Qrtsjg9stftSxZZH-g"
  },
  {
    "lat": 43.59284,
    "lon": 3.958631,
    "name": "Poids-public de Vauguières",
    "url": "https://lh3.googleusercontent.com/TXLimZY2fWYQD7W_yOWCuLbaJU1oKpVcwFy_TEmbAq2b2fZBcHfP09zuFV6dh4PdjlogGoAHJJvsATK-keghw9oL"
  },
  {
    "lat": 43.59013,
    "lon": 3.932318,
    "name": "La Poste Boirargues",
    "url": "https://lh3.googleusercontent.com/XQCrT3_SN_bQcv4ObqsjffdD8EH7jmfQbZyWCex-CDLANp5Mo1jzYCar04atE3Lqpbsxc00r80bBoN81kkFFR242qA"
  },
  {
    "lat": 43.587105,
    "lon": 3.939553,
    "name": "Création Métallique",
    "url": "https://lh3.googleusercontent.com/b_UqzB6pjVXyuGpuA6i1f81Hjth-Zqp9sqIVdIKw2ePwWvz9Tq4z8oYSZ2DTfJGbB9ihvZ_EY6rK1fbRWAK_zIhp1sM"
  },
  {
    "lat": 43.580063,
    "lon": 3.937728,
    "name": "Colored Building",
    "url": "https://lh3.googleusercontent.com/Of4qo6xzrLIetqX6uPKygsaNU0P03gen5irB9nLK3s7xK8CvI4MKVQiD35I6P-DJfAHwC6jAozI0MKDCyOpY65x2pJztojsv-18NQtye"
  },
  {
    "lat": 43.579468,
    "lon": 3.93963,
    "name": "Les corollys",
    "url": "https://lh3.googleusercontent.com/NUB-l4ijyXzxA5h_tL5PWqqW26r6G0p_LNxlLUF7PA1zSoF1W58CTj2JrO1-WXT601LXs7P2Zb0IGqj7Nht35tnaAnSsKRq84oyjSUSO"
  },
  {
    "lat": 43.581932,
    "lon": 3.942254,
    "name": "L\u0027Indien et son loup",
    "url": "https://lh3.googleusercontent.com/cO2hNQmJqbLtsBNU9-ky9gP9RCpCZav9XdDSizXI1Iu0sedSpemx6L5Y9sQf3hg5Scag9ZuMnRat32eeDe2foChSEpI"
  },
  {
    "lat": 43.570343,
    "lon": 3.945762,
    "name": "École Municipale De Musique De Pérols",
    "url": "https://lh3.googleusercontent.com/DS73mjrpMswC9owsqWEsOOihg6FW5-pvEx9_lg7sQ2N4UBeBZyNTZBMHxwsYm8eejLCLLavHolZb7UHWWpC3BL9Avw"
  },
  {
    "lat": 43.578564,
    "lon": 3.936671,
    "name": "Le Liner",
    "url": "https://lh3.googleusercontent.com/-bttmx4VWRiVBzHa2cy0XnsMWzPQSOxysbLCcgtVYyxsc-W60iRqNGMb4BUNKyyWyYfu8nFTMHQt6ZtUKWa-IkaypQ"
  },
  {
    "lat": 43.58195,
    "lon": 3.929879,
    "name": "Grand Sud Entrée 2",
    "url": "https://lh3.googleusercontent.com/5eDg5NpH0lMGguG5G1GBy4pDpwwoECQxOnjbSM7Nhktb1Enp7KNTnIPoxqWV1jgluspaR-5dy72e5cRBdbML-_0hSGvi"
  },
  {
    "lat": 43.584118,
    "lon": 3.935671,
    "name": "Charlie Chaplin",
    "url": "https://lh3.googleusercontent.com/DtPMsQK0_D8d7c4emojql7Lqn--ZZAOHqzjKP9r-HJ82CS4JVrHvW3v3xutAmuLCyLTcqkkkV7GIUwpuAbCiMnPeRIA"
  },
  {
    "lat": 43.585068,
    "lon": 3.931994,
    "name": "Megazone Laser Games",
    "url": "https://lh3.googleusercontent.com/ZUD7pGT5-bq9noR1iJwUx9n447sFGMHY_3osI57rjnGFEnAE_luvXbFRc5J0szomyYhj4V2krd9n0kmQzdosnFG29wY"
  },
  {
    "lat": 43.587143,
    "lon": 3.929058,
    "name": "Grande Presse",
    "url": "https://lh3.googleusercontent.com/_0RPFTAmX-NMrdip0GCesFN4Ftij1LnS3PGQ7hKI8hmF-6Jm9APj0VDSmzqliKvcn4pMXxS81MSuNNQBXeXAkIgyR1be"
  },
  {
    "lat": 43.58709,
    "lon": 3.924778,
    "name": "Fontaine Bacchus",
    "url": "https://lh3.googleusercontent.com/Oj_tiZyRTOdKvzW2LNvqa5FB0yt0vuUcZSz8-bnEjmOQplDe4mjAK-PNnWhoPfZRDn_l__sdG7fkiqukc2QdPJRYUOs"
  },
  {
    "lat": 43.582592,
    "lon": 3.925699,
    "name": "Arret Tramway Boirargues",
    "url": "https://lh3.googleusercontent.com/31G84wbSHB0eFM1CvT1wfTdADi4lJO8ZBa7k7GSQK2mbzfJE1Sjn6ILlBkLs2QpEe505gEFhhxJ4wLLBTslQZ25ozqk"
  },
  {
    "lat": 43.57352,
    "lon": 3.918251,
    "name": "Les Jeux Du Parc",
    "url": "https://lh3.googleusercontent.com/JNS4i7QFfO_CeCUgrw5aeDHm8nxDH3K0_9MRaUYvRx14qb915107s-N5Rhp6wcInqBL4Kr5etgoJiz23xBCzNf-P1A"
  },
  {
    "lat": 43.571968,
    "lon": 3.915005,
    "name": "Sculpture Cougourlude",
    "url": "https://lh3.googleusercontent.com/jCWgYxExypoRzSCkdOzYSCMHj-sAJCJXET4Zrc9YT4OsWfbfKBkRXYsyvDctbGFn6NRZ3cCrO98Yl6T_FRi62KnrN1g"
  },
  {
    "lat": 43.57153,
    "lon": 3.907355,
    "name": "Les Colonnes Colorées",
    "url": "https://lh3.googleusercontent.com/FJp6ltA8e2Aa3krriw4V3Ecob4JncV1Yfm9GtESOgLFN1j_MYtHsl3EcdRrBGoeLv5G0F0stClZT6jFejJYc_OhoEMg"
  },
  {
    "lat": 43.57906,
    "lon": 3.907899,
    "name": "Transformateur - Les petits monstres",
    "url": "https://lh3.googleusercontent.com/8hYTuI5zAzmjRoZeUwp5zrrbmrFzxabEB82U5oIACIz6Jnz8PNvttxkSvXKoyhGQDCQzjkGGFDXsET3EKjCZ9CpjGQyXy7o57V3Qzyc"
  },
  {
    "lat": 43.588367,
    "lon": 3.915105,
    "name": "O\u0027liver Pub",
    "url": "https://lh3.googleusercontent.com/5kcyZPzEpgYvkhNZWyEiwtzFttsssTNQFUyTvZT0YOLsqorSY4dVDk5qH9vBuf8e32BbbQwVls1Tj28EX2vQWOWBQQ"
  },
  {
    "lat": 43.589966,
    "lon": 3.910431,
    "name": "Salvador Dali",
    "url": "https://lh3.googleusercontent.com/sKCv3Z5eDHjk7JLqYrC_kl6g2fwOibjqyFD4wiHmBtaP8XMljMw2wpYEbw0ClrriJtltEHeEZ741NjNcqhWKWR1snC8"
  },
  {
    "lat": 43.58903,
    "lon": 3.907672,
    "name": "Tribal Graff",
    "url": "https://lh3.googleusercontent.com/Ogkd5QUEz0AuNKsDa4miWZ5kFxXP5XlNWCrzZPKgSBEQllEudtss8n7l5BLp3RVQPpwLilhgRko7Koq5ZzAD57mwUEw"
  },
  {
    "lat": 43.5944,
    "lon": 3.915555,
    "name": "Cloud Tree",
    "url": "https://lh3.googleusercontent.com/H-1JakM25JOH_7raQ8Vb9FDwELlfKBcA1NkCfRfJOCqoo1SdjDtpYHBPPKwrXZPAS-MFLuVn8U0Swa6zF2QgWlOzOMSn7KiosMlTZ7ETQg"
  },
  {
    "lat": 43.58996,
    "lon": 3.921163,
    "name": "Grenadier commun",
    "url": "https://lh3.googleusercontent.com/FdovoYVzxJOH5UI2AnhOa0_Qya_2q5k4192iElvL3oqkstqHHzWN15Lb8pqUPJ1UOJ6eoAnbGw1_4mGn70SNuZW61Q"
  },
  {
    "lat": 43.5902,
    "lon": 3.924935,
    "name": "Bateau et Tortues",
    "url": "https://lh3.googleusercontent.com/_ouH7yKWQkhe330u_TkOK6lpJeIOI172ejMb9gySA75xEvNMQBLigUFV6ufOo9nD39BqCoHZV4hxOsblWLOOZJDWAw"
  },
  {
    "lat": 43.59019,
    "lon": 3.926415,
    "name": "Aire de Fitness",
    "url": "https://lh3.googleusercontent.com/DTSzGhXM0jGUUAgIAW0PgR6fURolNFz8L3Dm0XlQ0cZ_ShpbQI_PELJHTjyn9PaUGGHA-GZiojaa8i9B7_X5vlTCGNY"
  },
  {
    "lat": 43.595623,
    "lon": 3.923415,
    "name": "Sculpture Hashtag Montpellier",
    "url": "https://lh3.googleusercontent.com/Ibwr58USy9xJLDu2ompxmaNgvFf9tU5ixOag50F2nM_b2_w9V3vc7YWvPw5U9b0TpeJv5GLBOPa_6S3L4xGfzPis9A"
  },
  {
    "lat": 43.60333,
    "lon": 3.91836,
    "name": "Jean Jaures",
    "url": "https://lh3.googleusercontent.com/kTq0Q6muC4RgiDqPJ9D1DM2GBNxSkzohZWKgLHjBt3-bqNnSlDCwwkV5dE8FaMZuOtp6UC7V9XBd3b9I7oW0uHG6OPQ"
  },
  {
    "lat": 43.60358,
    "lon": 3.918783,
    "name": "Statue de Gandhi",
    "url": "https://lh3.googleusercontent.com/q3fqUY-fTnJwychxGrFSyQaGVNrZtCVjSX09ySQAgWPSqYjwL_QwVA0GkzzL5mUvhFZrwHNfIFQBXkF6bGQnqib_4nBF"
  },
  {
    "lat": 43.603622,
    "lon": 3.921646,
    "name": "L\u0027île du Soleil",
    "url": "https://lh3.googleusercontent.com/wPLwqCNc2svrHjdQ94LGYaT6B8yjIjNg1kFywN_kT8jyJjQU5TaCE7P46gyubPQ-8R5NQtxyq4hQBV8T_aGc_3X8Iqhb"
  },
  {
    "lat": 43.604298,
    "lon": 3.922237,
    "name": "Place de Circé",
    "url": "https://lh3.googleusercontent.com/FyLGrfPpBxqlacA7GS36Vv9_6e6oN8p0dGnRXxyXOPEMmfOQRcnu8WcVr64AshNZ4Ct_Z-vTJgOZvS5KjaJqq87IcaG1ISDwuEv298_QkA"
  },
  {
    "lat": 43.60716,
    "lon": 3.92296,
    "name": "Maison régionale des sports",
    "url": "https://lh3.googleusercontent.com/4_esLKIS0JfNx-FABqS4sBv_rKC4iK1uxcblmWTI9PLAcpkuRFqMTl5wOifNKjPF_vb5EDBhYLR6K3l4JmLogynUVg"
  },
  {
    "lat": 43.604324,
    "lon": 3.920582,
    "name": "La Voie Lactée",
    "url": "https://lh3.googleusercontent.com/r8mtAy4hP3g8Zdd8Cfdb3uXYT5LcVd7slS9uucHToKJufCIjCNUVPN9YJAg5Nmf3beV8-SL4m5EGXndrdMvFyti-L8E"
  },
  {
    "lat": 43.60432,
    "lon": 3.921183,
    "name": "Les Arbres d\u0027Argent",
    "url": "https://lh3.googleusercontent.com/08El0QP8UsjQn6WGtDqbAby9y6lWsdMs7ZAzwLMatHhLGsESPEnuctY0mTk2rkDUU6Dd4AD9net_b8GDg9JMBZR767Q4V2UL1_v7dAK6"
  },
  {
    "lat": 43.60428,
    "lon": 3.915574,
    "name": "Cinéma Gaumont Multiplexe",
    "url": "https://lh3.googleusercontent.com/ODzmyYY3zXpUGgzihuhdlZ__FsciaYnktDbUkKfvd58Mf-PIcZZePfywKVsW7UfpwONwLt4fBBFm5e6ESEliPky3phc"
  },
  {
    "lat": 43.60456,
    "lon": 3.912683,
    "name": "Statue de Georges Frêche",
    "url": "https://lh3.googleusercontent.com/ZDbpOPTGYmP4Dq4BItGbe6p6rNYp6wMdxfoq_rJs85od9DR0QoD33Msidam0b_Bf1TB40jHF-YtFTNgLCpvD5-QYbBXV"
  },
  {
    "lat": 43.6038,
    "lon": 3.915729,
    "name": "Anneau de la Place de France",
    "url": "https://lh3.googleusercontent.com/3n18fr9Keq19iUEO9oQAYM1nxiPCEnDG-3uQDPhNIxk6nojid53PI9kvxvWmN2Ld-9prhugqDOEKx6j51KEss3E9mw"
  },
  {
    "lat": 43.603436,
    "lon": 3.915524,
    "name": "Patinoire Odysseum",
    "url": "https://lh3.googleusercontent.com/ctBcPDilU4GOenMC6mmVwTBwg50kCqpyK7Bc0vgwl-0tAJUq1-lGG9E2cn1mJSRdbVm78AAEkABia-iwE1ZjswYHPQ"
  },
  {
    "lat": 43.60413,
    "lon": 3.906657,
    "name": "Folie Divine",
    "url": "https://lh3.googleusercontent.com/uvBb-sIU3xzFkhqkssLlFioreBGzjNLu0_yTemQWaphr54mzA3Pmo2vp-5j-65DiKmva0p-QWi0Wpc2ctI0rxDR0ZOw"
  },
  {
    "lat": 43.608265,
    "lon": 3.907788,
    "name": "Graffiti De La Tête Souriante",
    "url": "https://lh3.googleusercontent.com/GUXaHKobldJ_ShcY6OCk1A7VSb9KpSFKtreD5Ie7ev7loVVfVnj644Xu9nQDG2uNxHGl545aM4Gxv9QF_MFNf-r_grrh"
  },
  {
    "lat": 43.60858,
    "lon": 3.909183,
    "name": "Puits à manivelle du Vieux Montpellier",
    "url": "https://lh3.googleusercontent.com/jmWeUpaw8xOE89WLK4OmIgwbufoombQuLPqNj0vK_YCO6-xiq38OixuZ1ovgB-54rcw4mCmls7DZ25UgUjyBhyB5Gg"
  },
  {
    "lat": 43.613556,
    "lon": 3.908242,
    "name": "Hommage Mélina Mercouri",
    "url": "https://lh3.googleusercontent.com/Kdrl6mM4E46iMhhMk_BU4f2LBmDvGWvmuIVsmbI7gX8Qj5K3Bj2r_-lqLbIPl3B0CtErFaq8buU-6uYrPaUYVmEsKg"
  },
  {
    "lat": 43.61308,
    "lon": 3.909635,
    "name": "Les Yeux Du Millénaire",
    "url": "https://lh3.googleusercontent.com/D29ggZ7iMcCvKLy4AZhwe013rqv2Jwtn9Vewl5wJHxzGhl1VaOh4oYZq9jBr_SIdsiy4BKYGPwcTP2HVnKC6r2N0xQ"
  },
  {
    "lat": 43.611446,
    "lon": 3.912303,
    "name": "Arrêt De Guglielmo Marconi",
    "url": "https://lh3.googleusercontent.com/QddY_I5cZULYUXzDoh-dRy7IoRxUL04NRIvoD_4yfkUvIkdmF_rzgCXXBnEQChHbWNyT1_RFBCg71KpMH17BSho5htHL"
  },
  {
    "lat": 43.616344,
    "lon": 3.914457,
    "name": "Bâtiment Le Gaia",
    "url": "https://lh3.googleusercontent.com/URBEj0_D4OFTGIMLDK9zsEEJERhLdtMGgWelCYd8KK1xS3gH3JLZkwkqprcNARZFrdrt9hmWifQnIue-IV9lgVKxY21v"
  },
  {
    "lat": 43.618244,
    "lon": 3.914864,
    "name": "Peinture Murale Du Millénaire",
    "url": "https://lh3.googleusercontent.com/52F_RpTTAxzZuA8wQ37O62QSZyqRKg6fuIKxV9wIPUCuy0B_DwWIuTQPjI04fdALhl5HTtZX4bgzOD8jT844-BcokqNj"
  },
  {
    "lat": 43.620567,
    "lon": 3.911091,
    "name": "Le Terra Verde",
    "url": "https://lh3.googleusercontent.com/JmNYVaPNGNzteAiroEgpYlglW64jsBxWMogD4oEGhglkeiqMtBoH_8eyHPrxhuKL2Q2BHpiDTum9H1qliuIjV6fyC9MDRk0tMtUN0ROm"
  },
  {
    "lat": 43.627544,
    "lon": 3.906522,
    "name": "Statue du veilleur",
    "url": "https://lh3.googleusercontent.com/azxNahcvNcSTbLciSWfgQsxKwwS9pknw8dePqwjI5dT7dGOAWnR_S3m34eM-74g1fvo0OuGuuM0uaiSXUmJST_8zc-4v_3hU-jUWWlg"
  },
  {
    "lat": 43.625813,
    "lon": 3.908419,
    "name": "Platane a feuilles d’erable",
    "url": "https://lh3.googleusercontent.com/INKLzxdsvbNnvkzFTWHFFRwM-9KXl0XYjOKPBy1VCS6u2kRX7Gc4RUylh5ljAtt-Q_E8yabGm9IhwsPR3BUrup3IUlPiPktOpXLcuoI4"
  },
  {
    "lat": 43.62707,
    "lon": 3.911827,
    "name": "Chambre Des Métiers Et De L’artisanat",
    "url": "https://lh3.googleusercontent.com/XuZ6QdDwWbq5BHNY4zg4nlOiLwDVKWhjsmeffc6_EqsEwooC5JmfIJDIJArzsiQc8SATNW4iVv1v6cx5otKZZAh0ru8W"
  },
  {
    "lat": 43.622795,
    "lon": 3.913712,
    "name": "Immeuble Au Mille Feuillage Métallique",
    "url": "https://lh3.googleusercontent.com/DJ4tNiRIOnwWut7OBeai1dO5fMrUUg_ndlw2Ywn2qUQq9cjW_7RPDh1fvD4-lDlLS_aHdTEZyQd9OQ2_daoSD5RZtyc"
  },
  {
    "lat": 43.619225,
    "lon": 3.913232,
    "name": "Pôle Eurêka",
    "url": "https://lh3.googleusercontent.com/LeDDaIlZEZR_-OevT5FZWhF6_9Cztbt70MA4cO6qxZbNwoSsZ0LCeq4TeEmaVRKYR7sayJFtoWOphd0952E0HrGIuh4"
  },
  {
    "lat": 43.6228,
    "lon": 3.920599,
    "name": "Petite tour",
    "url": "https://lh3.googleusercontent.com/NELL8X1o55ZQg5MtT-dM1qOXE89mfRyXX-cd9qJbmGLvdhwCqPO47uH4LYChA7XlQw5VAeW5wHjLlOw7h08Z-_e-5e0"
  },
  {
    "lat": 43.622192,
    "lon": 3.923128,
    "name": "Fontaine Du Domaine De Verchant",
    "url": "https://lh3.googleusercontent.com/HEZcKIO8WyTBLJT2wLPU0shiovVfRR1uBWIilNKkxd1vVGBUCNMBmqbl2ykZbsYxIYNu1iWiOW462UJ-S4NNJXDIL43Kh8t3iI1mnQvj"
  },
  {
    "lat": 43.617805,
    "lon": 3.926355,
    "name": "Statue du Parcours de Santé",
    "url": "https://lh3.googleusercontent.com/jmnV7HcEZFCHV1p0-lyx1AabpV7-NRWUZMz8tCA5gBK9tL9ma0LrgYqZbIBS6P1AwOYM6ixsn5CeBpjjKhOiHdRYBFX-"
  },
  {
    "lat": 43.609665,
    "lon": 3.916512,
    "name": "Fontaine du Parc Club du Millénaire",
    "url": "https://lh3.googleusercontent.com/ON9Nmhx7rbNYtCQCBLVt3ltcxTrzNdQf2fZhSxzWRy0fFjE68Vc4rapZLAEfNG6fW8-lj_-jwHRvROfGdWxMN62JpQ"
  },
  {
    "lat": 43.6122,
    "lon": 3.929737,
    "name": "Tag De Kool Klayne",
    "url": "https://lh3.googleusercontent.com/Z5SV1CaTWvAEUXQqMl-6Tgo9DdAIY-IuaeJiRUYFViYF8FBy7dqlp3_YmQEuqbbhFvB7_muS0bhrGStQ8PUhwG2sg2U"
  },
  {
    "lat": 43.6124,
    "lon": 3.928528,
    "name": "Graffiti Girl",
    "url": "https://lh3.googleusercontent.com/xHw-Qb4uz2HTXZNe_c_kWR2wDB0yh8C9Wt2eIjcwwZs0brL7OkdtPjTN0fkCmBMnpunsq5wneLWNlWkq46DaH-AbXw"
  },
  {
    "lat": 43.61593,
    "lon": 3.930441,
    "name": "Arrière De L\u0027Église Orthodoxe",
    "url": "https://lh3.googleusercontent.com/T1iXDVKYnpuY4aeAsEoOqb6_wPsWiSAHqvDLKGC2x3gSMxQ6M2Y6sgUyuWxciFSnZX4z39oPcbU7D6aswNkz4mKaxKQ"
  },
  {
    "lat": 43.61525,
    "lon": 3.930173,
    "name": "Vieille Charrue",
    "url": "https://lh3.googleusercontent.com/7Agx1h3nUgTJIuY2QBhMOZb0Sqk6vY6RyXjMSdAEeeuaPtFdqWStpTEEp9uDWH9cuVSOMxixMVUcfJGIkWpqe4oCYzW5TgYyNE9MZrZ6hQ"
  },
  {
    "lat": 43.615673,
    "lon": 3.935145,
    "name": "Entrée Cimetière Saint Étienne",
    "url": "https://lh3.googleusercontent.com/aEgF0uWGoHRmBTe_yKIYBgl_zHpj0FdQ5bP_yYErRN6o1C4H-slT9oYWDk3QnB70-4TU_x1uO-pg8MPVAGpSpViwUEY"
  },
  {
    "lat": 43.642834,
    "lon": 3.946156,
    "name": "Fresque enfants Skateurs",
    "url": "https://lh3.googleusercontent.com/e0BOm8LA4oiB1goYuxVtQny0tMOC7szW3gmziS-r_qnSxDvDrtkhJ42HBzSxXbRzYuiFzhUp2w5-eZ43v25wHE0jTxQ"
  },
  {
    "lat": 43.644264,
    "lon": 3.936382,
    "name": "Carrefour Général Delestrain",
    "url": "https://lh3.googleusercontent.com/t0I2wRVJTiF949wwZNudNXVHFHdl81h9w3C98-8KaUvg0pTDKCYqKN3RTjJL6zZEIP8ujpXiYdHRvTFnQrWZ64VH1XPd"
  },
  {
    "lat": 43.64296,
    "lon": 3.936321,
    "name": "Deco",
    "url": "https://lh3.googleusercontent.com/UTVtxH1t7BixgDQNLiZ_MPrhaQptKAY6s3CZTYC9b1jG6anvvnQ8mDLfJ8_Qw6sWBkVOYnlSrYG65DhLeLTVZ830Al4"
  },
  {
    "lat": 43.640842,
    "lon": 3.932638,
    "name": "Musée Saharien",
    "url": "https://lh3.googleusercontent.com/azy7JwAzUYNCNu24bmXc-MpmD_Mio1eWcFs7mlBu74zInwE_cFbVGhWvV588pqsk-8OC8l-lEaNO_DBP6mgAvYwfCQ"
  },
  {
    "lat": 43.646496,
    "lon": 3.928403,
    "name": "Gravure Romaine",
    "url": "https://lh3.googleusercontent.com/qbB1k67pnRbTsZQkjU1mZhrq4eosfd84DBtYPds5b3bWiadx7tYRUcbjvFPdGp7LZxq11a6lwjm028GD9gmhmBbeHYgbMGYg1xcvwrGh"
  },
  {
    "lat": 43.64249,
    "lon": 3.922158,
    "name": "Jardin Partage Du Devois",
    "url": "https://lh3.googleusercontent.com/9fou7g-wFmXbmw1nn70IXjCGUKfpYxrY-d-0szGVNH6BF_0-FTzrrD_HqkSAtUP-UyPS-SOMUztYjVrWlVjJbIBs5zih"
  },
  {
    "lat": 43.64228,
    "lon": 3.917427,
    "name": "Bureau De Tri De La Poste",
    "url": "https://lh3.googleusercontent.com/5Gj2jcyrtaIggifoknYlt0QVbyjUq1FUKqYpXS46wHlkuDqo2gA3ZHvGXw1J3afQVO6eryWX-MOya1LjG1zKHbBhu3g"
  },
  {
    "lat": 43.639496,
    "lon": 3.922497,
    "name": "Centre Commercial La Tramontane",
    "url": "https://lh3.googleusercontent.com/OVSrBAp0JfC3U1CmdFl9l7VMdbD5XO6CYkpZpUlQssLKaVyoMwaL3-41NFc8mqe5YqaHyTX0p74M0XucgCky8w9GcHQ4"
  },
  {
    "lat": 43.639446,
    "lon": 3.923337,
    "name": "25 Ième Anniversaire Jumelage",
    "url": "https://lh3.googleusercontent.com/cFWxGdtT6eQc0Ntt0slICbRY3CRyV23okaJv8Dq51NhRqtSkQQU8P6lfkrg_D2XyIpCHxFJfWka29L-_xjtwlmLF7w"
  },
  {
    "lat": 43.635517,
    "lon": 3.92437,
    "name": "Boulangerie Moulin De Païou",
    "url": "https://lh3.googleusercontent.com/v8O79IImIw9ck64ByCRwLe6Cf8dk_xIBRkdfsHbE7jkQwhg8qRFJjG5oPnNw4a8XNV1mjczg1Nj4aZnJkcVE7Sml5GU"
  },
  {
    "lat": 43.635178,
    "lon": 3.921299,
    "name": "Square Alexandre Chabon",
    "url": "https://lh3.googleusercontent.com/YoqR0ss_zizTEm1FlfaUi0ROq1n_0-GyaTAHXrPHRS-pH3_M-Fd702rd4XRHUGwWKDWYnAd02UevweWGjjCc4G-ZzgI"
  },
  {
    "lat": 43.637463,
    "lon": 3.91158,
    "name": "Place Simon Weisenthal",
    "url": "https://lh3.googleusercontent.com/Q0d8cLn2HqZarqck1gv1BWeAKlaJsBHjvyPfDZh9MVhqHpgHLLHqSJxmXiOf6iUVqEkeTxTIlFlQ3sNZ2hjL0N1qiQ"
  },
  {
    "lat": 43.6328,
    "lon": 3.915603,
    "name": "Arrêt Centurions",
    "url": "https://lh3.googleusercontent.com/5wLrpiKA3QOiZfNWjO03sEgA5xA6X74wNOkGoPdKATcEG98-ZCUzOO5zM8BXj52e2-LFbezVX_YhHFd97vo_R7pbIgxemUHclDpXuCs"
  },
  {
    "lat": 43.631405,
    "lon": 3.908969,
    "name": "Station De Tramway La Galine",
    "url": "https://lh3.googleusercontent.com/9MV2SqBQEZUPuTlpdX0wczZ0woqdneZgrBsJnNIPyT97JNGazdtGgSQTpGyqvY9uRjmWsshoHB1NLZLfxKEvDGnODI8"
  },
  {
    "lat": 43.63211,
    "lon": 3.907677,
    "name": "Jardin Des Perrières",
    "url": "https://lh3.googleusercontent.com/BdO5_hszCFhv2iyp4nrHqimRidRRN8ejP-6rsSyfxEmL2adZv7y89ScGf9Gu1c6LVR1ga2q8-tCdFlpvY53b6K2pCSk"
  },
  {
    "lat": 43.634327,
    "lon": 3.906818,
    "name": "Halle de Sport de Castelnau",
    "url": "https://lh3.googleusercontent.com/gPSBTCY8cUeFUg3-o7qc6F6gi3OmSHndBEyCAu2NVRiKDH01WpJsWw9c_B7j5L4u1wcvsFMQWfklP1ZUl7ESpziscgQ-2nSS8jTdU8E"
  },
  {
    "lat": 43.638367,
    "lon": 3.914476,
    "name": "Le Tchoutchou En Bois",
    "url": "https://lh3.googleusercontent.com/PUG9PfUdTBmzcpXp-nRt-ljC8XganMZ_Gyr5zc-5p2YbxOrN-MMfZMtj-o8EG00VyztlFy2oNCxI8n3tWw-EZGv3ofM"
  },
  {
    "lat": 43.638744,
    "lon": 3.914216,
    "name": "Grand Parc Laporte",
    "url": "https://lh3.googleusercontent.com/Qyz3k2jsLykmbFZ2NLKwv5_cS-XIbOhBabd4S35130U1DIrXZ6LmE4vvYtzk92JWqXNAiNdmdlNCTGJ7pgH-A3R15g"
  },
  {
    "lat": 43.645397,
    "lon": 3.913829,
    "name": "Graffiti Du Futur",
    "url": "https://lh3.googleusercontent.com/1RUQlpjhh-VxfLzWQKFhbszLFNt8-fT16VOmRqhX71wIYeK1oz2A6HlgZJJsLqvK6w9pa3PsOLpiPFqmY0CHPaLhcDQ"
  },
  {
    "lat": 43.644928,
    "lon": 3.913519,
    "name": "Graffiti Basket Castelnau",
    "url": "https://lh3.googleusercontent.com/6yhIXJFfRmrFdQ_QGicGN-vo2HLcg2FxXprUmg6dHOaFWZakaqMPqTCg5Jr5PjOAOkarDrCC03zpcMYPLVtjoFuT9jc"
  },
  {
    "lat": 43.64379,
    "lon": 3.817632,
    "name": "Château d\u0027Eau Massane",
    "url": "https://lh3.googleusercontent.com/hNAhs3Ss2FUiju7toGWpqm5EQu-v7UnMrwqUpnKlhA7zJR2Vcy3IvA4Tn0Wr_CGxgi6ci1ldsxMfe5awHORz26zTbTDJ"
  },
  {
    "lat": 43.649178,
    "lon": 3.810714,
    "name": "Aire de jeux pour enfants",
    "url": "https://lh3.googleusercontent.com/upsjdYPD4kn8dkAPSnSRt7l8m0A7UDfP1ATgGp7Q-Z2QXCQ6I-H6LRLBq46hkVELXT4FujwxK6HztXY3msT62aISpcw"
  },
  {
    "lat": 43.639072,
    "lon": 3.813181,
    "name": "Parc Georges Brassens",
    "url": "https://lh3.googleusercontent.com/1d_qrZ5jKw3D0n4yoCUMDtkonw5KjCp3F4E9FtUgf426RZNRfnpZDNyciYrK26np5GgW6veFMdA3sXiAWLKlPhmG0GBrXVbvPVR4J3Q"
  },
  {
    "lat": 43.63299,
    "lon": 3.819701,
    "name": "Mediatheque Jean Jacques rousseau",
    "url": "https://lh3.googleusercontent.com/j4oZS6NBAZ2fG9CsGPPxW4bAAR5QbeUXq4W3garsh2kgtHkRsOQesERTIgLMPQ9GWyUVsKElQE0V21ShdnDqoRsGeQ"
  },
  {
    "lat": 43.63198,
    "lon": 3.818948,
    "name": "Église Évangélique De Pentecôte",
    "url": "https://lh3.googleusercontent.com/sjPxX3--jL84t3yXDOUrlH9At2hAR3drP1lastouWrcCa7AjTyuzfuH4_hgMu6SPd4KWlGZQ_KMRktRRyz_7ynchHA"
  },
  {
    "lat": 43.639084,
    "lon": 3.817024,
    "name": "Cade",
    "url": "https://lh3.googleusercontent.com/aTyM-Xq64vb6NC8ljeB0ONq0Os6gg-zsX8KIjHcq5-yomXSZZhOJqZZ8-Itc1D9vijhqdGpYJzeJNx9lJHfUayYNlAv_xOEV3lg2xNs"
  },
  {
    "lat": 43.63917,
    "lon": 3.81643,
    "name": "Tamaris",
    "url": "https://lh3.googleusercontent.com/ZK5_SJm46bC3jCtSZR26sBNthZ1_1JLjNdWOSqu-pzlrB1x74ZI8-qgrU8NwQIJyfgnT-J7b8wnI2azAGXNIUlbCDrBVi4OKeXK0iHv_"
  },
  {
    "lat": 43.63768,
    "lon": 3.817241,
    "name": "Parcours d’orientation du lac des guarrigues",
    "url": "https://lh3.googleusercontent.com/zlVF1Tsu0jVmr1hEmPjUIZ5z6VXIsy5Qva8IdxjeCCl2dInkU2J9fWY0QFMRNvS3gWYGPA6slmhVyuSCVS-Wube13w"
  },
  {
    "lat": 43.63636,
    "lon": 3.823755,
    "name": "Faculté D’odontologie",
    "url": "https://lh3.googleusercontent.com/pNLQDwvvN9Zj6hvyYgS-t8txT4x9k-ER2YuF5-_PUf8z2Y3n6nZSvRl108w_wuV69Lac2oao987EVDZuFudR2bp0Sg"
  },
  {
    "lat": 43.63264,
    "lon": 3.82046,
    "name": "Gymnase Jean Bouin",
    "url": "https://lh3.googleusercontent.com/AhytIOhtxXn5eZ8Z3m2pGgwwDruaVwCavsO1Sw2ic2EraCf5Ok7M53oWX12oAyGERj-cSrtrUNdTQuNBSxKFXNSgcmc"
  },
  {
    "lat": 43.63187,
    "lon": 3.820547,
    "name": "La Poste - Montpellier La Paillade",
    "url": "https://lh3.googleusercontent.com/8cEzNK9FKWwlXaAjquGpw4FeZSXpH_i6tEZW3x24KEcKdC4JCgjwyPO7Pzut_eIKmCwxMr4kb--lRx9_boC7DeMQ9Rk"
  },
  {
    "lat": 43.626823,
    "lon": 3.821281,
    "name": "Fresque De La Mosson",
    "url": "https://lh3.googleusercontent.com/8jtD0yQ1NymFD3CZsq9Y4FBtftRwQP4QhW2lIn2eyV-Ax8coklbKj3yXwcpZJqEUF1l0Bvc8LdsjNpb0Dy3IeHMC5Q"
  },
  {
    "lat": 43.63045,
    "lon": 3.821798,
    "name": "Mur Trompe L\u0027oeil",
    "url": "https://lh3.googleusercontent.com/T5j20G13IGA4TbUnlxjukyXS9qz1dQpsTRWcjbNTTQpqcpS1ACfufnKFlFBppSW_mX3cuZAk9K87fYWFc8h7VXJLVXGC"
  },
  {
    "lat": 43.62713,
    "lon": 3.817331,
    "name": "Kiosque de la Mosson",
    "url": "https://lh3.googleusercontent.com/xzVmBYFzkoXh8vwriWqXvRazui-yVnq9emW1KOCWgEK_0XQx5g8bKTai4SgDPq6XIPpGLkATcqbkwJxfs9UEXAC3Gg"
  },
  {
    "lat": 43.62848,
    "lon": 3.817823,
    "name": "Boulodrome de l\u0027Hortus",
    "url": "https://lh3.googleusercontent.com/6V00WtATdO86arSLRDVzOvNuDtWlg2lgM78j2X-kR2I5mNYXo6W88FJgviZa8_zcnFXfiW8rNoUtITD0GOke1ceBaCWR"
  },
  {
    "lat": 43.625477,
    "lon": 3.816757,
    "name": "Aire de jeux pour enfant",
    "url": "https://lh3.googleusercontent.com/hXvfU-NEdRKsPypUv_kX_H-B6FssV6mKc_8OwN61QqelKBChwnLkaE6xOin24ejB5fKZSW7F22qh7wqsEr4F72V4DQ"
  },
  {
    "lat": 43.624474,
    "lon": 3.818033,
    "name": "L\u0027île aux familles",
    "url": "https://lh3.googleusercontent.com/H4Cm52yTtzrWl43ohn2BuBb7cCYGDSdz1WzLY8kRHiH4XALNmkQy6YaAtcPG0WaJJjyuNCEFOdMjh8gHiOd4II0Jz4Wt"
  },
  {
    "lat": 43.6239,
    "lon": 3.823276,
    "name": "Archive De Montpellier",
    "url": "https://lh3.googleusercontent.com/n6vrqaNJO9c-E3kHfrBibcxYflS9T_xgvIcFebMcSUeSqR6_XvNuUT3I0rhCqILEOg8LL3Gk2oBHVG0kh7NgEKj3xg"
  },
  {
    "lat": 43.6245,
    "lon": 3.822761,
    "name": "Jets au sol de Pierresvives",
    "url": "https://lh3.googleusercontent.com/Q3lkzHbOdfUm7R5O_JwyRAAxv45ATALPw0STSxVyJZmwS2fZ_ARc_xV8Zk3aRp7iXBKauHXCW4M2C45h29V1AKBoaKU"
  },
  {
    "lat": 43.61726,
    "lon": 3.822633,
    "name": "TOTEM ÉTOILE",
    "url": "https://lh3.googleusercontent.com/LoSVHh30V9D2JZxV9qs9Q6M8_837W3Pbz68qwdlaIJ1P4KBywSETYZ562NAp18ZF_lzcSoTgYrwqPZnbAbyx7_HfDe-G"
  },
  {
    "lat": 43.61436,
    "lon": 3.822428,
    "name": "City stade Louis LE VAU",
    "url": "https://lh3.googleusercontent.com/0W5ypYkSPkmV3H2GYHzavZZWwZ2L5tyCJ2_pfuAgfSw4oBlXOQueLF6LkJUHYWOQx8f_zs7HxjxWKPOVMxUFfYyeHaU"
  },
  {
    "lat": 43.61628,
    "lon": 3.819646,
    "name": "Arrêt Tram Mosson",
    "url": "https://lh3.googleusercontent.com/JXrUUoV2oS55ouNNt-oWtgWfqV6CrcVzw1I0fDDbg8ddtf_5iViSD9ONkXRfoKRUl2j_GkTBuyV7IUOct3g3LjWuj-Y"
  },
  {
    "lat": 43.614605,
    "lon": 3.817029,
    "name": "Pont Romain",
    "url": "https://lh3.googleusercontent.com/EHxy4aqpsg1zck9t9atmf2mLqvCU_g1I114HzUN6ydHffN2NsiGGr_GWj_L_EwvQFZvzfZVlKZsN8mGyAft20e3j5s4"
  },
  {
    "lat": 43.620224,
    "lon": 3.818134,
    "name": "Constellation Humaine",
    "url": "https://lh3.googleusercontent.com/KHLX9MYAh0pNeWuwE3PbXZO6uL-RdPAizuW7TMsIo7-hDw_YLtdMOCULuD_KAr64V2XpuSgjN072wLi0CwFKoLrKj6E"
  },
  {
    "lat": 43.620777,
    "lon": 3.815315,
    "name": "Mtp Nord Aire De Jeux N Enfants",
    "url": "https://lh3.googleusercontent.com/PrzDAsQdh4vdEkAKDAITi8EaV7XSmywR4QBN7bSs2gMfmInaHsMVB9Z1zB5WHPBb0AqYmUL1sf_MPg7LyUZBO3IQr6-X"
  },
  {
    "lat": 43.617455,
    "lon": 3.809976,
    "name": "Terminus Tram Juvignac L3",
    "url": "https://lh3.googleusercontent.com/IiT6vsQ3qPeMABgle6wzb8rQOwq3HvanJtZTunFGFB3_HUJbZIv7pG__ozEjOzeazOtEZDdUCAruZFdm6tVK-l5ZJgA"
  },
  {
    "lat": 43.612957,
    "lon": 3.813138,
    "name": "Licorne parc",
    "url": "https://lh3.googleusercontent.com/fBkwqipZCswZGw47PJVmdJFXGr2gb9dOyZLa9El2OcKoSnUWtmXCAA3AESLjFvRpzltu_yjDN8VINm38pny-eWAXjZE"
  },
  {
    "lat": 43.613873,
    "lon": 3.812483,
    "name": "Square Maréchal De Lattre De Tassigny",
    "url": "https://lh3.googleusercontent.com/WeVwni0q9uxGvpAEbViTfnak_sHVKi7-L9OdMSBU8PQbMuxe5JVNtxDY3tNBkP5VytMhMp89jyRdaqYeAc5Tw1V4pu4"
  },
  {
    "lat": 43.613697,
    "lon": 3.805427,
    "name": "À Nos Enfants Morts pour la France Mémorial",
    "url": "https://lh3.googleusercontent.com/YQ2Y3SjxOJLXkzAFR2n4BqVJi7_jLti3KmRZKnOjPaSxFRZsjIYscnmqDxcme31uE93me_R2u_jNFLNnHBCeu1mauZA"
  },
  {
    "lat": 43.616673,
    "lon": 3.808626,
    "name": "Salle Des Sports Jean Moulin",
    "url": "https://lh3.googleusercontent.com/gU4YlYqG7lNrCHsLfZajeBwaJBFe0aONBdCGhxUP84IXn-f_6fKYQfK92pzI8zN3UI0QRur6_Q1Ql6LVnVgssVzyL5WS"
  },
  {
    "lat": 43.618374,
    "lon": 3.809504,
    "name": "Espace Claude Levi-strauss",
    "url": "https://lh3.googleusercontent.com/U7sOL6mA7461Tum6h3aNSMHpTVIR5ujnxuieVNEJ2Ql5ElaaeqYgsXy8pgLmT6W03OsedDZu7_8CBezwQvQv42zicw"
  },
  {
    "lat": 43.626785,
    "lon": 3.813223,
    "name": "CityStade Pailladin",
    "url": "https://lh3.googleusercontent.com/gAhZtUrk0BxwpNXYtoqEjv4ZP3DnEMi-HFk30Ohy72Clnzs1aPGNF7F7pcrt3euyakS4q4Q_kZjaMbUfI_MuIo41tYM"
  },
  {
    "lat": 43.622288,
    "lon": 3.813052,
    "name": "Montpellier - Stade de La Mosson",
    "url": "https://lh3.googleusercontent.com/yBOe_Ixjglq_J49-4qsOO2zDrxSQgYKZzxS8H2ZeaPFBgikXsHrAuyFRyGoOj5b9qonDPb_xgKg245f2uGzhc9dxB58"
  },
  {
    "lat": 43.62776,
    "lon": 3.812124,
    "name": "Chapelle Des Thermes",
    "url": "https://lh3.googleusercontent.com/5_RkOEWKqRmBMCeUyGFkX3NWybYdsj-h98mPjhFvmGTpffl5JtwJ1hDaki0TIxoxS4ZQRMIS44z8Q9KLjjc6TfyXCw"
  },
  {
    "lat": 43.628574,
    "lon": 3.802721,
    "name": "Les 3 zébulons",
    "url": "https://lh3.googleusercontent.com/2BlXVJGvlgMU1uHqVeAaiYqxxqBW7oR6ud8l-PHXTgODInFWs0AQu0DQO-eMli-zsZYc2FDVcNIlSRypvtzWPPiLh_od"
  },
  {
    "lat": 43.626015,
    "lon": 3.802894,
    "name": "Fontcaude Jeux d\u0027enfants",
    "url": "https://lh3.googleusercontent.com/f7_ROy1SbduuLRPNPoIbMkjUcYpaDjXD_mW0R2_gV01PH1EEdPmzA0XrOkZEzpPk0LDHuHxEH4UOkj1wLuBh6sHaTbY"
  },
  {
    "lat": 43.620327,
    "lon": 3.799686,
    "name": "Falaise des fourmis",
    "url": "https://lh3.googleusercontent.com/SD9AE_dnaN4e6DXS4TDC99XXSh-j7iRM_SixQ_swU6h4DuXC8m_03Metg48AmW9Iy52zn99yHcExh7hyJYPWPBKjO8U"
  },
  {
    "lat": 43.61437,
    "lon": 3.80044,
    "name": "Fontaine en demi-lune",
    "url": "https://lh3.googleusercontent.com/o4MuYUkmIsP6el0eCcvf7Eaj8cQWrd5Odo0v5Y4xPhOZ38lSYU8JG2S7DcszeQmoYCqiKX4wcZyGu5PO77AuQybSdJM"
  },
  {
    "lat": 43.61791,
    "lon": 3.795717,
    "name": "Fontcaude Vieux Tracteur",
    "url": "https://lh3.googleusercontent.com/opsvUY90-64OBJaruMWyqv7ycAUHgOAhgaWLpf3YOKlRB9CeDjhd-qA7nJObo68hskqAaQNJ-Zh7dI_qGJmwNvG4hfQ"
  },
  {
    "lat": 43.62128,
    "lon": 3.791366,
    "name": "Skatepark Juvignac",
    "url": "https://lh3.googleusercontent.com/458qeHtcssHE1svtAWZ-SWizDAfAFLQCz5fMKtFqccUQYxYT3gElTNd1xSj7qrL4PkEwKyX_8EMNDpfybcp5Lhh5xg"
  },
  {
    "lat": 43.61468,
    "lon": 3.794193,
    "name": "Panneau contre les dépôts sauvages",
    "url": "https://lh3.googleusercontent.com/kQz8lx43HjWaDBW336Mg_yramPcVphkMULrFsZDDXXm2yr59ENBMp19SpRIzdLBTJpZwxbr0tykLYiBqt_OD0VVbyl7qJJpVlb8gb9ohyg"
  },
  {
    "lat": 43.64603,
    "lon": 3.796063,
    "name": "L\u0027Olivier - Oléa Européa",
    "url": "https://lh3.googleusercontent.com/uDlpXWZglh_CueX_t4IGVQMu9BjINpTD_fv0kxOw-tSJLOO3zRNy7gmnGd7VN1t6DqzuzREmp0bor57UwbfmZD-0p7cl"
  },
  {
    "lat": 43.64646,
    "lon": 3.796327,
    "name": "Repère de crue 1971",
    "url": "https://lh3.googleusercontent.com/rT_1y89zHdIpWIbBCWIgC98-FQBgWQsbixq7V4m1T1tscXNk4JfqiMqXtVXboQdUBmA444ISgyDW-vLR__cESoC8E1wI"
  },
  {
    "lat": 43.646233,
    "lon": 3.802841,
    "name": "Terrain de boules - Grabels Saint Charles",
    "url": "https://lh3.googleusercontent.com/kvrOReyh_XljHl1XtBXkBtjm6VIDN6ajuy84bcdVyrw45et_XY1EqIBKr-28w5L_8cNz0kmLvzOqZkFGlCTT-8HIn6kZ"
  },
  {
    "lat": 43.645218,
    "lon": 3.800951,
    "name": "La Croix Perdue",
    "url": "https://lh3.googleusercontent.com/EwOznn66nwc8PEE2qW-WuUyjsyETlf09WkKIN3swj-xsFxhIuUo7rDVF7t7p-fRI1DhgrBooVJNV0NbeXghverocig"
  },
  {
    "lat": 43.64725,
    "lon": 3.802248,
    "name": "Fresque Happy Cédric",
    "url": "https://lh3.googleusercontent.com/EutCDK3kPIclhi_l7uIWrDWtrcmSIOF_mIZWiibuwFwKs8ET-Vm7QYdHqYvw5127_kKqNnC2hZgdKG9gs6AgvofV83Q"
  },
  {
    "lat": 43.64696,
    "lon": 3.800218,
    "name": "Les 14 Stations En Croix",
    "url": "https://lh3.googleusercontent.com/w42j76MXZjeVrtMjICtOt-wY9-cafYjWUrPMpqHEljvQkleqG3Irc3up0aImwJblYKWpeskCBohbt1lOtGo6Pv_IL2w"
  },
  {
    "lat": 43.647327,
    "lon": 3.797019,
    "name": "Grabels église",
    "url": "https://lh3.googleusercontent.com/SQKFYBkpYeltceolAcnvqcymmCcOiY_2ioH5bbO-BUnK4LaPEDn1r67WYqPqgFiwLYyJ3-RNCNdMiPNm6GLPmqpu7tA"
  },
  {
    "lat": 43.647,
    "lon": 3.797049,
    "name": "Grabels Mairie",
    "url": "https://lh3.googleusercontent.com/jQdD3tmhAJrGrlb52XYdAeIMB2h1tjUBHyZ5b8X76zBvUM5ODNYsBnAhJtPHumCAY5z34s4559SRng6BAYjXsi-J_XGS"
  },
  {
    "lat": 43.64955,
    "lon": 3.794226,
    "name": "Plaque du 6 mai 2015",
    "url": "https://lh3.googleusercontent.com/spCS9brbQQzvD26fNS37592lCcA3njSISFO0W9jCNAOwLGv9GmZQmi02XT9wsiRvx-73416YwDIhxvF21H4X1Bd-wDg"
  },
  {
    "lat": 43.646904,
    "lon": 3.792748,
    "name": "Sentier de découverte de la garrigue",
    "url": "https://lh3.googleusercontent.com/xQDIyuknbdt4fa-DDcXVsrrCyapmLb2y1vPanLdfIuZqd20lYKtzP-untdC_Zbpxt4Vx_OIXUUfl_w5BowubmsCqnQ"
  },
  {
    "lat": 43.646667,
    "lon": 3.792787,
    "name": "Source de l\u0027Avy",
    "url": "https://lh3.googleusercontent.com/RZPYNSt3fjVK-AV_Xw93oXW1dHUx6xLtnkwDRSy4LM0-qjUoeNmobaHDvfvW6TQGnVnS2d-1v3fZd1ZLMFHfkc5kAABf"
  },
  {
    "lat": 43.61065,
    "lon": 3.779715,
    "name": "Croix St Georges",
    "url": "https://lh3.googleusercontent.com/Pfafgc7iUqGdYPeLSR2UImGrsSP0iY6p09c1Cd6lfpuYJvnCfGGquiuwm94hpGR_bnaNKiZi0V8p3k4VBqvKzgJqIVY"
  },
  {
    "lat": 43.60973,
    "lon": 3.781192,
    "name": "Eglise Saint Georges",
    "url": "https://lh3.googleusercontent.com/vUqwtGWgtgbIveU8F9rK3ozdVShywSNcOxLK4zZ3OYK9eE4dRxfaYTcf3saIrDbK8Vj3qB_ll_e-ccoxqYD4FKQnl6A"
  },
  {
    "lat": 43.61261,
    "lon": 3.776265,
    "name": "Croix Bel Horizon",
    "url": "https://lh3.googleusercontent.com/hx5DL6Vdgv19plDUD-GIm4mnVYszGZGFPpruowIZ4wvPAvnJjFPeiGiODh3LPnjlpRGz0gZMjkv9s6FvHuana4Es6w"
  },
  {
    "lat": 43.606636,
    "lon": 3.784015,
    "name": "Cimetière de Saint-George",
    "url": "https://lh3.googleusercontent.com/90puXJ75Uhcj9aGMDQCIZjiNgeJo-UfXFE0i2l0LR-KpCbCJD9_TPlihHjt6SSTjXsBjNnTyy22eClPTTiBv5Ebkhw"
  },
  {
    "lat": 43.58385,
    "lon": 3.803903,
    "name": "Cour D\u0027honneur Du Chateau",
    "url": "https://lh3.googleusercontent.com/pxuNI8EFg_EZzn5Py5fFKNAFlPv0MWz8iO8ZcXqWPHCE8GS04T6uVN6d7v7qNU_VOCTgKaAM0J9PZV_Bwdn83BKFVQ"
  },
  {
    "lat": 43.58401,
    "lon": 3.799498,
    "name": "Stade De Football De Lavérune",
    "url": "https://lh3.googleusercontent.com/2xp7ig08Q1noRMcfece0ubjlV2bfCCFSVP59N3J2hxrcKuLcP7jEKdHC8e4BJEsLq5GsJstfCgOne1UGmR-cdSJN-A"
  },
  {
    "lat": 43.586895,
    "lon": 3.802944,
    "name": "Croix Des Aires Lavérune",
    "url": "https://lh3.googleusercontent.com/SRLQQf0dNvWXpT-ULaWY6HSbASTSIa_x23BpdabcgHjjRGtAcnxWfXqmoyRiMGMPP4scozo90b80JWHs_AHS-E9WlA"
  },
  {
    "lat": 43.586983,
    "lon": 3.80417,
    "name": "Cimetière De Lavérune",
    "url": "https://lh3.googleusercontent.com/VK_ihWPF3q9l1okVGAB0Bil1wg9ChWjXx3tMw3TJ-icgeusCFdlefpMGhbHBZm4u02NyfcgAmcHvH-bIKhewIzniRZ4"
  },
  {
    "lat": 43.60554,
    "lon": 3.785912,
    "name": "Skate Park St Georges",
    "url": "https://lh3.googleusercontent.com/jm72TmDoV5akXP9db7FlVH6j0YtWIg7RfebAE2gKNe7OsXSmFO3cBKqWkMuZBsQ6zc_he_XYnxW0kOtTqx30iwkUmw"
  },
  {
    "lat": 43.61042,
    "lon": 3.7847,
    "name": "Poste de Saint-George-dorques",
    "url": "https://lh3.googleusercontent.com/KMdRMHeo0T8z5oVNajWUmiY5QsGgAAVYgjLIybjgfnt0qzRcY0pK3xw-ZaS37u46i5dctXhqFtHztod4_PPLLWDbiQ"
  },
  {
    "lat": 43.59698,
    "lon": 3.807099,
    "name": "Chateau De L\u0027engarran",
    "url": "https://lh3.googleusercontent.com/fXy2K8bAkbSQnHE0qH7yymfw3pdvXXfJ8fChj3kj4MvIRQWuD5KUddQG8026eniP6JHlSsQK7z72cmqM9-Fjhq1lRxY"
  },
  {
    "lat": 43.594555,
    "lon": 3.814043,
    "name": "Domaine De Biar",
    "url": "https://lh3.googleusercontent.com/PZjtc7xWKq7JVeANoZ2RgTDX0hAwkIFLRRNIX9TUC0u5kFTJWAH6YviglmSOpNuX7UwjfEgxSRsDNKnlGnnID_cjaZk"
  },
  {
    "lat": 43.587498,
    "lon": 3.804934,
    "name": "Hommage Aux Laverunois",
    "url": "https://lh3.googleusercontent.com/2a7bSim8wUw8CoJIJHdrVP8lkmu7gIXUHOnbj6V2chhxoQ_B1JfiK0GS3uH1Doj111SGfH4rhvzlh466hXaChL3xldB0JECjo5IeTHbLdg"
  },
  {
    "lat": 43.580643,
    "lon": 3.812115,
    "name": "Mas Des 3 Cloches",
    "url": "https://lh3.googleusercontent.com/nXVQme3goxe6Xf0fQ69D8pPXdwti-3CZXFi1QCDqFlP36JtBMSu8DWFrA9jKGtQrV3q6H0MP3GMgmH53h68i4yeKSKg"
  },
  {
    "lat": 43.583683,
    "lon": 3.805077,
    "name": "Serpent Soigneur",
    "url": "https://lh3.googleusercontent.com/rPLGQmlGNBoGXJExUfOopbb752g7WO-Ku_3blB2iqGCigmsPC3e_bYwRDhZ5Rc4MSuqGRqF159JICPCuA-loWDWHMiQ"
  },
  {
    "lat": 43.578217,
    "lon": 3.819423,
    "name": "Tennis Club Vedasien",
    "url": "https://lh3.googleusercontent.com/fZnmhPhuqfBd5XqdW3TNKFx9nffjWbP3enL1IqCOtTXGn3JEAfHtPKLPf_CUVuClcUr3TAXs1pu3NSXog_sWFyKvvg"
  },
  {
    "lat": 43.580387,
    "lon": 3.817582,
    "name": "Stade De Rugby Saint Jean De Vedas",
    "url": "https://lh3.googleusercontent.com/v0hzRdulsMozAiCNlrnvbMVm5czK6urnRzAMmHaJK1XSBJbsLDIGmJMdyUHSQDv0uMNOZgUr_CXZDVZDoDhS_JEGdSM"
  },
  {
    "lat": 43.57955,
    "lon": 3.817205,
    "name": "Club Taurin",
    "url": "https://lh3.googleusercontent.com/e4CRRY-NMefqoeBktCE9W7G3B6pEJ3Nstgd4I71q4amZO5x5JUuGy2I4-aOeTrZR24YXcCSk0LhbbgoHCxqr029qSQ"
  },
  {
    "lat": 43.578896,
    "lon": 3.823777,
    "name": "Tag Soleil",
    "url": "https://lh3.googleusercontent.com/dV1e9Qx4sz9syecJadULqfZ8uWxnGHHqsA_mmvau23ZzoBmU8JddcGhs3V6MCpUMiObxHwgXRDbE9R-pmcd0WN0l8w"
  },
  {
    "lat": 43.57721,
    "lon": 3.819759,
    "name": "Skate Park Saint Jean De Védas",
    "url": "https://lh3.googleusercontent.com/1vn2Au88IiwN-83y_kseI6Cli4RGKl-dWPeOFLk9ciBN5-2YlqYEbJO7mCGovLDSrApgF0eSVydC5_svFn4PyD60xQ"
  },
  {
    "lat": 43.576378,
    "lon": 3.824046,
    "name": "Mediathèque Jules Verne",
    "url": "https://lh3.googleusercontent.com/h-5pHXkMq9AuRV58Q76xqgrRD4VBW6DLqZXFgAdpvlVub8ajqHqj_jDWO0YZF1SDhufZJWp2JxP6T1QaEXWIMlX8Rng"
  },
  {
    "lat": 43.57729,
    "lon": 3.826667,
    "name": "Memorial Aux Enfants Morts Pour La France",
    "url": "https://lh3.googleusercontent.com/WV-_q5EdOUlRwup1BFU73wIstXayuC3mdJ1SExi6Ej_rKgiuBCO_SzRYLxhK6fT8-BwOIgFk1TD8A12JY9w94GtTODc"
  },
  {
    "lat": 43.576252,
    "lon": 3.828645,
    "name": "Croix De Jésus",
    "url": "https://lh3.googleusercontent.com/6aCl9aY79RG0Y3T6WjW-SOv3CxoUGRtqMZ7-JXNGwjgiMZtPLzU4geDLWStW3Xs3IlWV3cADF9Te-kQfh8DSq6GUy7w"
  },
  {
    "lat": 43.57577,
    "lon": 3.826838,
    "name": "Mairie Saint Jean De Védas",
    "url": "https://lh3.googleusercontent.com/qKuOoXBXjqZEuPgKtH1jFsBwSeWzOyADSosAPXnfpC09D0L3EEeo-SS7t3G9__izy8DMtuUPkkevHzG6VzNsUh5pEg"
  },
  {
    "lat": 43.57486,
    "lon": 3.830763,
    "name": "Arret Saint Jean De Vedas Centre",
    "url": "https://lh3.googleusercontent.com/Dip-XnVqxvSW0S0h6DmgmhBb4I4Z6k9Ev0yNnPG76pFuzbdhHCyBVp7liL0xzJKIUErQFlrPy9uHSSjqu5OncJz5_w"
  },
  {
    "lat": 43.577778,
    "lon": 3.83001,
    "name": "Cimetière de Saint-Jean-de-Védas",
    "url": "https://lh3.googleusercontent.com/ZlIb5mnM7QVh-NIsKzcD31c_vgyNA4B-3Emt11HV0bD61Wd6Cf_HbNwgkvYZRD8qzAEU1HViLg8ewbbm3rWd6likt2s"
  },
  {
    "lat": 43.584698,
    "lon": 3.829569,
    "name": "La Dame Au Papillon",
    "url": "https://lh3.googleusercontent.com/HXxvLWlw-wv2UXdU1pMbQsE7ylY0ywzg4iwJjbzL9YEOpAnQYuHMFPca6zs6i3XBCijxV9nWS7MTaH7Swto3Gi5hlw"
  },
  {
    "lat": 43.585712,
    "lon": 3.827422,
    "name": "Arbre Inverse",
    "url": "https://lh3.googleusercontent.com/tQsKdVLhT04CrxrsO7ngjtZysUBnSvm2O5_mLKAA7n85zF5Cnu3sdvIsld1KjUNI8Qi4BbK_ay2G_fGdD8yB5ddYAFE"
  },
  {
    "lat": 43.58495,
    "lon": 3.829955,
    "name": "Sculpture Meule",
    "url": "https://lh3.googleusercontent.com/T2KwXVORWUS6EqfhagRN-H1Cn9tmfvUDaKJrbHgaSeGpX-0XbKeytWBIek58jks6sXdHOKqx0ZknKOVB9-cbZR4n08k"
  },
  {
    "lat": 43.588535,
    "lon": 3.843726,
    "name": "La tour du Rieucoulon",
    "url": "https://lh3.googleusercontent.com/KbFB_dBvJZJatYFwBsl61HXNHcjAMDdBY-sC6vHPmGg5an4JWOh0d6d-CSBr3pRBs1o9H6ClpYM0q1bcVun-DlOI5eM_-z48i5JyCNIK"
  },
  {
    "lat": 43.59094,
    "lon": 3.844065,
    "name": "Le Mas Africain",
    "url": "https://lh3.googleusercontent.com/65RGnisA_ioeRu5GBsz_2R7bBrzW07ZVz9VYQZA7RN-lMo3NSX9LbI4wgL5dR4MpCNRf7dZAzt7xaDx-8cPBsYx1i_w"
  },
  {
    "lat": 43.582363,
    "lon": 3.837205,
    "name": "Stade De Foot Saint Jean De Védas",
    "url": "https://lh3.googleusercontent.com/nRul1j92D1moIXa_3jasUnfJK6DFZfkp1Ano_NOUEWmfEk6yHofgpS1fzYeyGGmVx6KbSWaS33cnhrYXUQVDQmS2fw"
  },
  {
    "lat": 43.5781,
    "lon": 3.835465,
    "name": "O Crux Ave",
    "url": "https://lh3.googleusercontent.com/m1Po_HcMGWjNilJZmWjb_AQN-mfCeOzmI7sy_9WJFiJ1j4I6tMFnwCLCKzEXuiJ4ShL49BXYsBcSSCelGdIMqj_hqfpc"
  },
  {
    "lat": 43.57374,
    "lon": 3.8371,
    "name": "Théâtre Parc De La Peyriere",
    "url": "https://lh3.googleusercontent.com/qJ648Soq2o8aKgsBFGq261UKxDlrNbet1_iwpeefQB29YuY6YTIihZhpueoHbizpxHqkN0-E82u-iQ7IjHgG2ZJ7FPI"
  },
  {
    "lat": 43.575146,
    "lon": 3.849643,
    "name": "Station Victoire 2",
    "url": "https://lh3.googleusercontent.com/GqKmyMP1of_oVvXlLCPN_JqFglxYKsegb-V4PqlyRpow3VhmT_Q9VFtUsmH3ZWCIJvPFECi5_0DqboK0D95uDgJ3ink"
  },
  {
    "lat": 43.58216,
    "lon": 3.854285,
    "name": "Ancienne Fontaine",
    "url": "https://lh3.googleusercontent.com/fOnBvbwKp7RtLwvffZwiH4VJ8NX0EDXaD2em9hCbxSo4w808CGd1pRAfXJGb-DjLRynCiFS6O2VOlHM5hEEtv5JV5eAs"
  },
  {
    "lat": 43.57375,
    "lon": 3.85319,
    "name": "Victoire 2",
    "url": "https://lh3.googleusercontent.com/JI3OutFEhLW-AaBiqQeQutwW_CAEHbIXcBsBQlim7DvZAKRNnK8u-3kPu3V03dFEBTpA9hWX94VWUTfwwD5flfyQqgb2"
  },
  {
    "lat": 43.573673,
    "lon": 3.861818,
    "name": "Business Park Garosud",
    "url": "https://lh3.googleusercontent.com/m9rpY6aZDvOlT0L6LiEWOy4hX1WdjMMmn8w6iMXLIRxNlCwcjofu7U42Sbcyo8l16EmGzPU1gL5RqUuIw3dYplDkfd2nPkuJfus0dJCDDA"
  },
  {
    "lat": 43.58173,
    "lon": 3.862548,
    "name": "DRAAF Occitanie",
    "url": "https://lh3.googleusercontent.com/HvQ4Via6qKHZybWg0IDcduXCC-Pyl81R1pajzo6TG3Z8IRS4woRdH-ar22bB9vbtDF6VUS_UmdLB2CU6bSp0avfZyco"
  },
  {
    "lat": 43.58156,
    "lon": 3.859842,
    "name": "L\u0027Escalier lui va si bien",
    "url": "https://lh3.googleusercontent.com/EXj-r3klRUT7B1oTg2oRT6TqwOM3eJYdhYIrhMM7HoJJ9YDjr153GCfpvcTU3eSXuUxlm1Hz520oLaDnzamsb3_S2zw"
  },
  {
    "lat": 43.579823,
    "lon": 3.859815,
    "name": "Parc Saint André",
    "url": "https://lh3.googleusercontent.com/h_KTYlcMzThh62qhuLY0QIsNZDrMRq2WhvQ8A4ipwSJ4zxAs4_B7QMpSUOawbp8q__9PUec6w00psUIKIBfcNdZXCQ"
  },
  {
    "lat": 43.583454,
    "lon": 3.8588,
    "name": "Aire De Jeu Rouge Et Verte",
    "url": "https://lh3.googleusercontent.com/LEnSpQiB7_dm5BKi2yq13pvxCMe-2qfOo8T1cmXbShGEvV-V79gk1oqcZZtiMMQUOiEPIJPBWlw3NfgauPRNA9Gruvk"
  },
  {
    "lat": 43.58376,
    "lon": 3.860049,
    "name": "Station Sabines",
    "url": "https://lh3.googleusercontent.com/shYyJZVWGFk73WViBjEHj1I10gGXe956kXqSaMDIp_d-8OImBgpbn8SOga26v3PqFgIzYkCOqc9ihWLN7JC_71CKdg"
  },
  {
    "lat": 43.58335,
    "lon": 3.860795,
    "name": "Graffiti Fleuri",
    "url": "https://lh3.googleusercontent.com/WNpvqgQxl7EwktMTDqC2GG9tFTRUWeqYJRIOZDjddApk2f37hsUCWq6DXdlhSOZg45bady4hoE0j_qCnOe-DQBW3hmA"
  },
  {
    "lat": 43.58886,
    "lon": 3.863956,
    "name": "Tag Fournil D\u0027argent",
    "url": "https://lh3.googleusercontent.com/a6mYDilTOsI0p3mSBEEl8bjBTvVteCqiROHignw7AGP5432jHu4vNB1SMd9-EpCGYD9Pf8J7rR_DrBVbXstJjWSq4otR49jrNBcVPNk"
  },
  {
    "lat": 43.591076,
    "lon": 3.853628,
    "name": "Chateau d\u0027eau du grand M",
    "url": "https://lh3.googleusercontent.com/jdRllfcSwAxBLsTHWCffTTt4eTC469GmmCZi0C1G391Z6ZQLuCklDptEX-LXMHick1_7GKOugV6PZCFpH1uoVmO1470t"
  },
  {
    "lat": 43.58789,
    "lon": 3.853399,
    "name": "Fontaine Ovalie",
    "url": "https://lh3.googleusercontent.com/l4Q6h4MHyFGbPnIiHPSP8JgFS6coU7UsNcp2YWBc5xsIQt4-CV_jJtISnE-qtBv1w56FG-StzFM5PrvN26Z2Z-yt0Uc"
  },
  {
    "lat": 43.58279,
    "lon": 3.854238,
    "name": "Château du Puits",
    "url": "https://lh3.googleusercontent.com/K29NHGE0WfrrxDd0uU6v9AM2QTRrH1euESFDH09hi5il5ZEM_v94Oa6vIpKxW9t3tOOMnMrSXbsHUskWeJYA3FkwfxE"
  },
  {
    "lat": 43.582497,
    "lon": 3.853811,
    "name": "Les Grisettes, puits du Domaine du Grand Puy",
    "url": "https://lh3.googleusercontent.com/CGGsbuGV4Ix-AjSJT7MPcriBmJ-KOe73Kb2YOsq9nX-RW8tsBoYnJCYn5dtBGTZr-J6j2-Fg9-Eadiya0f_3GP0_VQ"
  },
  {
    "lat": 43.589684,
    "lon": 3.846707,
    "name": "Eolienne Ovalie",
    "url": "https://lh3.googleusercontent.com/IW5Qb9imZ5jKigeHqpSlKxcNFw2BLAGgTf3TLqcIf-gdanjYzmocWiTlcyB0ytW3GceP6x_uMHATvheoPyg_De6xvbU"
  },
  {
    "lat": 43.589832,
    "lon": 3.846341,
    "name": "Mtp Ovalie Aire De Jeux Verte",
    "url": "https://lh3.googleusercontent.com/c-7YudR4uj-mhs3qYLWb0QJ9VRAD6UBXsTRMkMgd2PsdEBxJky11bHOMtxqjFlN6ALGfSfrkyGqN415wM_ObBKMN30YV"
  },
  {
    "lat": 43.595085,
    "lon": 3.846014,
    "name": "Fontaine Géométrie Parc",
    "url": "https://lh3.googleusercontent.com/jFVV2cEaVFq8PY7bbS5sS7Vorhtk6SzPLbEwNIc3L4xBE6yuGwGJJLKcXwCIxPWQa1F_AxAfytsXso6oXvvhgRIsmw"
  },
  {
    "lat": 43.60138,
    "lon": 3.849115,
    "name": "Kiosque Charles Maurizi",
    "url": "https://lh3.googleusercontent.com/k91sUqwhKs4aSMkt-ADnUSDGYB8EcUegQshL6oMhq689tiJe7u_EYyzv-80NDWA3IAbRShN0dR1zE7d_9j-wlM2cvdx6"
  },
  {
    "lat": 43.60136,
    "lon": 3.850172,
    "name": "Maison Pour Tous Marcel Pagnol",
    "url": "https://lh3.googleusercontent.com/ARgHefaqU5vCy1QmZ3FDQRr2uF9qaGkjCOf4sJyXmuf44S1Qqti2yWPYXfmsHlcrYOlcWod5W-K_9vflQM-3rSv1aw"
  },
  {
    "lat": 43.599487,
    "lon": 3.850378,
    "name": "La Tour",
    "url": "https://lh3.googleusercontent.com/pHF0tGbBfvA1Wmut7aylPd6S698A_rdeSnidLr3DggPV35QCLXUHHaTPjpbhMUKY_PXjKrXe_PUvWN9Q_pn4RSjE49U"
  },
  {
    "lat": 43.593346,
    "lon": 3.850381,
    "name": "Septeo stadium",
    "url": "https://lh3.googleusercontent.com/THJHwOlCoXTShRlkNOrlM5avT0pk8oTu7k8JPUbR62vaAc1yrPj0v4hMgqYodBSZkccctsvIBznssQZe_0NEPAv3KfaA"
  },
  {
    "lat": 43.592274,
    "lon": 3.850556,
    "name": "Stade Yves du Manoir",
    "url": "https://lh3.googleusercontent.com/7Gli2gAokMkrdEPFk3d2VnjgFAaPz8dB4vr6XlWlI1uVOrB-YmxgtJDzRkhXo8uRLTANKgrRHOaGmQePbeBoE3iTS-0p"
  },
  {
    "lat": 43.5936,
    "lon": 3.860166,
    "name": "Espace Arc En Ciel",
    "url": "https://lh3.googleusercontent.com/fqELg4Hy-rxOzy8vujwRtZB4FozWRfSA3oEqVNIxMXZlrgeIkhfByEMybSvox8sIm_MZwRisdwPWGCTujE6L1VMqIQo"
  },
  {
    "lat": 43.592213,
    "lon": 3.858323,
    "name": "Tag de la Boulangerie",
    "url": "https://lh3.googleusercontent.com/WhGgDOZBfMs-BWU4GHOUTzdoSkrXr6X-vQG4987EAKgYC60njgfGJpDs_s7wWQeJaDxk5OpRZFeIlQh4jP7EPBkYna4"
  },
  {
    "lat": 43.596252,
    "lon": 3.865475,
    "name": "Statue Victor Hugo",
    "url": "https://lh3.googleusercontent.com/jF6JWkCzvv1p0qM3XLFveAloqbP77DlgSscu686qF8i3uaN4R1HowvQa5LCGywTXXrhD4jrfWqxJsYV7SQcm-BOp3L8"
  },
  {
    "lat": 43.594616,
    "lon": 3.862636,
    "name": "Terrain De Pétanque Croix D\u0027argent",
    "url": "https://lh3.googleusercontent.com/ZMv4TqbTVD3hzbJcEHGgcDPrLmM6T08ISL-3wbpeRztaUa0fAeBPs78SvRNzBo_VzWpXytXxdq3v0RKW0O4sdGvicR7W"
  },
  {
    "lat": 43.59665,
    "lon": 3.865283,
    "name": "Médiathèque Victor Hugo",
    "url": "https://lh3.googleusercontent.com/_Wl0h5FfFgU0rOGZCVREMRUqd1JhUHyQd7m3gBJQEZo1zgp62tMjMTSLkWf7JJQ53EZIGWXn4E5xVWmfi6WggvMbPVI"
  },
  {
    "lat": 43.597683,
    "lon": 3.863941,
    "name": "Fresque Les Chasseurs",
    "url": "https://lh3.googleusercontent.com/zs8j_a05i-luC1rYASCzydnWwCNRQRVOmsbTiId54HuHb0IXNHy4bjUaf6U-bvOKOrxJg-MwiddCrLACJvX0_MSEyg"
  },
  {
    "lat": 43.600742,
    "lon": 3.858538,
    "name": "Grosse Cabane En Bois",
    "url": "https://lh3.googleusercontent.com/DdUeIzQUp34Tzp40r9uD_MlM3RAC6ddOv-OTqGghR4uaPFZFV5gik7IVID7EPOpuFJ497BYYQrl__J4jJC-5LeFQ72ie"
  },
  {
    "lat": 43.60015,
    "lon": 3.859355,
    "name": "Parc Montcalm",
    "url": "https://lh3.googleusercontent.com/jQw232Qjp30njKcucIReBVnwZVXxuEFG1Hk6etv09cgkbuZQJtFtcg0-9pn43TgCN6NHlJ52Y4RDHW3GfqjHSioA6_c"
  },
  {
    "lat": 43.60531,
    "lon": 3.856379,
    "name": "Gymnase Jean Ramel",
    "url": "https://lh3.googleusercontent.com/_TZJuhIdecOg07aygo1y-7HZSC_16DCHQ0EpFNcuRnyFoDf4e1QDHnRdeOfdlSJF8z1UKGj5CFuTYvADm5Gw4uwbPYs"
  },
  {
    "lat": 43.605015,
    "lon": 3.857023,
    "name": "Salle De Boxe Jean Farre",
    "url": "https://lh3.googleusercontent.com/Z9TJnQgj9XUUPZ7mSuQjPA6x0TEPw_CtkXdzBwzmR5CQETqJsFK-QpISFfVSgCXoZmu5japgFsyacfqZcFpXQfYtRrTK"
  },
  {
    "lat": 43.601524,
    "lon": 3.862755,
    "name": "E.A.I",
    "url": "https://lh3.googleusercontent.com/J31VZHbHQkO0xG_gRZCxHMAiYRPbWbNVzExptQookZikWGxzMA9C2_ZfyUbXWWz5XL5aftfENEvYvS5lNjO7HnUFvKI"
  },
  {
    "lat": 43.604675,
    "lon": 3.864112,
    "name": "La Feuillade",
    "url": "https://lh3.googleusercontent.com/LenmjxVsRNZdFVj4m5ffT87I0myov1EP9xnYNdGghP0MX5hHhX1BWzptN9UBBJHVGvQodNyZBT7Sf-7UyuXss_iVlsGL"
  },
  {
    "lat": 43.609818,
    "lon": 3.862308,
    "name": "Montpellier Arceaux Basilique",
    "url": "https://lh3.googleusercontent.com/uK6GQ7WZLnkPKd2KU4-pZVTGrKVxPJmVmil7ofN4ecvMgAe1JA4WmflxKMMesEI2zI3XfoSOUOb3iPEVp3Ms45YCKNg6"
  },
  {
    "lat": 43.607754,
    "lon": 3.863866,
    "name": "Mur De Graff",
    "url": "https://lh3.googleusercontent.com/kLucAoAEiBFGjpEqknnJ6wEWSqlbPCN-T8UAyvXEd_9lve0uqDqJ_YlJqmC4nNCa0bk9DMY7AgO530W-T0qW8JJwOCe9"
  },
  {
    "lat": 43.610523,
    "lon": 3.856689,
    "name": "Stèle FFI",
    "url": "https://lh3.googleusercontent.com/8Qb5Nb6fU2X_QwoeF8MzCbquBA8YfdQCm9VBZpVTy5iWZqkRILyPPL0F4bndURtkaas_V2zcHW7ZVP9hlgQqPNwpO8oEAD8qJtJHFa5ugQ"
  },
  {
    "lat": 43.60964,
    "lon": 3.858334,
    "name": "Tour Buffel",
    "url": "https://lh3.googleusercontent.com/ZV5gWd4GXvgd6XLcmPDiqcLU2oe58nk0KKoNq5UPT9mfhsM4dOxfVQXZ8hgsxonogbDZRyI2V5Vc0U93VfC5L_cUY6A"
  },
  {
    "lat": 43.61024,
    "lon": 3.855116,
    "name": "Arrêt De Tram Astruc",
    "url": "https://lh3.googleusercontent.com/_aO7W3ezkXaNl-3Kenh7bcivj7G7SB_FY0MmDEZIjNe0x-tYmf-48HkZZhgj_djwNUID_bWy6JNJqdfnK8akgGf2B8Ex"
  },
  {
    "lat": 43.605145,
    "lon": 3.852093,
    "name": "Les Cœurs Cachés",
    "url": "https://lh3.googleusercontent.com/gRgKWjuXaEyyQdVY1fd3x5CnEK7LKyH_nsBHihc0u_-pwlsVztS0ZBNwQXR5slvdUk3dFzxn9kdfHhbUKI3Aebwd2yg"
  },
  {
    "lat": 43.611294,
    "lon": 3.846756,
    "name": "Arrêt de tramway Jules Guesde",
    "url": "https://lh3.googleusercontent.com/sSFnGsRwle8C8gTHHqiJtkSIolaySexvPayAv-Uc9Txf9tqKT-H0JIloP5BZzMgv6MbXH_D85ARiKgpcUBTk-N_0zw"
  },
  {
    "lat": 43.608257,
    "lon": 3.840088,
    "name": "Square François Dezeuze",
    "url": "https://lh3.googleusercontent.com/hRuEX_aDzGhLRSL3y68Qh5Sn1n92v09UMQTjL5F61ltobHM0nreZVx9ATfdVLqfh2X1gIWWf8CHAHuxVjuoSME8qpVUEz-g0TTQoAwVBKw"
  },
  {
    "lat": 43.611233,
    "lon": 3.839834,
    "name": "Nichoirs",
    "url": "https://lh3.googleusercontent.com/34MwYHqS-foqw7LZqx5tMUDkFZC5L90nMHlts2yxiJHvhStCkF21uP7aRMNlE15KIH-dg-pMCqL6zdFxD89hxMmqvaE"
  },
  {
    "lat": 43.604694,
    "lon": 3.841376,
    "name": "Aire De Jeux Pour Enfants",
    "url": "https://lh3.googleusercontent.com/iOnI_qHtGTJt3rKD9bRHVMEqxpAyDYlWiiK1Baj8jDjxAPlCnbTJtkK-su3M-YchPTeOiPrs2jpR_rR9qKZS4jEOYVk"
  },
  {
    "lat": 43.60451,
    "lon": 3.8416,
    "name": "Parc Petit Bois De La Colline",
    "url": "https://lh3.googleusercontent.com/Vw_yWrVKSdU3fPK9Tyarl7slRhEnu7KX2r1Wf4SajHK9ROoGMoeJOt_dYCTRjkp-t2hrIuEinHYjWFk4L4q0-ONba68"
  },
  {
    "lat": 43.59805,
    "lon": 3.844047,
    "name": "R.I.P Docteur Salt",
    "url": "https://lh3.googleusercontent.com/lPPwSjxUPi8Jll5aACi5wOf6Hb8pWj-FXzNG_IVUVSCf-32cOVdpnaNcd5SWhR75-aPqefKdWH6zUov2REaH7NfNjQ"
  },
  {
    "lat": 43.59848,
    "lon": 3.843309,
    "name": "Piscine Municipale Spilliaert",
    "url": "https://lh3.googleusercontent.com/-4mlRBkDO2QP41DGeBd-AWHpbHzfwCkGR__XTLqIuQe7co8jbrETb7zEFiG_1ttnyPBvdfEu2wyTHjKgXdkB-KY_ZfyH"
  },
  {
    "lat": 43.594826,
    "lon": 3.845153,
    "name": "Terrain Multisports Bagatelle",
    "url": "https://lh3.googleusercontent.com/H_mx2sgpNsTeOED5bBTSi_ZELHzKKEEjTl7xuLdKe4pZW7s66ZBz7MdnPm5pURB8AmPC9rIp_jS5FowOQ_wf0uJ2mqA"
  },
  {
    "lat": 43.594234,
    "lon": 3.838337,
    "name": "Pagode Vat Xieng-Thong",
    "url": "https://lh3.googleusercontent.com/X6QuLl5qpYty7R3IYqNyLqmjHClkuzR8G2Tq23pCvpLiVdgYS4MhDGuly4x3OEXzccjN2NSsdtSLR0HMWrH0zgC94d-0"
  },
  {
    "lat": 43.592766,
    "lon": 3.838591,
    "name": "Eolienne Du Rieucoulon",
    "url": "https://lh3.googleusercontent.com/q5EdGAYXevSvp9jYCK1ZQhbw23PtHJh_tE9zK_GSB5t_3KefI9m5Szw0XBrtKYUGJdrHho-wFika8sverJWk3Rd86pCi"
  },
  {
    "lat": 43.599262,
    "lon": 3.835065,
    "name": "Plaque Antonio Machado",
    "url": "https://lh3.googleusercontent.com/-9J4GF0RPdY_SOEmuBIdZGJrxRQsNOFd6aWqWCfbU5T565nRdexjOcNQwcNxIja_NY4IzBFCE9zF7UscH5dvmZ0hUGA"
  },
  {
    "lat": 43.597816,
    "lon": 3.830303,
    "name": "Fontaine de Fontcolombe",
    "url": "https://lh3.googleusercontent.com/Ne18g_iP9hU-6eqQMkfs8XlmX0v1OCuEry6kWy1tGfmna_qFPlyF2dSZJ01rTPz-e7iwDPHM015RmjVigRxIONeewr4z"
  },
  {
    "lat": 43.59983,
    "lon": 3.83134,
    "name": "La Bulle Bleue",
    "url": "https://lh3.googleusercontent.com/W9o3ds_6HrELBUCF__tjk-L5hMAoXbNufngVtwyo0P-vNH-FVUm3TUIOQlpMa_Fr7Qx2HKzNjCdXYTUmx_xXX28CGJk"
  },
  {
    "lat": 43.59733,
    "lon": 3.833341,
    "name": "Graff Du Parc Jacques Roseau",
    "url": "https://lh3.googleusercontent.com/WxYJRKvQM7et0Tqe90-rwCE8J9INjzoVwVY87kxYFtujsceJrYbmfYoMFNuKanp6kEgm9VmQWAW8QpdYKPIVo3SKZA"
  },
  {
    "lat": 43.597424,
    "lon": 3.830524,
    "name": "Aire De Jeux Font Colombe",
    "url": "https://lh3.googleusercontent.com/EIWOAcQ-AVfr1cEBLJfXJ1t2WNugnMl73hKLZbWQvS4k-cbtSiOMyeOZR-Mk_ztsrwdycz3WOEMJAA9mDV5Or2iKjQ"
  },
  {
    "lat": 43.598747,
    "lon": 3.828252,
    "name": "Château Bon",
    "url": "https://lh3.googleusercontent.com/aqg5dWfK98uuLCkiUm43lc2p_8i0OE8Y5OrhIrbOgVmFiwK2QIrwfRiljqLSkujWwK6x0cQUsOy2zhVDJZ_kxDZn4XvFXktVN_bc6nWW"
  },
  {
    "lat": 43.609257,
    "lon": 3.83368,
    "name": "Fontaine des jardins de l’alhambra",
    "url": "https://lh3.googleusercontent.com/9ozQlupYsMN5VVwH4FKwrgNHB_JbyFmonE7l3RqaDtjGXJymRw3W1vgriT74cwyLFgBni9EO7JxpJHLqoNwzMO0hLzMN0AjaeD1_X60"
  },
  {
    "lat": 43.61452,
    "lon": 3.828886,
    "name": "Place Pierre Renaudel",
    "url": "https://lh3.googleusercontent.com/RuXHyZ2TOFHfnu_FR39AM8TdMSMo1Bz02e5OL4643-rHp1OAEjiEghThg4jw0g4qJqHiSzkAE7eoWydMYjAS9i81ydYV"
  },
  {
    "lat": 43.61196,
    "lon": 3.829719,
    "name": "Croix De Celleneuve",
    "url": "https://lh3.googleusercontent.com/9LbpO_MB0X0W3d4BR1nSESmPvpzWnMZZx1uVJA4H-_babXHnw5H-FDW2nY232uvDJiJXMLDQFGb2tKqV_Y4wUA29-b4"
  },
  {
    "lat": 43.617176,
    "lon": 3.827257,
    "name": "Gabriela Mistral",
    "url": "https://lh3.googleusercontent.com/wQCHiin7fe_NDBw9UUSLUtHfTAeD4ST8jZ51Agq7XO7R5tC1p4tmgliawF7u0UgWRkUFYf83JlKDpE0en2xRn3D2bw"
  },
  {
    "lat": 43.61746,
    "lon": 3.832652,
    "name": "CCAS espace Bel Juel",
    "url": "https://lh3.googleusercontent.com/UUTMiFXtVc_7n-QNqg3jwaA0UVx9BzBu-0OHYaa1_eQtXDwGjzjPqmMVP2sihK6iOSgKDQtG2OPbkMTENceRN56_5TUB"
  },
  {
    "lat": 43.613007,
    "lon": 3.830606,
    "name": "Maison Pour Tous Marie Curie",
    "url": "https://lh3.googleusercontent.com/QLsqTbrUtqjn-pasQ_Brc9Q4iaoP5dRnhN72ul6bLJwA9laFMuuOov0OQAB5A1_hY9JyGfptRjzOKvNUYn4f4WXryj4W"
  },
  {
    "lat": 43.613068,
    "lon": 3.831842,
    "name": "Celleneuve : Aire De Jeu",
    "url": "https://lh3.googleusercontent.com/ZTMZR451STbdZNt0BwWTrC6v5nJ5jFqRBxi0AAYzOPa9aGu3JlpMCqpuzkxrGrJBUyiP84T7xYYUiFIeg8DZCbmKcx0"
  },
  {
    "lat": 43.61344,
    "lon": 3.839567,
    "name": "Tram Station Tonelles L3",
    "url": "https://lh3.googleusercontent.com/SEjwDq6R_ZvvLh2s8tzSHbLXsv09n7yI-IbThHBbpxU5kpzvlVEbWpqjTA5LAUZ1TPSGu8kBk9GU0VFDwJ2SCsWSww"
  },
  {
    "lat": 43.61327,
    "lon": 3.841289,
    "name": "Château De La Piscine",
    "url": "https://lh3.googleusercontent.com/AhkSxZRpW4aUHgBGx_y2Gi5p2Cf2RBs_TFdRy-_gwHaDhFiv8uoLfoqIc33k2M-7aeAzqXVQ-fZwcih_8PjFe7UfmwI"
  },
  {
    "lat": 43.617146,
    "lon": 3.840166,
    "name": "Rock\u0027n Style",
    "url": "https://lh3.googleusercontent.com/IZV5ekGYTqT2qy6JOtq54NzpatvkxZdnkrEio0RIkRRoBQZGGFNL-9ipdWpC0FmzmJa1fZvMlC0pXEF9kYA8OKorjiVbqDF9QzY_Ygn_"
  },
  {
    "lat": 43.617855,
    "lon": 3.844634,
    "name": "La Poste St Clément",
    "url": "https://lh3.googleusercontent.com/-tq2ek2IPDq1MsWIY_7ZUi3WLITrkKeqXDcpSXq68aawoLz7VF9TpwO6m6aDRD8Wz30hmYhX94c1ujt5Nn4b5GyGWwY"
  },
  {
    "lat": 43.61715,
    "lon": 3.838194,
    "name": "Aire de jeux Pergola Petit-Bard",
    "url": "https://lh3.googleusercontent.com/tJgEO0QC6bYBqU2R_97lTSCk3pGoBkQ5FHjcgmjWciS8QE2LqiqxZC_xMljxPb1PMvPKIJb2BumCzwAPB3ZxHITRoDoaXZz8i0HuybE"
  },
  {
    "lat": 43.62354,
    "lon": 3.836538,
    "name": "Hommage À Jean Moulin",
    "url": "https://lh3.googleusercontent.com/KjbiFoz29c7kehaX1kOjtVcBi-ky-SY1hAvL66YCLvGI-1IVJxRxewFCr4NELGByLba58R-X58zVNe8hqIBAIvdHwQ"
  },
  {
    "lat": 43.624203,
    "lon": 3.836738,
    "name": "Escalier D\u0027eau",
    "url": "https://lh3.googleusercontent.com/jta0qlfzbYLqFBr-cviJa3wvL0Ij3rEqV4jS_GT2Im_7Tt9qQyZvx5dWZCdmOKCPEZqnpMLUhYugaVqhkh84rE2Wibc"
  },
  {
    "lat": 43.624756,
    "lon": 3.841873,
    "name": "Maison pour tous paul émile victor",
    "url": "https://lh3.googleusercontent.com/ouWl01_BRAZa2pcPjy5JCBLtRrlUvwzdvaX4rivjlQ1IEJ0Q4F-HJt0VH1ElPF5nT9pR9H0ONctevAKeZYnHlt1U9II"
  },
  {
    "lat": 43.62424,
    "lon": 3.842759,
    "name": "Le Cri Du Roi Des Animaux",
    "url": "https://lh3.googleusercontent.com/fDCW55RyCwZWZwrYugrLVTyI2jthxUlq5Ynkst6dZz9wJU2KrvBUL7JfVTL52lzSJMBw_dbgbaen-a61a-fKEcN5oq4"
  },
  {
    "lat": 43.63056,
    "lon": 3.843141,
    "name": "Croix Chateau D\u0027o",
    "url": "https://lh3.googleusercontent.com/uj-3qcUmfUNeH_RhmGsD33zDr2IXcBSSJr9bUcBnv-2UsBP6YmQ9Pbwky5wK6RvNt08Bajsiu6QuYD6rZkOC_GFvHO0"
  },
  {
    "lat": 43.62864,
    "lon": 3.840188,
    "name": "Malbosc Tag Hot Dog Sauciss",
    "url": "https://lh3.googleusercontent.com/thVZMgganWwmrzSCQWYrLio9AENMe9_PeI7ySJrJJ7ihd0eksuc-la1RsZlW898vZIV3WnkyZtNNLVnglUjUrDaAWbpK"
  },
  {
    "lat": 43.627,
    "lon": 3.839658,
    "name": "Coccipierre Verte",
    "url": "https://lh3.googleusercontent.com/d84duX0-71o4nctOBWr83pXf-VkzeAGonTBoPnR-NmxrMTb3ytKLi_m-BatCjeBtO9Ob3AZjuUZTQ3ToCbqTeqzhAw"
  },
  {
    "lat": 43.627335,
    "lon": 3.840017,
    "name": "Coccipierre Violette",
    "url": "https://lh3.googleusercontent.com/dLwSyPScQF_ApmTDQRSbB4ciM0BRPjWsIuBVnAtPx9UsHgCyiZpGhp-kKxvYx6_fT0A8VJUQIXOebnHmBxqSbfz_"
  },
  {
    "lat": 43.63006,
    "lon": 3.830368,
    "name": "Malbosc - City Stade",
    "url": "https://lh3.googleusercontent.com/9t1U_kBFqvJKjzPce3ckahivfSOtuZPixHBjr6ZBKzJi8G_g9O2IzV4D-BQ-HsnbzpW-37eRxzTuWY53hbr22oYDktM"
  },
  {
    "lat": 43.63027,
    "lon": 3.830674,
    "name": "Le butinage",
    "url": "https://lh3.googleusercontent.com/dLeRmO7vaRVfmKrjkakRVs5IIiGb2upxOwg88Xlmk-PPPYovuT7-yb4hpdWHaIx0uLhBeRlTbRo5bwC2rWxmc3RLiaQ"
  },
  {
    "lat": 43.62448,
    "lon": 3.834172,
    "name": "Pont Jean Monnet",
    "url": "https://lh3.googleusercontent.com/qiga-15ClN_Hd_tMYjqNP94OwgS_oaBCPFtS6B_IR0rK7_sfLpfF7bfOQwtqyZ9IYKLpoY8ucBJaqIN2n-rPRfFlCag"
  },
  {
    "lat": 43.624386,
    "lon": 3.826628,
    "name": "Coccipiere Pierre Vive",
    "url": "https://lh3.googleusercontent.com/WUvcAfBlgrl2xEqP9L9F-Vx1xKvlbKn1LMWX5cUKnC56-7Z_3yER1fr34-Awr41XnG_XXTR36_pRXwt8P2D8vLGUnA"
  },
  {
    "lat": 43.62788,
    "lon": 3.82497,
    "name": "Terrain Multisports de la Mosson",
    "url": "https://lh3.googleusercontent.com/i5i22i4FDGD1ThsP-oIa1fP5VolSoSBxgsPlpoM0vYeXMGcKUHDZ1qUa856uTOh_WJknzAXG_cnMGhqS0MsTH9aOMnE"
  },
  {
    "lat": 43.63033,
    "lon": 3.827364,
    "name": "Fontaine du parc malbosc",
    "url": "https://lh3.googleusercontent.com/6mxGa9QtNdm9otZr22ii_k6leaZHN-Zh_8RaMvyl4J49j88-PG6zn-RolrgEYso1pBpilePyWItxtlwlnBfIYJLFpHY"
  },
  {
    "lat": 43.634716,
    "lon": 3.826279,
    "name": "Parc de Malbosc entrée Est",
    "url": "https://lh3.googleusercontent.com/oB_D4zC4vcalkLdMDGlPZ7kzRv2nwuLq1xTSKXQxvtfi1B_T_cOwNn9zsRjXZxVHqugZRt2WAZ0RxQZ8nXjygOlLtw"
  },
  {
    "lat": 43.63406,
    "lon": 3.833992,
    "name": "Coccipierre rouge",
    "url": "https://lh3.googleusercontent.com/icfcEuz7BjrlDlyOAUJjR75BKMCivy0V7P5ZlSM0s9HucowWA7Ct3jeSHggPoMVR1Oq1cqBBIIrNfKCXayBNe96xUIg"
  },
  {
    "lat": 43.633465,
    "lon": 3.833252,
    "name": "Maison Rosa Lee Parks",
    "url": "https://lh3.googleusercontent.com/eou-mR607aGo4Rr8PcY2H1YuWry7y5ER4bp49UBZXSsnsQg21ZrF7GUcuOjKEO8yUNkDs96ORf9zt9hRF-W396e9yQo"
  },
  {
    "lat": 43.638157,
    "lon": 3.833556,
    "name": "Mtp Malbosc Handicap Tag",
    "url": "https://lh3.googleusercontent.com/QwUxhn2aidyXcOAJV6CdBHhqhInQLH02mc8XZiusYICaI9WAb31Ywpali_xV7RvJnDov47-5Cda10gw-jKYmTgepUp5n"
  },
  {
    "lat": 43.63903,
    "lon": 3.827663,
    "name": "Arret Tramway Euromedecine",
    "url": "https://lh3.googleusercontent.com/ChkLsVpoMKls04aQt0QTTzcr7JC7rEYXzEP62MiM-0HqLUHG-MDkg4uj75RuH5JzupCbJyXqxFA9jahS8q8Nyxr94vc"
  },
  {
    "lat": 43.63632,
    "lon": 3.82854,
    "name": "Abes Public Libraries",
    "url": "https://lh3.googleusercontent.com/yXC0im9CCPw7TStnDeJ_DeA-Xe5kTWvDPZHEYlCE6f-w8te6oa0rzYKDjYCuEA4-EUheFe_hrxbZduf16VOB2J1CRCro"
  },
  {
    "lat": 43.64406,
    "lon": 3.825596,
    "name": "Le monde d’après",
    "url": "https://lh3.googleusercontent.com/KSzEpE1P4xhyETGcHG2JIipImcWH-8d0TVikPnR5cyqjBioWXqeNc9qhAGtSm9Mu5Z8IwVfIsCbUDvja7etOSEGyO-aL04swMkRddESp"
  },
  {
    "lat": 43.649696,
    "lon": 3.832578,
    "name": "Grabels : Maison De Quartier",
    "url": "https://lh3.googleusercontent.com/tHVBGXUeGvNA6heVpYvH21pJJXa4jaO6Uri0MvKaYKafb4IKoTcbIkiTzi4e2a9YL-yR9e1WPvUxDdhWt5l2VRrf3FE"
  },
  {
    "lat": 43.649757,
    "lon": 3.832331,
    "name": "Aire de jeux La Valsiere",
    "url": "https://lh3.googleusercontent.com/8w5EqmaFuAx2m1j4fXk4CBrzNWoEk3QC7SVwgviklqXQwjIcMFLbIOXG6QktbrFe6I_H9TeT09HrWdY5amYEi545gg"
  },
  {
    "lat": 43.642532,
    "lon": 3.838374,
    "name": "Union Française Pour La Conservation des Vaches",
    "url": "https://lh3.googleusercontent.com/zjYPOon0o3NOubDfCMcRaWCJE9t_SCoxgw9K2UpmHZwmQbqw_T4yPxwr7V7Ru-8klRweSTnRCF4SYg_qtHQ3hw63OpuU"
  },
  {
    "lat": 43.6493,
    "lon": 3.842956,
    "name": "Trifontaine",
    "url": "https://lh3.googleusercontent.com/hSA5fcU87RQ6WKsks7Ck_kM1ZlC8JlOkFKgmz7azUIeJ6dDsKBzwJNBFxiGU-CqnepqW25soaMBhZ888kIAHgRx9BfMX"
  },
  {
    "lat": 43.640755,
    "lon": 3.840913,
    "name": "Montpellier - Végétalisation de l\u0027environnement urbain",
    "url": "https://lh3.googleusercontent.com/AoZgOX-p7Ecc-xSe6idINyU1M1IXUB2_4RD45kz2h09kOlD_7Pe3G88p12m1YWZJRwuwxHcYoQQahpaJUMg_ThnIjiYqrnXNf1xKZ2d6"
  },
  {
    "lat": 43.639,
    "lon": 3.842225,
    "name": "Aqueduc St Clément",
    "url": "https://lh3.googleusercontent.com/D4iR7jI82FfwaDU4yb2xrqwZCM11dlMX9iMqY_j2EYZaMP_EyIVANwHOjbGYhkHrKxdWVzLw7d2UAnqI3MSw4UZhfetn"
  },
  {
    "lat": 43.639256,
    "lon": 3.842384,
    "name": "Borne La Marathonienne De Montpellier",
    "url": "https://lh3.googleusercontent.com/sdwpZzErL8ODJhkpHeCF5fpUSLndwwtxEv5en3xg6o202f7ujErKhOcktDdyMRDPO1klRRNRgMZa9TInhA-Xg20dpSY"
  },
  {
    "lat": 43.63578,
    "lon": 3.839955,
    "name": "Les limites insaisissables",
    "url": "https://lh3.googleusercontent.com/KUyh4lxbHFYYp5WT6Y6rregOUPzVjIknkTS4V0xSzoB3-to9v_UZYHzCEYEEzDO65v1rWdwX4vOlj9nEQ6ffs6ESX3E"
  },
  {
    "lat": 43.63793,
    "lon": 3.835385,
    "name": "Jeux Pour Enfants",
    "url": "https://lh3.googleusercontent.com/G_LtK6dcAMaUNDKhWU4qOB3Mc2w_4wSypsmOGOdrznrBA3P4ksK-6La0uU-a6WetBH6CzF5IGJXtGkl8Gg8xl67o1Q"
  },
  {
    "lat": 43.63556,
    "lon": 3.835754,
    "name": "Théâtre J C Carrière",
    "url": "https://lh3.googleusercontent.com/ac2Ng26gowsBGS4MVjB8LfHjI0DHnI96zGDWNBMiAbj_rIcqpi_1LzSeiKVQSwAF30HqGYbgmEq0IfT9XDoqby3620hy"
  },
  {
    "lat": 43.63276,
    "lon": 3.8398,
    "name": "Domaine d\u0027o - bassin",
    "url": "https://lh3.googleusercontent.com/YltnyNhAQuhqpZvaVlS9UjlzwXYniX5Sg0YRJidE7CZX4PF-P8cJyB7hX4NFYbc80L40M8R1DizDJ2KSirQf8U8dFHk"
  },
  {
    "lat": 43.63187,
    "lon": 3.843736,
    "name": "Dragon Noir",
    "url": "https://lh3.googleusercontent.com/vYm5mW_InZYFg-RqiO5e5ymPxeZw2N7QReE1rShxenynAlqSt-84E9HflQewzOPXvNK_BEK8l1PgevtPMnzCl0LLB4G-"
  },
  {
    "lat": 43.6316,
    "lon": 3.841471,
    "name": "Domaine d\u0027O",
    "url": "https://lh3.googleusercontent.com/IEGyQcfzVIdkKAiUmGVwBzKG5LkBLuHoSjxPbYXIy8RivPKbdxT6pbgeBWHcfb3-7-RlZVH1BIVI12ySJH0lkWhYMDU"
  },
  {
    "lat": 43.634354,
    "lon": 3.849024,
    "name": "Fontaine Occitanie",
    "url": "https://lh3.googleusercontent.com/UxEWKHnckgI_iDv5hEQLt9Gp-eCnkJOTkf1gb3Phs2OR8mjr6_yoJlxah3mJTnIX3q4o6XtcXo9cYEX9NaFg-uvi3Q"
  },
  {
    "lat": 43.634586,
    "lon": 3.84847,
    "name": "Arrêt Tramway Occitanie",
    "url": "https://lh3.googleusercontent.com/7BC4SXcf2_u6pfyP9ZK7Qg1jREIthwsOvi3eC9h00TehXQjbryDAkLL93sthDss-Gm5AtfjWqUUN51ETp82aQm7GcaU"
  },
  {
    "lat": 43.633495,
    "lon": 3.85038,
    "name": "Coccipierre Bleue",
    "url": "https://lh3.googleusercontent.com/QuhHzACtG8WCpN8rqRIjh_gSyJHk3p0lmOwMwsCGU8n2KHQRv0nUoP0r_nT5_iayWrW-F0LjME-7zYpfEBaiX9Lallw"
  },
  {
    "lat": 43.632675,
    "lon": 3.853256,
    "name": "Jeu Échec Géant",
    "url": "https://lh3.googleusercontent.com/e1k-opS3A-c5rAtgkyPDGpIQumWZZWWxh97fvT9G9-_HY1YUgPMC5jc2H0AbOhEOmWxTnpJuzmdUMGhxTV5nxJSASg"
  },
  {
    "lat": 43.63648,
    "lon": 3.855338,
    "name": "Water Tower",
    "url": "https://lh3.googleusercontent.com/avi322POz1FR7KvcKAB2YsWGuJ3z5GCWjhQlwOAQU_f_g-Onk-P_DJY_6PoMr3GtNBOOBE-UKhyuygmLoAAjeyFW4L8"
  },
  {
    "lat": 43.638607,
    "lon": 3.850978,
    "name": "Goldo",
    "url": "https://lh3.googleusercontent.com/F3ONfu7ovIpozQ8Bf9wvSG2DaLu53mpQmbWjivZm8aNZEmKFqiEXdEwFkBE3qSetagTbp8k_spQ_kkiCV-86SpNuT8k"
  },
  {
    "lat": 43.636032,
    "lon": 3.847691,
    "name": "Parking Occitanie",
    "url": "https://lh3.googleusercontent.com/Z26bhLcdQtvslAt87jaoPfb739qunyPz-GcS2fRRsrxQf2lfPkygIQ1uyfTlp0GYabv3ou4YPF8KXSyyPtf5OEKdgwCy"
  },
  {
    "lat": 43.635864,
    "lon": 3.846542,
    "name": "MUI",
    "url": "https://lh3.googleusercontent.com/GKrUzi43Trz5r5jT3mG51h9ioMuejVE6PuS_7yWYXYxqZoF-KfDpzYu0DmPf0MObZU3saZc0tYBEU2LpUtClIKY-Kv4"
  },
  {
    "lat": 43.6412,
    "lon": 3.849542,
    "name": "Maison En Ruines",
    "url": "https://lh3.googleusercontent.com/SrCCou8JpXZEU2z91_7HbVx9KXYn9FW3ldr85I-isheNBLvqs18XnLFuD6gC_i-37Qt4Xw7iiki7xKs4uVspMeT5DA"
  },
  {
    "lat": 43.64079,
    "lon": 3.845885,
    "name": "Family Street Art",
    "url": "https://lh3.googleusercontent.com/WfQEhAHdG6WNdW70G0ZzLA0_CFSKG8h-t18cCcKBCQZOU26kZjT4VDxJsbzRvzCa-B-A0ofiECspOr4H2qQsLoa1fO8"
  },
  {
    "lat": 43.64957,
    "lon": 3.849068,
    "name": "Borne Saint-Clément 147",
    "url": "https://lh3.googleusercontent.com/vjacL1aQMYxDPqMnayk5gVnerLnKWRNehWy8YXUun4MKG-RAaxoRm4lqUjtZeBFVBHk_ItQPj0WzdI2G96IzgKbQn7Bajdc-anSojdRv"
  },
  {
    "lat": 43.645187,
    "lon": 3.85138,
    "name": "Vestige de l\u0027Aqueduc St-Clément",
    "url": "https://lh3.googleusercontent.com/bY24yVMnL9xlXuJ7kKqKCdZ9EEBKubiIxW6qlbKfSwYTnu4EZLmr4B8qM-IgdE_0FXdwGU-7WqE-TbtPS6EMSpRrUyTRetCTMCltbUtu"
  },
  {
    "lat": 43.640614,
    "lon": 3.853966,
    "name": "UFR STAPS Montpellier",
    "url": "https://lh3.googleusercontent.com/UC_zkPFSmiPeDHj-ZS6SyV3Ale-hXhClbPqxMmRFK0hhRVHl8jgHFu7LiUH4V2Qu--vLqhc_f6YDISadzvgq013IcA"
  },
  {
    "lat": 43.642246,
    "lon": 3.853828,
    "name": "Baseball Stadium",
    "url": "https://lh3.googleusercontent.com/uM23Nyr33pzcP55muPlFVBt-9czSgZNiY5xghuzLTxEbKa2me_zIwZpGY4BP7oiX0zr2mIsnaEBtVOxQ3_KF5Lhh4g"
  },
  {
    "lat": 43.64037,
    "lon": 3.858363,
    "name": "Aire De Jeux Enfants",
    "url": "https://lh3.googleusercontent.com/3EP4vna6nrgMxa-a0HamAzE0E-qlmyOULvf45WcU4IfRuFvmCWKGr0vGXkUH0RDnYKDH-jwvOLsagQaA18fZOLfHWWE"
  },
  {
    "lat": 43.6402,
    "lon": 3.858518,
    "name": "Cosi Fontaine",
    "url": "https://lh3.googleusercontent.com/Hu4msx9rknlzCN-whFfNbEnmOtD3W_4NeKy082TSFwl4P5wm0Q-h6N4a5h9C49x9ivi58st_qaqT65lAexU0ChtE_glk"
  },
  {
    "lat": 43.64177,
    "lon": 3.865183,
    "name": "Bois De Montmaur",
    "url": "https://lh3.googleusercontent.com/KrMcL-SECKujSg3NbKUQb2u9yDFob8b9LSo11Ikls4Y9cLK9Hmqbw8RLL41KVXXcRIdjKiw2lQnvpcF1J1rBWAiC_yc"
  },
  {
    "lat": 43.63851,
    "lon": 3.865423,
    "name": "CNRS",
    "url": "https://lh3.googleusercontent.com/KXupSHDxnkUBJgUOoVuo9hA6M6nEdFTeUXC4EID2E4VJvVVLg884w1_E2Ft44hFp97VHj9SM-AbXOPSbiMVDK5tGWiE"
  },
  {
    "lat": 43.63573,
    "lon": 3.864405,
    "name": "IEM",
    "url": "https://lh3.googleusercontent.com/V-_UIg5POyL7sO2q88nAWb9MaauoPE6WuaPd5QBIrW2bUqW189eD4zGsv0sj1LoydUEQ1fLDGn_SaUDaohTKe_ZLiiR3"
  },
  {
    "lat": 43.636086,
    "lon": 3.858875,
    "name": "Les Écossais",
    "url": "https://lh3.googleusercontent.com/CR5m9vP9aYk5SWsn9ShFZJDl-KZhO1uXworZZckp8ncqJBY-pvXWYcJE11sD3srJEnCChlDHkKGRwa4y-ZJMuUAUPw"
  },
  {
    "lat": 43.633575,
    "lon": 3.859098,
    "name": "Aire De Jeu",
    "url": "https://lh3.googleusercontent.com/iTXDPnQWtwDb1A-UoQOK5fVgutDEthb7yQ5rZjNRCLlbpHc_47PctMrMt8Vmod0dOe_YYO_oTMyhEn9yo4z-b5JYo9o"
  },
  {
    "lat": 43.632053,
    "lon": 3.855491,
    "name": "Fontaine Immergée",
    "url": "https://lh3.googleusercontent.com/ixdTcmXyLq6KAtOsgzdlW2w6-ExXfE5p5JX7vIkQdb_QMW6dg5lfCWQWg55vS_7AFDUzRnRvoU1mEqCDbkFTuScDjtw"
  },
  {
    "lat": 43.631454,
    "lon": 3.864488,
    "name": "Bibliothèque Universitaire",
    "url": "https://lh3.googleusercontent.com/vC9LVssVOnpteS-F2yXyxiIMeNFpqxU3cipAqotRW-epWODafsLecJWQmpbTlESgS9iaRnbkq0k25Lvx1I1j_AIi0II"
  },
  {
    "lat": 43.632824,
    "lon": 3.862227,
    "name": "Allée Multicolore",
    "url": "https://lh3.googleusercontent.com/qL0RKcWztTynXgh7NdIEEq92Qau-XSYB7-X6qZVo7wm1TLshU_KqneR0tM5mVzj0Xxdpe_2_w1k3beKf-J8sy_RTBQ"
  },
  {
    "lat": 43.63413,
    "lon": 3.862786,
    "name": "Laboratoire Champignon",
    "url": "https://lh3.googleusercontent.com/y99iNuo6LzwjFmMoPOtvHAuMu4byJ5pTYaMiuykbzeuu_sKNNMGbHh4dHPKM7jQM4-O1hBRfA6n6r53P_QQ2K9EVjWI"
  },
  {
    "lat": 43.62939,
    "lon": 3.860718,
    "name": "Trioletto",
    "url": "https://lh3.googleusercontent.com/hIcZZS6CKA21nSeYL_Gl1YO1eYqCxnzCRK7T3Q1o0r3NMrAIDA9H8_MC2o2mrYM3iJWbrtlQh5-LO-KxgJPMep3rTDQ"
  },
  {
    "lat": 43.629227,
    "lon": 3.864101,
    "name": "Hommage Aux Membres Du Corps Médical Victimes de Guerre",
    "url": "https://lh3.googleusercontent.com/MI0-qxRIV8qaTCDIc7p0bYd0YKsIBeWkZ7VdAZdchB8A0E6k8reNK1zeMcyMrl3y83LijNnTAGnUBIQvmfzMCq-Sig"
  },
  {
    "lat": 43.623985,
    "lon": 3.864265,
    "name": "Fresque Saint Nicolas",
    "url": "https://lh3.googleusercontent.com/MCIISPKkzg2iKxewp-jQUQgdFQaXYdWmdIqXFcWeAdQAQQe2W8d4RhoIEWTMpztA-PIgBWdwwvWLqoShhvr1y7hHs8lQ"
  },
  {
    "lat": 43.62309,
    "lon": 3.862204,
    "name": "Faculté De Pharmacie",
    "url": "https://lh3.googleusercontent.com/bzE5DuZkKG9U4Q6fFStvGx7JRAofWXWEVC65WD1KRqkmvUQrlBuIMA_AYswnZ38rWlspQ6Yw4pRGBqGD9tK2gSX2AEI"
  },
  {
    "lat": 43.621876,
    "lon": 3.855469,
    "name": "Mister Chipster",
    "url": "https://lh3.googleusercontent.com/MLUM6YLg8QLtu034FKAmuBRFm5oIfJG_QUvoa3Hj3QRcB_Lqcfuzin_5CuX7XEwHcYLt1kvWIQrhRUxxOMfZY0yqj_8"
  },
  {
    "lat": 43.627815,
    "lon": 3.858086,
    "name": "Hôpital La Colombiere",
    "url": "https://lh3.googleusercontent.com/KjDpCxLpsaJlN1xEH0kui0WLNBkbc0Q7SsQkrSF0T8Lzs-dsIklyRNVaTVLYRo-AiZOmXD3YvYDLRitka9_aiE47AE8dDB7pzcTD7MJqww"
  },
  {
    "lat": 43.627136,
    "lon": 3.85684,
    "name": "Espace Culturel La Colombière",
    "url": "https://lh3.googleusercontent.com/rX-zm2N2eo2Q5UZOjx0WEJ9sliogauaG_ZIcAB3bs4pnCMJlnBxeoXfVnYqWUqkksm8kvENw1qyDOPFlTqFfTjlkQHQ"
  },
  {
    "lat": 43.62761,
    "lon": 3.852231,
    "name": "Statue Jacques Mirouze",
    "url": "https://lh3.googleusercontent.com/Oop9iRyISouWt-2LX06Tklh3_UHA4s5chl_zZJizShZ9iLZaaTc25a89i6sl1kvMbhh11ms3Pe4rXPOaXp20E682nBo"
  },
  {
    "lat": 43.63009,
    "lon": 3.852823,
    "name": "Banc en Pierre Taillée",
    "url": "https://lh3.googleusercontent.com/9rnrviXD_8AlkR9t_tgW_g6RNAFGUUwDemXT4Eqy6PHSWizPk--l-lTMT8AlmOaAw4Rg-4UkPMcTmJcVf0-HfdC0FQ"
  },
  {
    "lat": 43.62901,
    "lon": 3.845215,
    "name": "Croix De Saint Priest",
    "url": "https://lh3.googleusercontent.com/3KYDWzlsNi4vKKWYPuVfpkgaOQJORFwL5ECGB-lIcDWJ6_iTbtXsbG1ldmqyv1VfGpy5TxkprJ8ZJyrtYkaJ4g0cUA5E"
  },
  {
    "lat": 43.624325,
    "lon": 3.849055,
    "name": "Pétanque aux Eucalyptus",
    "url": "https://lh3.googleusercontent.com/_51rRacrPi148Nmryl19r3r1BqQ7EutI5HBqCgdx3D4-uNsd514GOgcxTgpU4ObLiuL4QK0bUb33hnM-We53ZEYfYas"
  },
  {
    "lat": 43.621128,
    "lon": 3.847193,
    "name": "Gymnase Bernard Jouanique",
    "url": "https://lh3.googleusercontent.com/s40wxgdJ1eXKFkWxcZgi08_A77hBdozbIPTrnfOXMH0raPGeYVjMYIc-k_DSu8H4asIBFMkSrIviC4i2yZarGu58iCFo"
  },
  {
    "lat": 43.61853,
    "lon": 3.853203,
    "name": "Agro - Pigeon ramier",
    "url": "https://lh3.googleusercontent.com/_tPb-oGy8UNm_7rnZJSmSt57IsQMV9BDwm_sWixnzuVk_0QQWqUR_DXsGE0N2-8FYQJrvVQiwgo1n0JrXpLBDQ5cmoihJHr6e1-GPmlrbg"
  },
  {
    "lat": 43.617664,
    "lon": 3.850367,
    "name": "Halle de sport La Condamine",
    "url": "https://lh3.googleusercontent.com/lDLzbWlvqOZ_wlg-k4DCi5qGLgx2VgZu1kKQKguSmkmPcG1zk06RB-mKBDRjPas5yG_AtHyqcS7EAy-e2kSXmZmPN8w"
  },
  {
    "lat": 43.617786,
    "lon": 3.852205,
    "name": "Résidence de SupAgro",
    "url": "https://lh3.googleusercontent.com/rrfGM-niIz78Bm_GrlMV7_TPfNeQyurCtrXshyyosnY4yXOLY1lQIMVPM8XpfV31XyT6LZPkTUqJo7ahJG1xOl_iGCI"
  },
  {
    "lat": 43.6187,
    "lon": 3.847021,
    "name": "Musique En Peinture",
    "url": "https://lh3.googleusercontent.com/k2vZZtaN2ipfYZwLMz1MZBmWcWkc8yLKUqZTGuOES1-2gnJ9s1H4de9yJwmMupTgnUfu4Pkx1UACWCPm6H_G5xiwAgjW"
  },
  {
    "lat": 43.6129,
    "lon": 3.846292,
    "name": "Eglise St Paul",
    "url": "https://lh3.googleusercontent.com/y22WzBlZAk7lkTMJoVjxxdpoKJYTf4PrOTL7k1XjB9QVnXJpBnBBP20jd1f0WDsattivmG-FIr8GdpjxadKZwut-D7o"
  },
  {
    "lat": 43.61462,
    "lon": 3.852158,
    "name": "Aqueduc St-Clément",
    "url": "https://lh3.googleusercontent.com/8vRhZXfHxS1KPxLlcm2C2r2MflWyrhLRMDstFkiXxrzIvIb6mzkkbRMQs8S0FruaflDSNWqwcSTtsr6ygueWbh-xLD18"
  },
  {
    "lat": 43.611458,
    "lon": 3.854249,
    "name": "Arceaux Montpellier Football",
    "url": "https://lh3.googleusercontent.com/7sdl0ZEiMiRf0n6zX3fQjJfe-Xa8vk4Fcp8dZV54PLAcCqx15Kw49EICqWBS_js-8BNvc09NKpJULX62xt8S5TcTTm5K"
  },
  {
    "lat": 43.610992,
    "lon": 3.858385,
    "name": "Parc Bir Hakeim",
    "url": "https://lh3.googleusercontent.com/Uak4ex5gxE86WUJQLUIGkCRiUdaSxETJ8c9pI--oI0ToLLiVmTBJU4PYJHcqpZ47RXbFsJhke3Vaze1MIzxWON1quA"
  },
  {
    "lat": 43.61798,
    "lon": 3.85672,
    "name": "Agro - Verdier d\u0027Europe",
    "url": "https://lh3.googleusercontent.com/y9azkAAVPsATJLDvbRIVZ1zAl3Bjy_eUvVDgtdGIj8QDXz74cprH5Eh1FQ3bwHBsRMdVy5rzR94HZsbLuOWmmW709YA"
  },
  {
    "lat": 43.6183,
    "lon": 3.856041,
    "name": "Statue De Louis RAVAZ",
    "url": "https://lh3.googleusercontent.com/vifdO918pda4neX73FdXlOkvaYhVEQuWjXG3c0DqxX42k2OlmyOfK3dhNFa0HXD8fQ10Gza57_9cY60djzx0_qKDpM0"
  },
  {
    "lat": 43.617344,
    "lon": 3.862707,
    "name": "Fontaine Magnol",
    "url": "https://lh3.googleusercontent.com/xIvmiAz3Pl_XLkDHMWtN_Zz6bijCBfFUlSlV37gfA4oSzzj10FtuEWhlsr3YeQW-Y_n-QUdO_ya68ssxKRBlrMDYdplI9psVZmwRaRUO"
  },
  {
    "lat": 43.61756,
    "lon": 3.862445,
    "name": "Parc Magnol",
    "url": "https://lh3.googleusercontent.com/GFr96jGuxwxQYtUklUhe56kS_eVguyYjPCuzUT16f2Z9-QS1Sz-VYcl_ahfFGRf3KRHyw2naulLLb4Z6bVApSsSJuw8"
  },
  {
    "lat": 43.611942,
    "lon": 3.861277,
    "name": "Parc pour Enfants Arceaux",
    "url": "https://lh3.googleusercontent.com/1z47tISLzK7nVqfA1Q8ZIl8rQDOOfSyyvsevHjpAtopd7OhUEXyb-I8JUy4hkaG7d_Q-Ge12T_BmK7CCm7aeSs6rboM"
  },
  {
    "lat": 43.61527,
    "lon": 3.864152,
    "name": "Église Sainte Thérèse",
    "url": "https://lh3.googleusercontent.com/FpY3kGEPFCpvWL15HHs1Akih6M3sRq9nYqatQCsKOk5dzFsfvIAjcAxmWG5teyrmL3cGAjOWKmvz1myEgry54YVLz2Hu"
  },
  {
    "lat": 43.612724,
    "lon": 3.866532,
    "name": "Street Art",
    "url": "https://lh3.googleusercontent.com/X3Vree0_kcYEJSXCqDG0pBG5bD_FWFkzwIdApnbYu3Mgcwqu49GHTkpqPwybt6GcTE1uARneSuBRuiXT1nV3CsgtKzY"
  },
  {
    "lat": 43.611465,
    "lon": 3.867946,
    "name": "Arceaux",
    "url": "https://lh3.googleusercontent.com/BO5JLN9gOGPnp3e8PCWwM8ewVMf0tB7JPnb6hfuJ9bkQrcvUF6M1CqAkXxqKAKmOSnh_9s7Lp6aba9BGnbWgYndHk0SZ"
  },
  {
    "lat": 43.61134,
    "lon": 3.869034,
    "name": "Château d\u0027eau du Peyrou",
    "url": "https://lh3.googleusercontent.com/ya9H--1Rz13ntxSIDgBeOwQzjpjfVi5JNf0aRpXuW81QXd4vO4jmyz4zR3njE0p20I6ZvOytGSzFubH8L_PK98W5x08"
  },
  {
    "lat": 43.616196,
    "lon": 3.869624,
    "name": "Caserne Lieutenant Gilly",
    "url": "https://lh3.googleusercontent.com/q--XPKlweXRdoGkASA3mxtemxks7fy0ifPZvwMQW06GsF-Bo0PhR-sWQpjMKhWWve9xcyO65_msEaAwgBqhNva_5IS4"
  },
  {
    "lat": 43.619453,
    "lon": 3.869591,
    "name": "Metal circle structure",
    "url": "https://lh3.googleusercontent.com/ASkwxUdB3Q5ysTNevNiVa06RAm3TEjByjpW8SVAdjFRbhaKYK7XDNQRYlaRjGy3phIsNq_LrYUDiuai1iBBD3R8CRTxk"
  },
  {
    "lat": 43.618626,
    "lon": 3.870942,
    "name": "Mur Avec Arbre Sculté",
    "url": "https://lh3.googleusercontent.com/uOsW-80AoTX1l_UKAneFJ66y1_X8bVJx28I8pAUw5fG2XzWHrahKCcnpul8bEf10wXrdgKiKDnZrNIxHMekoIbs9MQ"
  },
  {
    "lat": 43.61999,
    "lon": 3.872959,
    "name": "Ancienne Fontaine a Eau De Rue",
    "url": "https://lh3.googleusercontent.com/6mmpfQi8W0lgFMkLH-rZ9GlZXgwY0FVi9B49YV8dQsgtBXjMQayu9l3Q_aqRcFYS1zMxItIJCeKDGiOfN_eovsT85pU"
  },
  {
    "lat": 43.616096,
    "lon": 3.874415,
    "name": "BMX dans l\u0027angle du mur",
    "url": "https://lh3.googleusercontent.com/cQaWq8i1LZKr0ZM3qCYsCl6wxnnedVNBX0JEbY5tIqR_44_kOTmx1hZ6XJP5hK9ju0d5ZCrcl5s7vioBTNKkHvUEHDw"
  },
  {
    "lat": 43.610554,
    "lon": 3.871536,
    "name": "Promenade du Peyrou",
    "url": "https://lh3.googleusercontent.com/HQZQM-blKxFxkY7N6M3el_69u2qne8fqZ354wER_Ua3_1cWPS-ZHO7cGH7rlfZaZ_P64890CRcpRowHTl2d-sx0GxWX1"
  },
  {
    "lat": 43.61122,
    "lon": 3.872389,
    "name": "Arc de Triomphe de Montpellier",
    "url": "https://lh3.googleusercontent.com/DVM9hDy5hyKA7n1WVFB-XKVj532ffZY3Sve_PaGAixrE3tntl9JoHx30G6_SqN_MWkDV35tbnIJ-D86sok0YE6FRaww"
  },
  {
    "lat": 43.612766,
    "lon": 3.873951,
    "name": "Cathédrale Saint-Pierre",
    "url": "https://lh3.googleusercontent.com/QCogb13e8Vihk3s5HVeH1LG4bMHWuP7b97frprDEFXCdHN9AWMj7kg2d-gisw81evJXJWxA90sk8OPjGUCU7hhdrVXY"
  },
  {
    "lat": 43.613922,
    "lon": 3.880421,
    "name": "Bar Le Décorum",
    "url": "https://lh3.googleusercontent.com/YoX5TDO_i6xjmMxdx6EWOSpL-MfGOnJj1I-dy9UO7ZGTH6d0qvzVdn2qDEYeVHSXv90L53H3wOsQTnyXswnFqC0X1L4"
  },
  {
    "lat": 43.613003,
    "lon": 3.879481,
    "name": "Statue De St Roch",
    "url": "https://lh3.googleusercontent.com/iSYgeZ26tP2ytFKg_-3AFxxWXTqALrpzjvPeKUd0yxU3GzskMONzFEEH-ExJRSb6rA8oE-FHWU729TCnmlyMHKZbRg"
  },
  {
    "lat": 43.610992,
    "lon": 3.876681,
    "name": "Montpellier - Préfecture",
    "url": "https://lh3.googleusercontent.com/2kDFHx7wezrLjIsLidABsgOXq7LTBQ2zjkVizQWycEo6WyTBPPZsoEXbeV5sp59SNvp-nigIi-na9hi25PVnkkMHPg"
  },
  {
    "lat": 43.61148,
    "lon": 3.881733,
    "name": "Monument à la Mémoire des Arméniens",
    "url": "https://lh3.googleusercontent.com/nT6R9ITS4VFGKOEEXIMtwHBQ21nAU799cqFGMlY-qTxw2I1_86zS-o0q99g9yGT1FKV4Z0nW1b4a3HfJE3Gh0bST2A"
  },
  {
    "lat": 43.614483,
    "lon": 3.881629,
    "name": "Le Carnaval Des Animaux",
    "url": "https://lh3.googleusercontent.com/ao_uOWtoqMJOsyknZuQAyVlthR0n1UGPA3Pc1aSTrdYjy4omMFhdKLhX4ruJQRLql8XSNVnSTQMB6TrPXj9xbm3j7g"
  },
  {
    "lat": 43.611248,
    "lon": 3.881048,
    "name": "Fontaine Esplanade Nord",
    "url": "https://lh3.googleusercontent.com/HzKC7UmpZfMCBMGXvgCJr0jU-GpG2dF1_bnoF7NFj1LDTJ_HbQ1quPyWEx_6OTPeYSJY8mcT98vbDHrUV2k8DT4kC1k"
  },
  {
    "lat": 43.617485,
    "lon": 3.88399,
    "name": "École Supérieure Des Beaux Arts",
    "url": "https://lh3.googleusercontent.com/NRFET7EqqBYWm11wc2PrV_OVoHXUsnyD1-6JBWRYf-xp9LuffNbD5TtCAHNZ2Zd6XAnwlov4kevfSzrDPr9JAKfsoME"
  },
  {
    "lat": 43.61612,
    "lon": 3.88423,
    "name": "Maison De Quartier Frédéric Chopin",
    "url": "https://lh3.googleusercontent.com/dD5nbdCg443Nfw2duaUYEFt_zHmr_EtPkuOuE9JDFEr_uzVF3x7RjW7BbEeTS4ZH0mDQqg-i9NjpE7Pmy2bixvLzwg"
  },
  {
    "lat": 43.618183,
    "lon": 3.878688,
    "name": "Église",
    "url": "https://lh3.googleusercontent.com/jacwttWiTxOg0ID7qOF7nLkkeCSX5A7B0aRO3vOuwQY7HrR-bO9LycgHErWj-3azVvGfGRTFfjzsCEFkdMwXBEBKHw"
  },
  {
    "lat": 43.61865,
    "lon": 3.879121,
    "name": "Symbole énigmatique",
    "url": "https://lh3.googleusercontent.com/AoDj3kMMx0dLe3rB-4sYPU6xMJIiN6jH1BSF1aJxbYSkhtWa430rB9RQrN-Z4J5XR0BOjNPYZ8r0I90nFrCwdXZj"
  },
  {
    "lat": 43.61624,
    "lon": 3.880384,
    "name": "Studios Lunaret",
    "url": "https://lh3.googleusercontent.com/B3Nix1qd9Ddbtp8e2rgDZV6FZjnqSzTf_a5CfxnI-YonFsuYnN170HAwvFH12cbzofC3p1hty9mAd_qE0_4eZuK4EaY"
  },
  {
    "lat": 43.620907,
    "lon": 3.877922,
    "name": "César Palace",
    "url": "https://lh3.googleusercontent.com/dqakvtLMgybPOl3noljh20BDTAd1ilqESgIyfBlgviHreMPUEHxlUqdYlMBb0QxsciNEIGVpP98YpeCtXY_N-u8FaoM"
  },
  {
    "lat": 43.623817,
    "lon": 3.877583,
    "name": "Cours Notre-Dame",
    "url": "https://lh3.googleusercontent.com/WYElewVQa56RCYKknyJkENiAtgUY-mstmDF8vXFf-R8ugB6nJSwWaXHgTT8D-kISZ0PsAQtiRyUq6RKE4KJefxIIOw"
  },
  {
    "lat": 43.620056,
    "lon": 3.882389,
    "name": "Église Saint-François De La Pierre-Rouge",
    "url": "https://lh3.googleusercontent.com/aUITVe5GJxxuwdcZ5IkSobNjIPPfthF7AhLEixdQ0r2JFLeIjMmXJ-Nlm9wEL1l8tbybP78BxCB8pfmLgx7_tcR-Eg"
  },
  {
    "lat": 43.621742,
    "lon": 3.882817,
    "name": "A La Memoire De Georges Vuillemin",
    "url": "https://lh3.googleusercontent.com/K3jEGDZgRDKOpjiEmoHzyRG_lMTOuFKvGOVmsf56ReOjDMGPfXhY1gJpnDMfFg9zzLT24si85iVTdy30Hhrk7ZIM7TM"
  },
  {
    "lat": 43.62573,
    "lon": 3.881772,
    "name": "Boulangerie Scholler",
    "url": "https://lh3.googleusercontent.com/JOwXF2oXOYNE2hwKT23FODnh5rO5gwkCtf_Z2HDhPBm3t-9rRk-Hzjpm5oDDd92_Geaxt7A6DgdITRddaqqK8UdOLHM"
  },
  {
    "lat": 43.625473,
    "lon": 3.880073,
    "name": "Eglise Justice De Castelnau",
    "url": "https://lh3.googleusercontent.com/Xms5Y5z7O5p2LZjmc4SnxmyEX7aC34c6UpKR9o2ZKyG8roei3ymdrH6bikkERBFIO-n3RNSWwoQ4oW9G_EDvEYLpiwsQ"
  },
  {
    "lat": 43.625824,
    "lon": 3.878609,
    "name": "Foyer De L\u0027enfance",
    "url": "https://lh3.googleusercontent.com/MV8E0RjJsBr-zhwqG7uM_Ih32_avh3emjkOUuTFDgqDdbAyjpo_kX9AKSZlTCfSWUzxNuo8xMMmlsXf1zMDr6VfOF63N"
  },
  {
    "lat": 43.626766,
    "lon": 3.870784,
    "name": "Coccipierre",
    "url": "https://lh3.googleusercontent.com/_4JSTLPFGBGbFELC0HIIt6zV2Koo5qkn-QNGTie4Bfq_G8wssaKMkYYBXapFlQ_ohyhQBgQUPRvEQp2-ALwKV53lmZo"
  },
  {
    "lat": 43.628036,
    "lon": 3.873882,
    "name": "Square des Cétoines",
    "url": "https://lh3.googleusercontent.com/iH16DEkLaKybaaKxdvVsI0DcoZVROO67ibJIfcxAb412OznwUteIREfVKAoojw1e2aqDaXhbkaOH-ysOaEqD8nxZgFo"
  },
  {
    "lat": 43.624264,
    "lon": 3.871836,
    "name": "Aire de jeu jaune",
    "url": "https://lh3.googleusercontent.com/toH4DPng_Ydj1XxIxoXJVCahbuwh6RLRRxjrzAABFvzSyyUKGk39jokjazCcBWzXtFEWet9rIlvFDwBWLqyoIZHoEsI"
  },
  {
    "lat": 43.624424,
    "lon": 3.875156,
    "name": "Puit abandonné",
    "url": "https://lh3.googleusercontent.com/Xuuqv1BDcfPOQcJZT1kE7g82wxt5lO9E37jnVyKKwxd_gTlB0kl-uU4wZbFaqnGfXti_voeUYY8sfmzxnBj9ZZ40JTE"
  },
  {
    "lat": 43.623512,
    "lon": 3.872589,
    "name": "Fontaine du Parc Odile",
    "url": "https://lh3.googleusercontent.com/VFU_QwWENezWAkuRvEghY48aWVbwTJLn47suVvgX8HaIwQhPvAkflL7im8xC1g3i2zI66Ksovt0r1yeXdxTZvhs12zY"
  },
  {
    "lat": 43.620422,
    "lon": 3.869676,
    "name": "Eglise Des Jésuites",
    "url": "https://lh3.googleusercontent.com/m_P71eMzYaKrHjDdPj_zT7HCxUcJF_9AZPprg9Xbp3zv1uWjh-QckSMqsMFvUWtxVizNvbdXpNBvRoYaL7Wn432mr7M"
  },
  {
    "lat": 43.622185,
    "lon": 3.86818,
    "name": "Maternité du Professeur Grasset",
    "url": "https://lh3.googleusercontent.com/VDHetrSNobFNfQC8Bj5TjIA_qf5haK5ISiOnHSygMGQi4BFwFRYW2h-xM_dzOWgxbJSQraR3zz1Mg1UYx7PGv-IhsA"
  },
  {
    "lat": 43.626633,
    "lon": 3.866457,
    "name": "Pilier de Saint-Éloi",
    "url": "https://lh3.googleusercontent.com/OWj83jG_tpDwUDHq9JW8dHOtnjrAek1B-Ldsdrk9jJj7f2AUo1hraKJshBtqkDt-wL0cFXd3XET-i7WXVImgI6y8Tu-s"
  },
  {
    "lat": 43.626812,
    "lon": 3.865828,
    "name": "La Faucheuse",
    "url": "https://lh3.googleusercontent.com/yA3LSkFVd4I3RuMhMeWW6Pz0zw8ZrVcOOL25GHCCg4m9D6YWKbBL3QC7jB4fEkjKStokPk5pwDCRHybR8iUBd2W-Xtw"
  },
  {
    "lat": 43.630783,
    "lon": 3.870314,
    "name": "Université Paul Valéry",
    "url": "https://lh3.googleusercontent.com/y8aMFPCRrsWwuaSFPDRiOe2Zsj-qPa-4noBz2lY-LR0OGDxe8txjf_u3zQ5AUV3Pg9WQPOJDN5MQGgXSr1F0MNR0Ng"
  },
  {
    "lat": 43.63215,
    "lon": 3.870093,
    "name": "Fontaine À Paul Va",
    "url": "https://lh3.googleusercontent.com/xTDNfro77yMgf8cD0b8iwFtDbZeRLmTbKgQ6tn3zvUNeyswQ8cAcitI-P9bFVdDDsz_ufywBj-hr9LbejOGU6qyoVVU"
  },
  {
    "lat": 43.631832,
    "lon": 3.866177,
    "name": "Cercle de Pierre",
    "url": "https://lh3.googleusercontent.com/TG7JC7A1HZey4szzgzTPSScVT2-2EMaQpUZwTJbQWIz6UHx2lm8w5M4DDRVonJZTuyxEEhOcoUkjaPQkNB-7Y4Sfh-0"
  },
  {
    "lat": 43.629906,
    "lon": 3.8731,
    "name": "Parc de L\u0027Aiguelongue",
    "url": "https://lh3.googleusercontent.com/pO5CiwpAes-VE6hsIwwrHWnChsz407oQsAVQHSvelkO8yFTt6aslAdRTamwRDSr8N2PCG6BJ5EEWOvJ4gto0Ga3GvoVc"
  },
  {
    "lat": 43.63129,
    "lon": 3.874835,
    "name": "Fontaine boule",
    "url": "https://lh3.googleusercontent.com/0lYeKVylJfFARVF4r3lzkVRme160I-arNHxDFkzRA0xhjRTG5G5TE0ITjSixSuBE7sN-Fm8pcomvjCWjp51LjScOf9s"
  },
  {
    "lat": 43.636513,
    "lon": 3.874738,
    "name": "La Murène Bleue",
    "url": "https://lh3.googleusercontent.com/ly3GxStVW4IdDZBqXDdyjM155qQI-ZG3Yv5KllcnIK9T6_wdMDYPi9y4f1EoAvl_9gWfqNaG-ym595PxdX-ORhqlOBYF"
  },
  {
    "lat": 43.638065,
    "lon": 3.873881,
    "name": "Palais Des Sports René Bougnol",
    "url": "https://lh3.googleusercontent.com/diaftsmRZjejo6ctqqU1VUkDGfatNhC9gjkjoqJruyUOw-skC61kj6LSGdSQXcloFLDkzjJNa4sK9TIK8Rqda35vzNV9"
  },
  {
    "lat": 43.634865,
    "lon": 3.870482,
    "name": "Resto\u0027U Vert Bois",
    "url": "https://lh3.googleusercontent.com/EaPVcyJsBcYutNJ3Hj-JSinaQ39W95ZeStA9u_1gnkVQq1upVYXSKaf8MsYTUvV4FPUH5Zt9RPvLCcPzkUIl6QVmdv0"
  },
  {
    "lat": 43.63926,
    "lon": 3.866711,
    "name": "Tag Bois De Montmaur",
    "url": "https://lh3.googleusercontent.com/LRwAudVifG1W38igt7-DX1bP4j_KJQ3VeYKA58GJLkHJlJhSF8h6o3NBH1wD1n_lH7Wvo68WihfQ61VILPMzimmys4K9"
  },
  {
    "lat": 43.642216,
    "lon": 3.867326,
    "name": "Fontaine De Montmaur",
    "url": "https://lh3.googleusercontent.com/f6zQxbO3bRdtRZrzBgFdRxGlvMPMXsO58sBFWFzYeVkyvFkumFfOnVhZu7VTPN9bW9j7ryzDMpS78qrzWoGyllZq2hOG"
  },
  {
    "lat": 43.642326,
    "lon": 3.867533,
    "name": "Château d\u0027eau",
    "url": "https://lh3.googleusercontent.com/6LniMbn__Ec4BHA_IoGY-rcQgyX98VT1LfJvzf184Ms6EqBHqJyQqlagl8XCGUUzU8V3oSDsRXMDKs5S3djhKJ-m0GU"
  },
  {
    "lat": 43.6449,
    "lon": 3.870441,
    "name": "Le Transfo Des Animaux",
    "url": "https://lh3.googleusercontent.com/6NblSxEKqr5v5CjuUQC00gfrpmCJsy3hKIzSvlrNVoBmg6p-mFuXY81yQZ_Zil5qAjcfkbU4O4DikhH0AvciIwHAxE4"
  },
  {
    "lat": 43.647938,
    "lon": 3.872109,
    "name": "Aire de piquenique de lavalette",
    "url": "https://lh3.googleusercontent.com/F4f-7VCZoHbPomk0cFit5GWhxwBBhN5M0tXbq616wIiCjPYrugYKLqNev868PORIZD8IuQDIgpLgghNL1j08pmIfuWX7O4mwsGFrHWcS"
  },
  {
    "lat": 43.64325,
    "lon": 3.874602,
    "name": "L\u0027ours",
    "url": "https://lh3.googleusercontent.com/ifxQFS-W848CPhE12fB0vdeG2zgl5Y-v77V9N0UAcNr1slhpDGxWMABsPGCUA-4WN31wpUCVEJpWuuAbj-8rTM0rDSFF"
  },
  {
    "lat": 43.639503,
    "lon": 3.874149,
    "name": "Serre Amazonienne",
    "url": "https://lh3.googleusercontent.com/z05OJGCAdy1pJNVgkyrcOyfIjo5LlBEZ_ZhcADGpMYdqJAVJtyTEWCq1uoWR4AA4mZsBbdWf9MUMrhzxnA9ldhIj2w"
  },
  {
    "lat": 43.642715,
    "lon": 3.878707,
    "name": "Menhir Du Zoo",
    "url": "https://lh3.googleusercontent.com/V2NwbTy0z2rEM-UHCFGmCHV_xHdFoLZWcMDOOPz2woUL31y7repqZl7SacOgGCsD49uNVbxnAwkllkdXvXN0B2SjeKA"
  },
  {
    "lat": 43.642586,
    "lon": 3.878453,
    "name": "Tour Du Zoo",
    "url": "https://lh3.googleusercontent.com/msjChzWEMg2ycRqqtbodS2U8X3yak-Jm22DLVaJZwPwYbTqsAWI75SWtmVip6EjG5iBeBNk6-mucYBsZLLBO_jEoiKY"
  },
  {
    "lat": 43.6486,
    "lon": 3.878539,
    "name": "Kayak",
    "url": "https://lh3.googleusercontent.com/zJ3tPS_8q6c0YFwUOo6td06lszWOBstI8bxjB1R1lCEShMi-UQtZDCtb-FP2y7IYD5AswVnXHTOQfzaXhTvhFgYlQ9Mo"
  },
  {
    "lat": 43.645023,
    "lon": 3.882355,
    "name": "Gorille Samouraï À Califourchon Sur Un Cochon",
    "url": "https://lh3.googleusercontent.com/rH5mNwdlwl2FoSwL44N-yQ94mV2m-WvOQniMw-08A89pTVBAIyF-8Uz4Duz-i4QTRjOWHe7JogyRbWebRxajKjenNfM"
  },
  {
    "lat": 43.642467,
    "lon": 3.881517,
    "name": "Dromadaire et ane de provence",
    "url": "https://lh3.googleusercontent.com/StemnjuOaZAmIGQF8EUBtFcKHgsLCrtH9gLWqTujdCyLuGd4psyitxnGPm5AXVpv1xjfy_UBx2zC3vH-0ieNX423k6yQTL7zcjFjTHQ"
  },
  {
    "lat": 43.64196,
    "lon": 3.880986,
    "name": "Mouton du Cameroun",
    "url": "https://lh3.googleusercontent.com/SqYwpB3nF683hbKQaLSJnAKo1IsmIESEANqczKekJaP8dmuprKJpW9HliLC0efac-SNM8S6UjcNm3lI0bIQaozWBU3LioOyRr4qCBIo"
  },
  {
    "lat": 43.63033,
    "lon": 3.878395,
    "name": "Carmel",
    "url": "https://lh3.googleusercontent.com/-gPHlEabzt6H7BdmOMhwUOKOl0iP-SSgzq6_d_YXQRhsu244oQiQwtABiHaF1BEww8j5NzBcTcyCqFU1AWkRPJQ1nPnW"
  },
  {
    "lat": 43.6317,
    "lon": 3.890441,
    "name": "Domaine De Méric - Espace Vert",
    "url": "https://lh3.googleusercontent.com/7hbo5RLhwAZtS_gCeyKRvI8tBMU88F5V6KCwBF3kGWzBlE5m75wuyGurQ6j2ayiaGGW4i5gTeopw4syBu4iu0AqwaLM"
  },
  {
    "lat": 43.63308,
    "lon": 3.895775,
    "name": "Ancienne Mairie De Castelnau",
    "url": "https://lh3.googleusercontent.com/bkdeKHov-Pl8gXykLsb6ofuJ4cIORPLvtYDHb7CdNxJkAc1tLfycVygpt_iL3Rc_9DVt-kRbdjJWdUa9EFpCsc8TcQ"
  },
  {
    "lat": 43.633068,
    "lon": 3.894914,
    "name": "Église Saint Jean-Baptiste",
    "url": "https://lh3.googleusercontent.com/_95qzK74D1wdDAFz_KUeJOUDtCnO3dXd3vuIabtUP1yZK8vopDgtBy2KPuVWyg3_rthy0rtGp4pZatFoJbLRahWCqg-E"
  },
  {
    "lat": 43.634743,
    "lon": 3.895074,
    "name": "Fresque Paysagère",
    "url": "https://lh3.googleusercontent.com/eTo8unlxAWDnXoQCSLyfDyRl0vx85q0yQ-uOQcgSfD5kWTLy-xEmrYKILHwSj7qj_BqpweIJWSGmPmUW4Z8S5xUTJNuS"
  },
  {
    "lat": 43.633965,
    "lon": 3.895404,
    "name": "Trompe L\u0027oeil Des Glycines",
    "url": "https://lh3.googleusercontent.com/5xNLgU13rQ9eagz8VMeEX27wACbyrCHdD_US3U4IA32IoLglRyb5Dk2Z_NY9QNRHo3MaClIKivBgVUT6bfBbngocKQ"
  },
  {
    "lat": 43.634132,
    "lon": 3.890249,
    "name": "Les Paons De L\u0027ancien Moulin",
    "url": "https://lh3.googleusercontent.com/mtOsT7xrsu-CyLF4RzoHBKncPfEuV3y--ANukvG6uYwoqEz1vRMkSfMmdslRHa4bDWs9nOK6Ko2QSpJG0N2HePeUads"
  },
  {
    "lat": 43.640884,
    "lon": 3.887629,
    "name": "Pierre Reserve Naturelle Du Lez",
    "url": "https://lh3.googleusercontent.com/mB8CVZ5kYgTl6B3t4wRMZ0L9Ru2rq06qYvQ-VnEsIaw24vY6pWDa2sFMpOStgOqhOPSoUXMu-ZSWahIy1vIuS4qZ1H4"
  },
  {
    "lat": 43.640602,
    "lon": 3.891277,
    "name": "Réserve Naturelle Entrée Est",
    "url": "https://lh3.googleusercontent.com/7YY63F9dIc67DMnkIybDqhPgYrJwUbKLORHNxmz9UlX9_NsHjI2Hap_Axqpyofwwmrn9lO3AVPvltoCPQsOMaj_dTBg"
  },
  {
    "lat": 43.643417,
    "lon": 3.902806,
    "name": "Boulodrome de quartier",
    "url": "https://lh3.googleusercontent.com/C2E91DCCWn00IKTLPVqbOnG5t6Q709G9DCVwZ4X1Eb0vcllXUhWo-NAvAGGG8weLsuQt6xQnpD0N1cH1EV0wfUh6OwtLN02v2azTEmkA"
  },
  {
    "lat": 43.63401,
    "lon": 3.906067,
    "name": "4D",
    "url": "https://lh3.googleusercontent.com/ZJQaYFd7yoEsWI_YE2Xve5BLUXazvdKalRLs_5zSI6JXNoUiW69n1vpSng-RbKATaLeN8FNWVvWf7HmmMPCXk9Dz5R8"
  },
  {
    "lat": 43.634506,
    "lon": 3.900457,
    "name": "Morts Indochine",
    "url": "https://lh3.googleusercontent.com/9Vlv0Rd3bZww82IRj9PV_WTw-keHDOaH1lS9Hd2I6V8wd7TVPLj-TnBdmlZ5SVFbD08y82plfqqKTCtfqjemrLNodRuu"
  },
  {
    "lat": 43.63176,
    "lon": 3.897189,
    "name": "Vieux Cimetière De Castelnau",
    "url": "https://lh3.googleusercontent.com/o4gKMwfsR6wcM-w0SjuQ6n0cA3b1wN2lxmUU5EJCAwFnFcq0lZRIkjWN3Yh_CKPLw3H0ZVTuFvyiZW2kZNhvL1EhQmc"
  },
  {
    "lat": 43.63219,
    "lon": 3.899105,
    "name": "Fontaine À La Cascade",
    "url": "https://lh3.googleusercontent.com/ZFTBzmFOm7_GNg7mAwqh5TCPk0G2BBHKl_Mfs3M91oVOF7j1eHVUxMiMvRaOOwjSu-hEd5XOdqXgV7U0uytLmxthLg"
  },
  {
    "lat": 43.630398,
    "lon": 3.902062,
    "name": "Allee De L\u0027honneur",
    "url": "https://lh3.googleusercontent.com/7_ZArn1_X_rVIL2UKo2PNhIQ3tbBURw-DQYRJtxb-rv9hF9HYNIIrx-tQrGNr9BnFAkArug83TGNaG3PAMVbG1H1sKMn"
  },
  {
    "lat": 43.630123,
    "lon": 3.902579,
    "name": "Clairval",
    "url": "https://lh3.googleusercontent.com/GBirtQrw_S9uxg_Zv_mhUbmZvJt0lbIeJ1g9Xz3VWKMlK8jgQXtAZaaWF8tl7QYAaAKtxYJMBI2voB--FiZ8smxETVI"
  },
  {
    "lat": 43.628357,
    "lon": 3.904162,
    "name": "Terrain de Basket-ball",
    "url": "https://lh3.googleusercontent.com/mioA8kDeZNosmfdpQAJwZqnOpylCDmE3Cgd057rfHD3Ir3D3Ip04u_8bvUPC4tA6yongq6vBOAXvvsqjRFlbzkj3g9E6"
  },
  {
    "lat": 43.627945,
    "lon": 3.902842,
    "name": "Jardin D Enfants De Castelnau Le Lez",
    "url": "https://lh3.googleusercontent.com/1E4D41U6kedKX2ItEKCXWIesephAW3ZhvnqwQ3yRXz_re683wS32syl_FMCEzTF6npsvykxUy6m502U2uGGfSKVqB50"
  },
  {
    "lat": 43.620956,
    "lon": 3.899819,
    "name": "kiosque des Pastourelles",
    "url": "https://lh3.googleusercontent.com/bpRDttb3JsKmH4P-DvEkfsQSBvb0SRsjAXCuHk4cuNYWElZFPCpVa0Kr63FJqdhJvbMDRLduHaoVJM04GUBFI3Hf22Vi"
  },
  {
    "lat": 43.620255,
    "lon": 3.901094,
    "name": "Piscine Jean Taris",
    "url": "https://lh3.googleusercontent.com/UMGoND8_VQGSuCFDaAp12v8X_C-a70j1WPpz2atMV2fpxTJp3jjYo0JHQcN6g7mgAaNy3Jm0cwf6lYOOXcP1U7nfiw"
  },
  {
    "lat": 43.626717,
    "lon": 3.898912,
    "name": "Coccipierre De La Frontière",
    "url": "https://lh3.googleusercontent.com/6YKtEjmeXwY5q-zyw7F3lScSSluxZb8rt4GIfg2czlIYxl_h4M0CpS--2fZ-s9H0I6MgxtErLL8EA5losEH622TbGrI"
  },
  {
    "lat": 43.628593,
    "lon": 3.897837,
    "name": "Station Charles de Gaulle",
    "url": "https://lh3.googleusercontent.com/-UzLVzZqBT1nnmS-zyH-eeKcfo_96uOl39rSqQQlnZ4V3PxWlRF2j9zVj55c0F49gK5zqAJGTexYPJGvmpnVFOifgDc"
  },
  {
    "lat": 43.625504,
    "lon": 3.892598,
    "name": "Mémorial Indochinois Guerre 1914-1918",
    "url": "https://lh3.googleusercontent.com/6jfJMjNKVtdwwzt2Im6P3LzfCpn6Y_Ek0lCUx0QEUtpngGyZUrUHHUUG5TR37tRJw1AqT-BtGfyjuFyLdSgOCjg1LxfW"
  },
  {
    "lat": 43.62848,
    "lon": 3.894098,
    "name": "La Pieuvre De Castelnau",
    "url": "https://lh3.googleusercontent.com/A6FsHmUrR3o_MO9sb4bhjlTkWK7KorSCRnZzknGmMne_36TJsx5Npd_Wzt1_rRITCMYbKlt2ixXzDcYj3HqTjCvMbII"
  },
  {
    "lat": 43.62481,
    "lon": 3.889318,
    "name": "Hélène De Savoie",
    "url": "https://lh3.googleusercontent.com/IcrhCq5wZZyB6SxvIZexEvyItUrtfMv1VYCHjLSe5qavCIeMeVvi9SR4MGXBkP6yKEVtTHNutqH3geFCSJvbok_nnYYX"
  },
  {
    "lat": 43.62596,
    "lon": 3.889962,
    "name": "Place Du Souvenir Français",
    "url": "https://lh3.googleusercontent.com/mmBq_tFbXyrVJulJ_kivfIM_dkGYYUo0USMVWoCCePAijR9wAzzdSxsqu8tFjggN61nxL0ui3aAQMqICo7h8R_XNUDy_"
  },
  {
    "lat": 43.624146,
    "lon": 3.888992,
    "name": "Nouveau Cimetière",
    "url": "https://lh3.googleusercontent.com/JeOwBbmqIvav30r4mUEx1lr7YZu29EHxWStAbEgxLNLLRxtkjiXzpcXAioIfQuGHnhyr8eG2-iqLZYkaApzcOVY8KmKf"
  },
  {
    "lat": 43.62274,
    "lon": 3.888312,
    "name": "Parc Édith Piaf",
    "url": "https://lh3.googleusercontent.com/4vVGQ-FFCEw9CQ2yAGiZ6_lDG8QGoP9XI-9Fe958D6M17ZZC9msfmNu-5GMNvmGyE5NAH7MZ24FQGi1y5UmkWArGag"
  },
  {
    "lat": 43.617943,
    "lon": 3.893718,
    "name": "Fontaine Rimbaud",
    "url": "https://lh3.googleusercontent.com/yfweXMWtvb2pDy6h_cm7zcwBmtY-wtNtijwuoIhPOpZHxNQiz48MczqAbiqh30gWsCY4In9hO5S4KH9MTr9sTFATep0"
  },
  {
    "lat": 43.61889,
    "lon": 3.893798,
    "name": "Plaque Commémorative De Montpellier",
    "url": "https://lh3.googleusercontent.com/TdbqpDUXp2LOWzeuYXhkospWjq84qen2KSEVMiVmGNGDS6osvvh2KcRFn-R8YckVxkFG6_V1AbPLoDUSOwaT-a_-CJI"
  },
  {
    "lat": 43.618065,
    "lon": 3.886198,
    "name": "Curiosité",
    "url": "https://lh3.googleusercontent.com/APatICfR8WTyjptjBSWo5FL7U28xZw2mwwdp9qah1wt57jHlXWwfrtsuvdisAF-JfCibXn-UIddE3cir7k3bU7yQaRw"
  },
  {
    "lat": 43.610207,
    "lon": 3.890703,
    "name": "Statue de Montmorency",
    "url": "https://lh3.googleusercontent.com/CA4A8TzljGAjb8ulqmIQmWWC_DgShDfjv4LpB4IHFtOlW4a6z6b0IkvhOjiSk6Sw2ZPAIhRJwDCmSMPyH-CGuTkQbMDM6nCd22VYrVTo"
  },
  {
    "lat": 43.61392,
    "lon": 3.888234,
    "name": "Arret Tramway Les Aubes",
    "url": "https://lh3.googleusercontent.com/jq9VQX5u9AfIXZ6xypMxagBkInpIaf5JAwKx3T4Fk109SorcqZXp4knCpTT-SHMVGP-Hx2qAWP-OLaEZp0JQxwJHKAj-"
  },
  {
    "lat": 43.610516,
    "lon": 3.895506,
    "name": "Immeuble Pierrafeu",
    "url": "https://lh3.googleusercontent.com/-IbQbtBAdqwtmhg5sd05TUeXsEPTXvzg-4DrbN6tFabdSS16O6ltsb0YNWFP1GIvyhnm7Zu_lsbbD8qPEuO5nmTpXpU"
  },