[
  {
    "lat": 43.61032,
    "lon": 3.865122,
    "name": "Licorne de l’alcôve",
    "url": "https://lh3.googleusercontent.com/Fzygxp4FZdiU1HmswgictVKwzBO9172PZVco_PmnFHsQy-D-uJM-hEezVh3KkzGKi8gvUWoFWiCVg9fQm6cpZe_Mvg"
  },
  {
    "lat": 43.608414,
    "lon": 3.862872,
    "name": "Fouquet Architecture",
    "url": ""
  },
  {
    "lat": 43.624695,
    "lon": 3.864613,
    "name": "Student Residence Artémisia Montpellier Saint-Eloi",
    "url": ""
  },
  {
    "lat": 43.624622,
    "lon": 3.862703,
    "name": "Résidence étudiante Nemea Montpellier Paul Valery",
    "url": ""
  },
  {
    "lat": 43.61574,
    "lon": 3.862698,
    "name": "Micro Crèche le Petit Chemin",
    "url": ""
  },
  {
    "lat": 43.61793,
    "lon": 3.86524,
    "name": "C\u0026c Immobilier Montpellier",
    "url": ""
  },
  {
    "lat": 43.61149,
    "lon": 3.861592,
    "name": "Jourdan Guy",
    "url": ""
  },
  {
    "lat": 43.612827,
    "lon": 3.865091,
    "name": "Anafagc",
    "url": ""
  },
  {
    "lat": 43.613506,
    "lon": 3.866729,
    "name": "Vival",
    "url": ""
  },
  {
    "lat": 43.610847,
    "lon": 3.866251,
    "name": "Fresque Obscure",
    "url": "https://lh3.googleusercontent.com/5xznCyuv1ovkZIiN5cGT2gR7H9gM_fRiuNCf-TA_x0J3mLV7wfkRxlzQmRMmGuNqgJZez2Q-viexded-0k_EXmp-pGnV"
  },
  {
    "lat": 43.616634,
    "lon": 3.870357,
    "name": "Technolabs",
    "url": ""
  },
  {
    "lat": 43.61674,
    "lon": 3.869013,
    "name": "Hotel Acapulco",
    "url": ""
  },
  {
    "lat": 43.618034,
    "lon": 3.872811,
    "name": "Vitraux de la Chapelle du Château",
    "url": "https://lh3.googleusercontent.com/rDubIUui_g_Fu_7byavo7YDHjMkb-Mh8H1Z_PR6c1Knfd8tCTyptqvXIvjDlB29zEK4ENepd19o2wO4OBs1Lwo40Ow"
  },
  {
    "lat": 43.61989,
    "lon": 3.873349,
    "name": "Salon Mixte Arc en Ciel",
    "url": ""
  },
  {
    "lat": 43.612957,
    "lon": 3.87525,
    "name": "L\u0027Osteria",
    "url": ""
  },
  {
    "lat": 43.61388,
    "lon": 3.872308,
    "name": "Citation De Valery-larbaud",
    "url": "https://lh3.googleusercontent.com/Z1JErls7ew3z8n5bdXjFyKchDaAzLWpQB5LtOtph0csA-BHOho1Xh4NwjST_yShItmaUaqNR0HCqI7JsvGBX_3D40g"
  },
  {
    "lat": 43.613857,
    "lon": 3.877074,
    "name": "Djaam",
    "url": ""
  },
  {
    "lat": 43.611065,
    "lon": 3.876152,
    "name": "Snapbed",
    "url": ""
  },
  {
    "lat": 43.610996,
    "lon": 3.880993,
    "name": "Kiosque à Malices",
    "url": ""
  },
  {
    "lat": 43.610226,
    "lon": 3.882161,
    "name": "Pavillon Populaire de Montpellier",
    "url": ""
  },
  {
    "lat": 43.61719,
    "lon": 3.882159,
    "name": "Le Vieux Biclou",
    "url": ""
  },
  {
    "lat": 43.615974,
    "lon": 3.882258,
    "name": "Troc\u0026Mode kids",
    "url": ""
  },
  {
    "lat": 43.61637,
    "lon": 3.879184,
    "name": "Studio Lakanal",
    "url": ""
  },
  {
    "lat": 43.616856,
    "lon": 3.879628,
    "name": "Chic Et Boheme",
    "url": ""
  },
  {
    "lat": 43.623768,
    "lon": 3.88519,
    "name": "Opus Développement S.A.R.L.",
    "url": ""
  },
  {
    "lat": 43.62267,
    "lon": 3.881034,
    "name": "Groupe ACPPA",
    "url": ""
  },
  {
    "lat": 43.62089,
    "lon": 3.872254,
    "name": "Richard Mindren Expertise Construction",
    "url": ""
  },
  {
    "lat": 43.62345,
    "lon": 3.873522,
    "name": "Gourvès Rigal Josiane",
    "url": ""
  },
  {
    "lat": 43.623608,
    "lon": 3.867392,
    "name": "Villa Boutonnet",
    "url": ""
  },
  {
    "lat": 43.62237,
    "lon": 3.866424,
    "name": "Le Bœuf Restaurant",
    "url": ""
  },
  {
    "lat": 43.622925,
    "lon": 3.888498,
    "name": "Elaïné Franzini Soria",
    "url": ""
  },
  {
    "lat": 43.622448,
    "lon": 3.888431,
    "name": "Jeu fleur",
    "url": "https://lh3.googleusercontent.com/vQHJ0Gwx0y0ggbQlIqmWS3Gm8xDAzPaVM0th5lwGh8Wjn9uw3cwmnKPdiyLFf3fQYHDT1daZbuMkCVqciyac5nNQsLBlksVbR1xWtSY"
  },
  {
    "lat": 43.621075,
    "lon": 3.893728,
    "name": "Le Jardin des Frangins",
    "url": ""
  },
  {
    "lat": 43.623074,
    "lon": 3.893698,
    "name": "Tai Chi Centre",
    "url": ""
  },
  {
    "lat": 43.619396,
    "lon": 3.892359,
    "name": "Bricorama",
    "url": ""
  },
  {
    "lat": 43.617973,
    "lon": 3.894231,
    "name": "Boulodrome Rimbaud",
    "url": "https://lh3.googleusercontent.com/gyr2zKaJcfRzjjj1p6pJWOiLh_ZRDZVyWt1tUep71cD9J9EJP8eVOo84277TSEgRTTkIPnouqK0uBFSyvv2I97anj7w"
  },
  {
    "lat": 43.61745,
    "lon": 3.890412,
    "name": "Belugou Aimee",
    "url": ""
  },
  {
    "lat": 43.61743,
    "lon": 3.886859,
    "name": "Martineau Jean-Luc",
    "url": ""
  },
  {
    "lat": 43.61007,
    "lon": 3.888661,
    "name": "FO Union Départementale",
    "url": ""
  },
  {
    "lat": 43.6146,
    "lon": 3.890949,
    "name": "Hairbrushing Montpellier",
    "url": ""
  },
  {
    "lat": 43.613262,
    "lon": 3.892015,
    "name": "Centre de gynecologie-obstetrique",
    "url": ""
  },
  {
    "lat": 43.609837,
    "lon": 3.894559,
    "name": "Novotel Suites Montpellier",
    "url": ""
  },
  {
    "lat": 43.61122,
    "lon": 3.897726,
    "name": "Olmos Staff",
    "url": ""
  },
  {
    "lat": 43.61233,
    "lon": 3.898099,
    "name": "LA CASA DE LA PAELLA traiteur",
    "url": ""
  },
  {
    "lat": 43.608265,
    "lon": 3.891907,
    "name": "Montpellier Campsite - Helpful",
    "url": "https://lh3.googleusercontent.com/8FyZ2O0V44CLfJxUfdBcHGMXrSBH9c9Vdi34icPzDgRGPV5u-vEDfldSEB9az-RmTGvjLg-5_RgQ2lTHSOq6gyRrhhw_21PcmMX5iWT_"
  },
  {
    "lat": 43.607067,
    "lon": 3.893132,
    "name": "Piscine Olympique d\u0027Antigone",
    "url": ""
  },
  {
    "lat": 43.607574,
    "lon": 3.891118,
    "name": "Montpellier Campsite - Camaraderie",
    "url": "https://lh3.googleusercontent.com/zoIYbR94WkeSygYceE91rft-CjRVDxf9Ez4ffU3Co5Bd8dVtwHMfMLKyG2tFHh6zBKYb5DvG6SqeTIMfs_x0IPeDHrxiiW4I0NDBDcE"
  },
  {
    "lat": 43.608463,
    "lon": 3.893593,
    "name": "Médiathèque Centrale Emile Zola",
    "url": ""
  },
  {
    "lat": 43.606106,
    "lon": 3.889524,
    "name": "Le Thélème Experts Comptables SCM",
    "url": ""
  },
  {
    "lat": 43.605293,
    "lon": 3.888522,
    "name": "Le Globe",
    "url": ""
  },
  {
    "lat": 43.60645,
    "lon": 3.88189,
    "name": "Ba La Chuoi",
    "url": ""
  },
  {
    "lat": 43.607803,
    "lon": 3.884883,
    "name": "F.V.I",
    "url": ""
  },
  {
    "lat": 43.607464,
    "lon": 3.877216,
    "name": "Hôtel des Etuves",
    "url": ""
  },
  {
    "lat": 43.60937,
    "lon": 3.879461,
    "name": "Pandora",
    "url": ""
  },
  {
    "lat": 43.606953,
    "lon": 3.875473,
    "name": "Le Dernier Sou",
    "url": ""
  },
  {
    "lat": 43.60959,
    "lon": 3.875486,
    "name": "Nateo",
    "url": ""
  },
  {
    "lat": 43.607353,
    "lon": 3.869274,
    "name": "Les Ferronniers du Languedoc : Ferronnerie Montpellier",
    "url": ""
  },
  {
    "lat": 43.60637,
    "lon": 3.867792,
    "name": "Lou Loue Coursier Moto",
    "url": ""
  }
]