[
  {
    "lat": 43.550182,
    "lon": 3.708382,
    "name": "L\u0027Atelier de la Pizza",
    "url": ""
  },
  {
    "lat": 43.549587,
    "lon": 3.710692,
    "name": "Terrain de sport",
    "url": "https://lh3.googleusercontent.com/mDNa_qqvAFN8EHclLfrO18s5IfSuzxcirpwCAL8aC6QMegpxxduxesuFaA8xCbR3U5dD33lK8gNtQtx-CHPaGUQ-QrGXR92n9eUS6HKc"
  },
  {
    "lat": 43.551727,
    "lon": 3.716613,
    "name": "Intermarché SUPER Cournonsec et Drive",
    "url": ""
  },
  {
    "lat": 43.550835,
    "lon": 3.714315,
    "name": "Hec Proprete",
    "url": ""
  },
  {
    "lat": 43.551365,
    "lon": 3.714135,
    "name": "Intermarché",
    "url": ""
  },
  {
    "lat": 43.55033,
    "lon": 3.714272,
    "name": "Intermarché station-service Cournonsec",
    "url": ""
  },
  {
    "lat": 43.551163,
    "lon": 3.714808,
    "name": "Fleuriste Côté Jardin",
    "url": ""
  },
  {
    "lat": 43.553642,
    "lon": 3.716103,
    "name": "Dj philou sono 34",
    "url": ""
  },
  {
    "lat": 43.55328,
    "lon": 3.717393,
    "name": "Time Informatique",
    "url": ""
  },
  {
    "lat": 43.557167,
    "lon": 3.714521,
    "name": "Ctl Expert",
    "url": ""
  },
  {
    "lat": 43.556904,
    "lon": 3.717592,
    "name": "Citron et Meringue",
    "url": ""
  },
  {
    "lat": 43.556244,
    "lon": 3.716644,
    "name": "Le Clos du Théron",
    "url": ""
  },
  {
    "lat": 43.557343,
    "lon": 3.717208,
    "name": "Frenchie\u0027s Tacos",
    "url": ""
  },
  {
    "lat": 43.55637,
    "lon": 3.715909,
    "name": "Foyer Marthe Armand Daney",
    "url": "https://lh3.googleusercontent.com/AmbeFHgXWyRSNx49qJqaWA8OtokxhNFn3X8-5_VDXO1JXY8J5C3vrB8VpCiFtSNz3ITjblZZAwZzryqYiPu2E6wzVpU"
  },
  {
    "lat": 43.555878,
    "lon": 3.714748,
    "name": "Croix Saint Julien",
    "url": ""
  },
  {
    "lat": 43.557583,
    "lon": 3.719226,
    "name": "New Styl\u0027s",
    "url": ""
  },
  {
    "lat": 43.55512,
    "lon": 3.719745,
    "name": "Littoral Echafaudage 34",
    "url": ""
  },
  {
    "lat": 43.557323,
    "lon": 3.7212,
    "name": "Jardiniers SAP Cournonterral",
    "url": ""
  },
  {
    "lat": 43.555096,
    "lon": 3.722783,
    "name": "Cournon Club Musculation",
    "url": ""
  },
  {
    "lat": 43.55759,
    "lon": 3.718523,
    "name": "Boulangerie Patisserie Axelle Alexandre et Fleurette VANRUYMBEKE",
    "url": ""
  },
  {
    "lat": 43.557335,
    "lon": 3.72317,
    "name": "Cave de l\u0027ormarine",
    "url": ""
  },
  {
    "lat": 43.555912,
    "lon": 3.721754,
    "name": "Malta Bene",
    "url": ""
  },
  {
    "lat": 43.55665,
    "lon": 3.72065,
    "name": "Pizz’a Gogo Cournonterral",
    "url": ""
  },
  {
    "lat": 43.557663,
    "lon": 3.720132,
    "name": "La Poste",
    "url": ""
  },
  {
    "lat": 43.555668,
    "lon": 3.722758,
    "name": "Terrain de Tambourin Max Rouquette",
    "url": ""
  },
  {
    "lat": 43.551247,
    "lon": 3.720509,
    "name": "Cournon pressing",
    "url": ""
  },
  {
    "lat": 43.549534,
    "lon": 3.719315,
    "name": "EK IMPRESSIONS Imprimerie",
    "url": ""
  },
  {
    "lat": 43.547615,
    "lon": 3.720225,
    "name": "Le Clos d\u0027Elle",
    "url": ""
  },
  {
    "lat": 43.553013,
    "lon": 3.723839,
    "name": "Lucie Patinage",
    "url": ""
  },
  {
    "lat": 43.55382,
    "lon": 3.724053,
    "name": "Les chats sans toit",
    "url": ""
  },
  {
    "lat": 43.55449,
    "lon": 3.725991,
    "name": "Cayzac Architecture",
    "url": ""
  },
  {
    "lat": 43.5576,
    "lon": 3.7272,
    "name": "Occiréno",
    "url": ""
  },
  {
    "lat": 43.55751,
    "lon": 3.726251,
    "name": "Les Ecuries des Moulières",
    "url": ""
  },
  {
    "lat": 43.556667,
    "lon": 3.725989,
    "name": "Boxing Club de Cournonterral",
    "url": ""
  },
  {
    "lat": 43.559826,
    "lon": 3.727687,
    "name": "Carrefour Spectacles",
    "url": ""
  },
  {
    "lat": 43.562588,
    "lon": 3.724662,
    "name": "Doffin Didier",
    "url": ""
  },
  {
    "lat": 43.565376,
    "lon": 3.723855,
    "name": "Les Vtc du Sud",
    "url": ""
  },
  {
    "lat": 43.564453,
    "lon": 3.72381,
    "name": "Bauer Jonathan Joseph Loui",
    "url": ""
  },
  {
    "lat": 43.564907,
    "lon": 3.726275,
    "name": "Point.P - Cournonterral",
    "url": ""
  },
  {
    "lat": 43.564064,
    "lon": 3.724089,
    "name": "Steis Paysagiste Travaux Cournonterral",
    "url": ""
  },
  {
    "lat": 43.563793,
    "lon": 3.729097,
    "name": "Auto Controle du Coulazou",
    "url": ""
  },
  {
    "lat": 43.558323,
    "lon": 3.729133,
    "name": "Atelier Sud Carrosserie",
    "url": ""
  },
  {
    "lat": 43.569492,
    "lon": 3.737067,
    "name": "Elevage Les Garrigues PLANES - Roger MIRA - Cournonterral",
    "url": ""
  },
  {
    "lat": 43.567783,
    "lon": 3.731072,
    "name": "Tramois Plomberie 34",
    "url": ""
  },
  {
    "lat": 43.55885,
    "lon": 3.719273,
    "name": "Source du THERON",
    "url": "https://lh3.googleusercontent.com/kP0BwTzecfRYkMbHd7_WEFcJy6dMsxqRab5LUjJkXWyC7hJSZ80XOeYUPnSghQfrUKCmjUYGHpZEJo64NIvFq37w9_3ulHm6cSHfsoKU"
  },
  {
    "lat": 43.558346,
    "lon": 3.717997,
    "name": "L\u0027Atelier à Dorer",
    "url": ""
  },
  {
    "lat": 43.60486,
    "lon": 3.736601,
    "name": "Chez Juju et Bea",
    "url": ""
  },
  {
    "lat": 43.60422,
    "lon": 3.736893,
    "name": "Église Saint-Jean-Baptiste de Murviel-lès-Montpellier",
    "url": ""
  },
  {
    "lat": 43.604435,
    "lon": 3.733541,
    "name": "Street art",
    "url": "https://lh3.googleusercontent.com/lFDCpe_SNI7LZFwUzTwFBP7IOo5JwyiGfi_Z6FjVg-Lvzau0XUvj3QFnEQVUM5kO6lpDBUhHdsr1ikRI9SyWxAi0ST9gUyd40158Ly6y"
  },
  {
    "lat": 43.603897,
    "lon": 3.735674,
    "name": "Cave Coopérative",
    "url": ""
  },
  {
    "lat": 43.606045,
    "lon": 3.736211,
    "name": "Poste Murviel",
    "url": "https://lh3.googleusercontent.com/GoJd_3ybMYpMroOwpO6GHUHvWGt9-DbfIK7eOLeOtDsFhfRVSzm_EJ_3ecGgTZj1evLwuFAGskR3Jc9OkaiTGKUS0g"
  },
  {
    "lat": 43.606857,
    "lon": 3.735507,
    "name": "Les Jardins de la Fontaine",
    "url": ""
  },
  {
    "lat": 43.609013,
    "lon": 3.735132,
    "name": "Site archéologique du Castellas",
    "url": ""
  },
  {
    "lat": 43.60586,
    "lon": 3.737372,
    "name": "Le Lavoir",
    "url": "https://lh3.googleusercontent.com/dtwcwpCv1AFmqJC6nwXSZSaQOpU8TyVfNsFh6kWKOCR-6u0LFC8Jh-hodRSHvPAr2e6B16YyNyXdr6l7SxsLGPpB8D8"
  },
  {
    "lat": 43.605713,
    "lon": 3.73637,
    "name": "Domaine Saint Julia",
    "url": ""
  },
  {
    "lat": 43.605743,
    "lon": 3.734736,
    "name": "Murviel Coiffure",
    "url": ""
  },
  {
    "lat": 43.60682,
    "lon": 3.741302,
    "name": "DB Multiservice 34",
    "url": ""
  },
  {
    "lat": 43.60741,
    "lon": 3.740058,
    "name": "Les 7 Péchés",
    "url": ""
  },
  {
    "lat": 43.64472,
    "lon": 3.737872,
    "name": "Ca Déménage",
    "url": ""
  },
  {
    "lat": 43.6438,
    "lon": 3.738233,
    "name": "Sapeurs-Pompiers de l\u0027Hérault - SDIS 34",
    "url": ""
  },
  {
    "lat": 43.646072,
    "lon": 3.741058,
    "name": "Sud Recyclage Ets",
    "url": ""
  },
  {
    "lat": 43.648315,
    "lon": 3.739787,
    "name": "BB Kombucha",
    "url": ""
  },
  {
    "lat": 43.64346,
    "lon": 3.720279,
    "name": "Elodie",
    "url": ""
  },
  {
    "lat": 43.665726,
    "lon": 3.709294,
    "name": "les Bulles de Carole",
    "url": ""
  },
  {
    "lat": 43.667377,
    "lon": 3.714988,
    "name": "Thevenet Marie-Aude",
    "url": ""
  },
  {
    "lat": 43.667847,
    "lon": 3.71997,
    "name": "Vailhauques : Skate Parc",
    "url": "https://lh3.googleusercontent.com/tsAABe70NdVJdAn06ztd3PmB4vPvvZj0KFsc08SKdh57ZjOxt3WtD-MJdUQQYsn7EwyGmSS2dzNvfZyxoSajaT52T-U"
  },
  {
    "lat": 43.663055,
    "lon": 3.72213,
    "name": "Domaine Croix de Félix",
    "url": ""
  },
  {
    "lat": 43.66069,
    "lon": 3.724015,
    "name": "Microtechnic",
    "url": ""
  },
  {
    "lat": 43.667896,
    "lon": 3.736577,
    "name": "Domaine du Poujol",
    "url": ""
  },
  {
    "lat": 43.662727,
    "lon": 4.027428,
    "name": "Transports Rouille \u0026 Coulon",
    "url": ""
  },
  {
    "lat": 43.66296,
    "lon": 4.025982,
    "name": "Direct\u0027diag",
    "url": ""
  },
  {
    "lat": 43.6648,
    "lon": 4.024171,
    "name": "Nebout Régis",
    "url": ""
  },
  {
    "lat": 43.66469,
    "lon": 4.023399,
    "name": "Mon Conseiller Web",
    "url": ""
  },
  {
    "lat": 43.665173,
    "lon": 4.021776,
    "name": "Dépannage informatique Clangen",
    "url": ""
  },
  {
    "lat": 43.66503,
    "lon": 4.019646,
    "name": "Le Phénicien",
    "url": ""
  },
  {
    "lat": 43.667656,
    "lon": 4.017594,
    "name": "L\u0027Ombrette",
    "url": ""
  },
  {
    "lat": 43.666588,
    "lon": 4.016651,
    "name": "Roulez Gourmets",
    "url": ""
  },
  {
    "lat": 43.66471,
    "lon": 4.015524,
    "name": "1001-Services.Com",
    "url": ""
  },
  {
    "lat": 43.667023,
    "lon": 4.017763,
    "name": "Restaurant l\u0027Ombrette",
    "url": ""
  },
  {
    "lat": 43.666397,
    "lon": 4.011101,
    "name": "Komagaou",
    "url": ""
  },
  {
    "lat": 43.663727,
    "lon": 4.009566,
    "name": "Corinne Pérignon Events",
    "url": ""
  },
  {
    "lat": 43.665386,
    "lon": 4.008329,
    "name": "Groupe Flot",
    "url": ""
  },
  {
    "lat": 43.664192,
    "lon": 4.008581,
    "name": "Souad Beauty Center",
    "url": ""
  },
  {
    "lat": 43.664444,
    "lon": 4.001412,
    "name": "La Chevre Baillarguoise",
    "url": ""
  },
  {
    "lat": 43.659695,
    "lon": 4.006802,
    "name": "Rezkallah Hassen",
    "url": ""
  },
  {
    "lat": 43.660458,
    "lon": 4.008253,
    "name": "CM Coiff",
    "url": ""
  },
  {
    "lat": 43.657036,
    "lon": 4.007523,
    "name": "So Paie",
    "url": ""
  },
  {
    "lat": 43.656857,
    "lon": 4.005135,
    "name": "Antiquités Brocante Ancien Relais",
    "url": ""
  },
  {
    "lat": 43.656082,
    "lon": 4.004388,
    "name": "TrouveToo",
    "url": ""
  },
  {
    "lat": 43.655655,
    "lon": 3.99928,
    "name": "Boulangerie Victoire",
    "url": ""
  },
  {
    "lat": 43.655117,
    "lon": 3.999588,
    "name": "McDonald\u0027s",
    "url": ""
  },
  {
    "lat": 43.655903,
    "lon": 4.00121,
    "name": "Le Panier de Julie",
    "url": ""
  },
  {
    "lat": 43.656734,
    "lon": 4.002782,
    "name": "Baradaran Architecte",
    "url": ""
  },
  {
    "lat": 43.65524,
    "lon": 3.998555,
    "name": "Mondial Pare-Brise",
    "url": ""
  },
  {
    "lat": 43.657722,
    "lon": 4.00081,
    "name": "Presse People",
    "url": ""
  },
  {
    "lat": 43.654842,
    "lon": 3.998096,
    "name": "M.C.F",
    "url": ""
  },
  {
    "lat": 43.656506,
    "lon": 3.998885,
    "name": "Squash Héros 34 (bb Squash)",
    "url": ""
  },
  {
    "lat": 43.656185,
    "lon": 3.999941,
    "name": "Fasthôtel Montpellier Baillargues",
    "url": ""
  },
  {
    "lat": 43.657803,
    "lon": 3.999888,
    "name": "Rolling Beers",
    "url": ""
  },
  {
    "lat": 43.657047,
    "lon": 3.999564,
    "name": "Sissone",
    "url": ""
  },
  {
    "lat": 43.6554,
    "lon": 4.001165,
    "name": "Coriolis Telecom",
    "url": ""
  },
  {
    "lat": 43.659798,
    "lon": 4.000234,
    "name": "Intermarché Contact",
    "url": ""
  },
  {
    "lat": 43.656902,
    "lon": 3.997829,
    "name": "Sport Break",
    "url": ""
  },
  {
    "lat": 43.65617,
    "lon": 3.996945,
    "name": "Sovimar 34",
    "url": ""
  },
  {
    "lat": 43.654835,
    "lon": 3.996515,
    "name": "Fasver",
    "url": ""
  },
  {
    "lat": 43.653606,
    "lon": 3.997562,
    "name": "Montpellier Utilitaires",
    "url": ""
  },
  {
    "lat": 43.649273,
    "lon": 3.99167,
    "name": "Emmaüs",
    "url": ""
  },
  {
    "lat": 43.648582,
    "lon": 3.990338,
    "name": "Formule 1",
    "url": ""
  },
  {
    "lat": 43.65352,
    "lon": 3.999643,
    "name": "Ad Carrosserie et Garage Expert Laurier",
    "url": ""
  },
  {
    "lat": 43.6532,
    "lon": 4.000489,
    "name": "Marie Blachère Boulangerie Sandwicherie Tarterie",
    "url": ""
  },
  {
    "lat": 43.652927,
    "lon": 3.998206,
    "name": "Occitanie Poids Lourds",
    "url": ""
  },
  {
    "lat": 43.652752,
    "lon": 3.999544,
    "name": "CAMBON Enduits de façades",
    "url": ""
  },
  {
    "lat": 43.653873,
    "lon": 4.000154,
    "name": "Centre contrôle technique NORISKO",
    "url": ""
  },
  {
    "lat": 43.649944,
    "lon": 4.00206,
    "name": "Golf Leader Montpellier spécialiste du golf depuis 2003",
    "url": ""
  },
  {
    "lat": 43.653786,
    "lon": 3.999158,
    "name": "Gm Moto Services",
    "url": ""
  },
  {
    "lat": 43.65001,
    "lon": 4.002884,
    "name": "Histophile",
    "url": ""
  },
  {
    "lat": 43.652977,
    "lon": 4.001626,
    "name": "Axione",
    "url": ""
  },
  {
    "lat": 43.6519,
    "lon": 3.999526,
    "name": "La Maison de l\u0027Etancheur",
    "url": ""
  },
  {
    "lat": 43.649223,
    "lon": 4.002052,
    "name": "Hôtel de Massane",
    "url": ""
  },
  {
    "lat": 43.652885,
    "lon": 4.004806,
    "name": "Hurricane Parks",
    "url": ""
  },
  {
    "lat": 43.650444,
    "lon": 4.0036,
    "name": "Massane Loisirs",
    "url": ""
  },
  {
    "lat": 43.6526,
    "lon": 4.006723,
    "name": "Baillargues",
    "url": "https://lh3.googleusercontent.com/TYLexZtsB822PRt2xt322OsZc5ZjSzcSrEDTUd48BrRjxnr9y0shsDM5VTnBsAbXgP8LTDG9GywIqpiBUTWkB37oRR_ehyJGkNJqORdxvQ"
  },
  {
    "lat": 43.653057,
    "lon": 4.003326,
    "name": "Pole Formation",
    "url": ""
  },
  {
    "lat": 43.651344,
    "lon": 4.003313,
    "name": "Cabinet Fruste \u0026 Associés",
    "url": ""
  },
  {
    "lat": 43.65024,
    "lon": 4.003723,
    "name": "Golf de Montpellier Massane",
    "url": ""
  },
  {
    "lat": 43.646816,
    "lon": 4.010642,
    "name": "BHZ Conseil",
    "url": ""
  },
  {
    "lat": 43.647182,
    "lon": 4.010138,
    "name": "Golfy Club Réseau",
    "url": ""
  },
  {
    "lat": 43.644,
    "lon": 4.014115,
    "name": "Académie Internationale des Métiers du Golf Ecole technologique privée",
    "url": ""
  },
  {
    "lat": 43.655945,
    "lon": 4.01259,
    "name": "S2E",
    "url": ""
  },
  {
    "lat": 43.65818,
    "lon": 4.008556,
    "name": "Danis-Baert Marianne",
    "url": ""
  },
  {
    "lat": 43.657856,
    "lon": 4.011294,
    "name": "Auto Moto Ecole Bleu Départ",
    "url": ""
  },
  {
    "lat": 43.656254,
    "lon": 4.009372,
    "name": "Lpcr Collectivites Publiques",
    "url": ""
  },
  {
    "lat": 43.658367,
    "lon": 4.009193,
    "name": "Tamoli | Tapis De Motricité Bébé",
    "url": ""
  },
  {
    "lat": 43.659977,
    "lon": 4.01101,
    "name": "FISE FLAT Academy",
    "url": ""
  },
  {
    "lat": 43.66121,
    "lon": 4.012696,
    "name": "Formalidee",
    "url": ""
  },
  {
    "lat": 43.661705,
    "lon": 4.013051,
    "name": "B B Squash",
    "url": ""
  },
  {
    "lat": 43.661552,
    "lon": 4.011231,
    "name": "Assistology",
    "url": ""
  },
  {
    "lat": 43.658813,
    "lon": 4.010251,
    "name": "Western Union",
    "url": ""
  },
  {
    "lat": 43.658688,
    "lon": 4.010783,
    "name": "Baillargues Place De Rocafort",
    "url": "https://lh3.googleusercontent.com/3D-Qa9OF_xmVEJRiXzdcVDMLbTcKtgwbVFbhHjRfg8eTUZy21BQ-0jV4CQd0pG4_4k_PNmIZvGzExGJJon94gQqsLQ"
  },
  {
    "lat": 43.660088,
    "lon": 4.013031,
    "name": "Poubelles Decorees.",
    "url": "https://lh3.googleusercontent.com/1496HL1SzjTzlhP_Fg_WTItYMcVuw-qhogA8Yf5-X1q-t7d90xD-r6x3rZ9Twp8Movr_6F87CFxEzQ4Vd-0501Gl5A"
  },
  {
    "lat": 43.661095,
    "lon": 4.013405,
    "name": "Coiffure homme",
    "url": "https://lh3.googleusercontent.com/DPKRI2IGdrSFT_ulYydHQZaeDSrqFFRfmJ7Zqm_WafAP8vHyBP1k-Urfq-V7VP1hMbUhGXGe8_L792AFfR8wDvgqEeEmvhJ3Fm2rP8w"
  },
  {
    "lat": 43.660503,
    "lon": 4.014437,
    "name": "Mur Peint - Plan De La Ville",
    "url": "https://lh3.googleusercontent.com/XQr0raMVpGYbogO2tCAKjyNW6vNSkHKMKNSwWnE-zmnEe_rUVdPs-EHAXk3z4M4GnfxhRzOHwqvCvHTFSPDb1DS-5t8"
  },
  {
    "lat": 43.6591,
    "lon": 4.016092,
    "name": "Jscom",
    "url": ""
  },
  {
    "lat": 43.65949,
    "lon": 4.01686,
    "name": "Le Carré Frais",
    "url": ""
  },
  {
    "lat": 43.65912,
    "lon": 4.01776,
    "name": "Avatacar",
    "url": ""
  },
  {
    "lat": 43.658783,
    "lon": 4.015047,
    "name": "AutoEasy.fr Média Auto",
    "url": ""
  },
  {
    "lat": 43.65842,
    "lon": 4.014055,
    "name": "Maison de Coiffure",
    "url": ""
  },
  {
    "lat": 43.662086,
    "lon": 4.01382,
    "name": "Concept Multiservices",
    "url": ""
  },
  {
    "lat": 43.654163,
    "lon": 4.014434,
    "name": "Nice Xi Pizzapapa",
    "url": ""
  },
  {
    "lat": 43.662197,
    "lon": 4.01877,
    "name": "Winegate",
    "url": ""
  },
  {
    "lat": 43.659367,
    "lon": 4.019871,
    "name": "Thaleia Corporation",
    "url": ""
  },
  {
    "lat": 43.659737,
    "lon": 4.021655,
    "name": "Auto 113",
    "url": ""
  },
  {
    "lat": 43.661556,
    "lon": 4.023145,
    "name": "Baillargues Services Automobile",
    "url": ""
  },
  {
    "lat": 43.661022,
    "lon": 4.025215,
    "name": "California Garage",
    "url": ""
  },
  {
    "lat": 43.662403,
    "lon": 4.025197,
    "name": "Sarl Celionett",
    "url": ""
  },
  {
    "lat": 43.66153,
    "lon": 4.028042,
    "name": "Point.P - Baillargues",
    "url": ""
  },
  {
    "lat": 43.66148,
    "lon": 4.025311,
    "name": "VBE",
    "url": ""
  },
  {
    "lat": 43.648537,
    "lon": 4.021776,
    "name": "Le Mazet aux 4 vents-Alain Fabregat .",
    "url": ""
  },
  {
    "lat": 43.64981,
    "lon": 4.037163,
    "name": "Les Petits Fermiers",
    "url": ""
  },
  {
    "lat": 43.644104,
    "lon": 4.034363,
    "name": "SICA Vergers Mauguio",
    "url": ""
  },
  {
    "lat": 43.643986,
    "lon": 4.042017,
    "name": "Esplanade Cyril Rouquette",
    "url": "https://lh3.googleusercontent.com/-yNVtSsyIjtxqJNSUo_DQus2NECYQ_vPCxmAux9WPIyVKYFa41MJGDn3DTlKmW36Fhp7cDMEE5oRXy4wEOkua9zmWzZjVCzSRkpAsNg"
  },
  {
    "lat": 43.6436,
    "lon": 4.042759,
    "name": "Salle Polyvalente",
    "url": ""
  },
  {
    "lat": 43.64615,
    "lon": 4.040552,
    "name": "Les Pains de l\u0027Or",
    "url": ""
  },
  {
    "lat": 43.64639,
    "lon": 4.044082,
    "name": "B4 Event",
    "url": ""
  },
  {
    "lat": 43.64427,
    "lon": 4.046687,
    "name": "La Maison de l\u0027Auto",
    "url": ""
  },
  {
    "lat": 43.648975,
    "lon": 4.040956,
    "name": "La Poste",
    "url": ""
  },
  {
    "lat": 43.655495,
    "lon": 4.045557,
    "name": "Ecuries Les Mazets",
    "url": ""
  },
  {
    "lat": 43.663464,
    "lon": 4.030996,
    "name": "K Par K",
    "url": ""
  },
  {
    "lat": 43.66518,
    "lon": 4.031405,
    "name": "La Bresoise",
    "url": ""
  },
  {
    "lat": 43.66341,
    "lon": 4.030258,
    "name": "Shake It Bartending",
    "url": ""
  },
  {
    "lat": 43.664177,
    "lon": 4.030588,
    "name": "Carmen Atelier",
    "url": ""
  },
  {
    "lat": 43.66359,
    "lon": 4.03225,
    "name": "Saint Brès Coiffure",
    "url": ""
  },
  {
    "lat": 43.6657,
    "lon": 4.030039,
    "name": "Vital-Reiki",
    "url": ""
  },
  {
    "lat": 43.665615,
    "lon": 4.037883,
    "name": "Amedis",
    "url": ""
  },
  {
    "lat": 43.66619,
    "lon": 4.03778,
    "name": "DLH Groupe Habitat",
    "url": ""
  },
  {
    "lat": 43.6637,
    "lon": 4.03396,
    "name": "Les 3B : Bar Brasserie Saint-Brès",
    "url": ""
  },
  {
    "lat": 43.66468,
    "lon": 4.036099,
    "name": "Le Drive en Vrac - Presque Zéro Déchet Montpellier-Est",
    "url": ""
  },
  {
    "lat": 43.66522,
    "lon": 4.037819,
    "name": "Lidl",
    "url": ""
  },
  {
    "lat": 43.66488,
    "lon": 4.03503,
    "name": "Jeux pour enfants Saint bres",
    "url": "https://lh3.googleusercontent.com/djePc3ZISvxStEWny5KdR09bWXp-mYVW1xhQaEQbuX2jWZQdfVHoje_xhxm3sCgiWgxs7TjhVomnDZ-Fb7H_FlSgydI"
  },
  {
    "lat": 43.669247,
    "lon": 4.037787,
    "name": "Piscine Héraclès",
    "url": ""
  },
  {
    "lat": 43.667313,
    "lon": 4.036624,
    "name": "Aftech Informatique",
    "url": ""
  },
  {
    "lat": 43.668617,
    "lon": 4.0353,
    "name": "Les Aristochiens",
    "url": ""
  },
  {
    "lat": 43.67054,
    "lon": 4.034091,
    "name": "Evi Danses",
    "url": ""
  },
  {
    "lat": 43.669594,
    "lon": 4.039399,
    "name": "Dresshorse Eurl",
    "url": ""
  },
  {
    "lat": 43.667065,
    "lon": 4.039249,
    "name": "Holistia Formations",
    "url": ""
  },
  {
    "lat": 43.669807,
    "lon": 4.061617,
    "name": "Le Fournil",
    "url": ""
  },
  {
    "lat": 43.667187,
    "lon": 4.061098,
    "name": "Datalink Systems Technologie",
    "url": ""
  },
  {
    "lat": 43.668407,
    "lon": 4.063674,
    "name": "Cartonnable - Objets, Meubles En Carton, Créations En Papier Mâché, Sculptures Multi-Matières",
    "url": ""
  },
  {
    "lat": 43.66985,
    "lon": 4.061009,
    "name": "uD835uDCE1uD835uDCEEuD835uDCFCuD835uDCFDuD835uDCEAuD835uDCFEuD835uDCFBuD835uDCEAuD835uDCF7uD835uDCFD uD835uDCDBuD835uDCEE uD835uDCDFuD835uDCFBuD835uDCF8uD835uDCFFuD835uDCEEuD835uDCF7çuD835uDCEAuD835uDCF5",
    "url": ""
  },
  {
    "lat": 43.667763,
    "lon": 4.060867,
    "name": "Vill\u0027À Cigale",
    "url": ""
  },
  {
    "lat": 43.669647,
    "lon": 4.06214,
    "name": "PIZZA GINO",
    "url": ""
  },
  {
    "lat": 43.666245,
    "lon": 4.06183,
    "name": "Le Temps d\u0027une Pose",
    "url": ""
  },
  {
    "lat": 43.670338,
    "lon": 4.062229,
    "name": "La Mas de Baron",
    "url": ""
  },
  {
    "lat": 43.65494,
    "lon": 4.061261,
    "name": "La Ferme du Petit Paradis",
    "url": ""
  },
  {
    "lat": 43.65955,
    "lon": 4.057315,
    "name": "Fontaine Mosaïque Des Enfants",
    "url": "https://lh3.googleusercontent.com/P3ra39EVbbUN4Z8o6aBaMkZg18V6XbL28au-nc4XQWuttd42pvMkiODtG7zosr-1sn-OlX73TIzqCrgULQUEsxCn3JRh"
  },
  {
    "lat": 43.659424,
    "lon": 4.056457,
    "name": "Les Petits Fermiers - Lansargues",
    "url": ""
  },
  {
    "lat": 43.647488,
    "lon": 4.058271,
    "name": "La Forestière Lansarguoise",
    "url": ""
  },
  {
    "lat": 43.634,
    "lon": 4.060187,
    "name": "Euro Santé Diffusion",
    "url": ""
  },
  {
    "lat": 43.63372,
    "lon": 4.053245,
    "name": "Imderplam",
    "url": ""
  },
  {
    "lat": 43.638863,
    "lon": 4.055176,
    "name": "Domaine de Moulines",
    "url": ""
  },
  {
    "lat": 43.641365,
    "lon": 4.04099,
    "name": "Basket de Mudaison",
    "url": "https://lh3.googleusercontent.com/3pgoJZxAuv-K1_Xpd8a4d4mbjELz-uRUODRYutd84qQdU9K3YLqcZrgIlw5DHtrm7jAaGzH-x1XHdFzOodSo07MsFgDXNuN-f5bNYPbe"
  },
  {
    "lat": 43.614834,
    "lon": 4.037049,
    "name": "Ecuries Alexis Roques - Haras de l\u0027Aigues Vives",
    "url": ""
  },
  {
    "lat": 43.61051,
    "lon": 4.03603,
    "name": "Centre Equestre la Pirouette",
    "url": ""
  },
  {
    "lat": 43.597603,
    "lon": 4.017907,
    "name": "Totem Events",
    "url": ""
  },
  {
    "lat": 43.59077,
    "lon": 4.019767,
    "name": "Mas la Madrague",
    "url": ""
  },
  {
    "lat": 43.593964,
    "lon": 4.020792,
    "name": "La Cabane Trempée",
    "url": ""
  },
  {
    "lat": 43.594063,
    "lon": 3.996176,
    "name": "Ecuries du Mas des 4 Vents",
    "url": ""
  },
  {
    "lat": 43.592327,
    "lon": 3.999023,
    "name": "Mauguio Volley - ASVBM",
    "url": ""
  },
  {
    "lat": 43.597874,
    "lon": 4.004813,
    "name": "Le Mazet Chambre d\u0027Hôtes",
    "url": ""
  },
  {
    "lat": 43.60935,
    "lon": 3.992386,
    "name": "Acc\u0027Tion Dog",
    "url": ""
  },
  {
    "lat": 43.620365,
    "lon": 3.990588,
    "name": "Stade de Rugby Mauguio",
    "url": ""
  },
  {
    "lat": 43.619537,
    "lon": 3.992875,
    "name": "Pires José",
    "url": ""
  },
  {
    "lat": 43.616753,
    "lon": 3.992738,
    "name": "Legaud Thierry",
    "url": ""
  },
  {
    "lat": 43.620136,
    "lon": 3.992025,
    "name": "Stade Léo Lagrange",
    "url": ""
  },
  {
    "lat": 43.621273,
    "lon": 3.991873,
    "name": "Brochier Facades",
    "url": ""
  },
  {
    "lat": 43.621655,
    "lon": 3.989171,
    "name": "Naturapalm",
    "url": ""
  },
  {
    "lat": 43.62371,
    "lon": 3.989608,
    "name": "Pires José",
    "url": ""
  },
  {
    "lat": 43.62238,
    "lon": 3.99533,
    "name": "L\u0027Eveil des Sens",
    "url": ""
  },
  {
    "lat": 43.6166,
    "lon": 3.996279,
    "name": "M.E Facades",
    "url": ""
  },
  {
    "lat": 43.617428,
    "lon": 3.998554,
    "name": "Pepinieres Ruiz",
    "url": ""
  },
  {
    "lat": 43.616577,
    "lon": 4.001528,
    "name": "Boulodrome de Peyre Blanque",
    "url": "https://lh3.googleusercontent.com/lco2QUV9KCdCyq_82Cx4uqB64o44o_1vE4sQFHsltG1J-Gwhw2hbDJ3BOkaA9e1UiKRtTwd5Bp6Ce2UI7YPPVYD6JV4u6tbuk9rHDhZe"
  },
  {
    "lat": 43.61721,
    "lon": 4.001271,
    "name": "Batinov34",
    "url": ""
  },
  {
    "lat": 43.616985,
    "lon": 4.001222,
    "name": "Aef",
    "url": ""
  },
  {
    "lat": 43.62326,
    "lon": 4.001418,
    "name": "Banque Alimentaire de l\u0027hérault",
    "url": ""
  },
  {
    "lat": 43.623753,
    "lon": 4.001376,
    "name": "Ipt34.com Mauguio",
    "url": ""
  },
  {
    "lat": 43.620975,
    "lon": 4.005897,
    "name": "Orientaction",
    "url": ""
  },
  {
    "lat": 43.620953,
    "lon": 4.00533,
    "name": "Page Mjc Mauguio-Carnon",
    "url": ""
  },
  {
    "lat": 43.622105,
    "lon": 4.003374,
    "name": "Alexandra ALLOUCHE MIEUX ETRE",
    "url": ""
  },
  {
    "lat": 43.62166,
    "lon": 4.005648,
    "name": "MJC Mauguio",
    "url": ""
  },
  {
    "lat": 43.61578,
    "lon": 4.00763,
    "name": "Guy Hoquet l\u0027Immobilier Mauguio",
    "url": ""
  },
  {
    "lat": 43.61706,
    "lon": 4.007098,
    "name": "CENTURY 21 Agence Soleil à Mauguio",
    "url": ""
  },
  {
    "lat": 43.61584,
    "lon": 4.005549,
    "name": "Blanchisserie la Mer",
    "url": ""
  },
  {
    "lat": 43.61641,
    "lon": 4.006418,
    "name": "Com\u00279",
    "url": ""
  },
  {
    "lat": 43.616028,
    "lon": 4.00455,
    "name": "Publihd",
    "url": ""
  },
  {
    "lat": 43.619137,
    "lon": 4.004632,
    "name": "SPI Graphic",
    "url": ""
  },
  {
    "lat": 43.618153,
    "lon": 4.006998,
    "name": "Open Eye Drone",
    "url": ""
  },
  {
    "lat": 43.616024,
    "lon": 4.006836,
    "name": "Aux Deux Comptoirs",
    "url": ""
  },
  {
    "lat": 43.616577,
    "lon": 4.003752,
    "name": "El Impiador 34",
    "url": ""
  },
  {
    "lat": 43.616447,
    "lon": 4.007466,
    "name": "SICA Vergers Mauguio",
    "url": ""
  },
  {
    "lat": 43.611946,
    "lon": 4.004635,
    "name": "HADJADJ Cedric",
    "url": ""
  },
  {
    "lat": 43.613777,
    "lon": 4.005421,
    "name": "Piscine Aquad\u0027Or",
    "url": ""
  },
  {
    "lat": 43.611843,
    "lon": 4.005445,
    "name": "Intermarché station-service Mauguio",
    "url": ""
  },
  {
    "lat": 43.61278,
    "lon": 4.00581,
    "name": "Esthetic Center Mauguio",
    "url": ""
  },
  {
    "lat": 43.615425,
    "lon": 4.006232,
    "name": "Monument aux morts",
    "url": "https://lh3.googleusercontent.com/0eOrLijk0K3TsjWlcqrt-hJcpTu-GuonLqEpS6h46YqeljQ69RjpkcCWx9BLzeMCPa8VuczDu0bQyJqryNcE64EWndg"
  },
  {
    "lat": 43.612305,
    "lon": 4.003653,
    "name": "JouéClub",
    "url": ""
  },
  {
    "lat": 43.61259,
    "lon": 4.006809,
    "name": "Madame Monique Redon",
    "url": ""
  },
  {
    "lat": 43.61446,
    "lon": 4.00788,
    "name": "Ruedo - oeuvre du plasticien Jordi - 2019",
    "url": "https://lh3.googleusercontent.com/HyALkpLFxO5Mqxt0ObzjBKTJi5TLCHvson5sz4rmYKGPFq4JNWMAZvi_UpGVW7_Fyly92BUDlPd_8TeclR1tgHj1W5r3TWn8sXbKdXoB"
  },
  {
    "lat": 43.614586,
    "lon": 4.007448,
    "name": "Salon de Toilettage LES BULLES DE JACK",
    "url": ""
  },
  {
    "lat": 43.615433,
    "lon": 4.000039,
    "name": "France Handling",
    "url": ""
  },
  {
    "lat": 43.60995,
    "lon": 4.004232,
    "name": "Mademoiselle Beauté",
    "url": ""
  },
  {
    "lat": 43.610672,
    "lon": 4.00345,
    "name": "Mendez Pierre",
    "url": ""
  },
  {
    "lat": 43.609776,
    "lon": 4.013128,
    "name": "City stade de la Plaine des sports de Mauguio",
    "url": "https://lh3.googleusercontent.com/qI8rNvhXPFTxa0o_mjjyZ9aT0uSl80G2oT3gKV76dyv80xMtq6scn7qd1fd2kopUTQw4uzqMKfkYS54oeHYgWW0Y1d4"
  },
  {
    "lat": 43.60934,
    "lon": 4.01195,
    "name": "Corbeille De Fer",
    "url": "https://lh3.googleusercontent.com/-to2di-cXh1ni_1qWNDXv2jDOXOkeRwYbICrIDDf5sNyX2EM4VE0nQbobQHg2t_1F5Ie00Rc9UYop51bdfdbIpnueqQ"
  },
  {
    "lat": 43.60955,
    "lon": 4.012701,
    "name": "Savanah",
    "url": "https://lh3.googleusercontent.com/XgaoUZN08_rN8s3m-S98K8SP8AzHfKrlCo_GFHAr8y8AXOudL3OG4Hr72Firo2TDnKn0xKc6yUGC6gFsGVhyjVUZcOOsD49WZAixTFvsQA"
  },
  {
    "lat": 43.609814,
    "lon": 4.011457,
    "name": "Ma première petite voiture",
    "url": "https://lh3.googleusercontent.com/4AvZ3dAWxXExZn9sEx3-aQ_RzkWjpYBFFU80W7qORip44YUXe9LKZ4EXVWswq7hOtmK5XHbkEmHuiXZS1WW4fe0jzUaXQf_vZQ2TOHUH"
  },
  {
    "lat": 43.608486,
    "lon": 4.013279,
    "name": "Les petites maisons des abeilles melgoriennes",
    "url": "https://lh3.googleusercontent.com/I7gU7CaRAKsLhgA_jhjKbhQnzzMEJcbOW4DqrUEMHQRBr1eE-jX1eirn3oEYQSQRboOpTl0Ifg0xJjYc2arX0bYExRI"
  },
  {
    "lat": 43.614952,
    "lon": 4.010887,
    "name": "Gémini Dmitrievna",
    "url": ""
  },
  {
    "lat": 43.613632,
    "lon": 4.008257,
    "name": "MC Coiffure",
    "url": ""
  },
  {
    "lat": 43.611015,
    "lon": 4.010816,
    "name": "Stade Cancel",
    "url": ""
  },
  {
    "lat": 43.614334,
    "lon": 4.012355,
    "name": "Auto Liberté",
    "url": ""
  },
  {
    "lat": 43.614796,
    "lon": 4.008276,
    "name": "Arènes de Mauguio",
    "url": ""
  },
  {
    "lat": 43.61455,
    "lon": 4.010033,
    "name": "Mudaison Combustibles",
    "url": ""
  },
  {
    "lat": 43.6135,
    "lon": 4.01118,
    "name": "Le Mistral",
    "url": ""
  },
  {
    "lat": 43.61223,
    "lon": 4.013859,
    "name": "Tennis Stade André Cancel",
    "url": ""
  },
  {
    "lat": 43.61476,
    "lon": 4.016851,
    "name": "Desta Antenne",
    "url": ""
  },
  {
    "lat": 43.610462,
    "lon": 4.016578,
    "name": "Ritmo Danse Fitness",
    "url": ""
  },
  {
    "lat": 43.61366,
    "lon": 4.01726,
    "name": "Haras de l\u0027aigue vive",
    "url": ""
  },
  {
    "lat": 43.60995,
    "lon": 4.013861,
    "name": "Chemin des poilus",
    "url": "https://lh3.googleusercontent.com/89RUrx_CqFLMmy8jCVpWG35L7TITPV1bAtaMpZpGRys4EMtDhkZGErHnGFmgkouKQpGr_Q4AfZ0cxK4POT0XiphAxP5P"
  },
  {
    "lat": 43.609337,
    "lon": 4.013405,
    "name": "BMX club Mauguio Carnon",
    "url": ""
  },
  {
    "lat": 43.606716,
    "lon": 4.026625,
    "name": "Stephane Delgado",
    "url": ""
  },
  {
    "lat": 43.61565,
    "lon": 4.019949,
    "name": "Martine Perceau",
    "url": ""
  },
  {
    "lat": 43.624664,
    "lon": 4.014082,
    "name": "Les Notaires de l\u0027Etang de l\u0027Or",
    "url": ""
  },
  {
    "lat": 43.624607,
    "lon": 4.015559,
    "name": "La P\u0027tite Boulangère",
    "url": ""
  },
  {
    "lat": 43.616207,
    "lon": 4.012087,
    "name": "La Casa Di Carla",
    "url": ""
  },
  {
    "lat": 43.61613,
    "lon": 4.009496,
    "name": "Bar Du Commerce Mauguio",
    "url": ""
  },
  {
    "lat": 43.616615,
    "lon": 4.010161,
    "name": "Le Palanquin",
    "url": ""
  },
  {
    "lat": 43.617264,
    "lon": 4.010445,
    "name": "Kaliverif",
    "url": ""
  },
  {
    "lat": 43.619587,
    "lon": 4.01198,
    "name": "Autorapido",
    "url": ""
  },
  {
    "lat": 43.617912,
    "lon": 4.0103,
    "name": "L\u0027univers du bien etre mauguio",
    "url": ""
  },
  {
    "lat": 43.616264,
    "lon": 4.00886,
    "name": "MB Coiffure",
    "url": ""
  },
  {
    "lat": 43.616673,
    "lon": 4.012085,
    "name": "Frédérique Coiffure",
    "url": ""
  },
  {
    "lat": 43.61711,
    "lon": 4.008625,
    "name": "Sushi\u0027C",
    "url": ""
  },
  {
    "lat": 43.61663,
    "lon": 4.011503,
    "name": "Place de la Paix",
    "url": "https://lh3.googleusercontent.com/k530eJis63ftl03JoxpQCLR0O6THsDX4UniDcVgvogkNsjF6TPz-eD_TCcDxUnD_dIqG6uRakdBnjfFzZ-M05EhmVF1y"
  },
  {
    "lat": 43.617615,
    "lon": 4.009424,
    "name": "Caprice de filles",
    "url": ""
  },
  {
    "lat": 43.61593,
    "lon": 4.0083,
    "name": "Les Belles Demoi\u0027Zen",
    "url": ""
  },
  {
    "lat": 43.61556,
    "lon": 4.010123,
    "name": "La Poste",
    "url": ""
  },
  {
    "lat": 43.62295,
    "lon": 4.010391,
    "name": "Total",
    "url": ""
  },
  {
    "lat": 43.624428,
    "lon": 4.01295,
    "name": "ObjectifCode",
    "url": ""
  },
  {
    "lat": 43.62439,
    "lon": 4.012298,
    "name": "AD Garage Mad",
    "url": ""
  },
  {
    "lat": 43.622,
    "lon": 4.009281,
    "name": "Lecomte Traiteur",
    "url": ""
  },
  {
    "lat": 43.62055,
    "lon": 4.011726,
    "name": "Plein Ciel Abellan Distribution",
    "url": ""
  },
  {
    "lat": 43.62481,
    "lon": 4.009874,
    "name": "Fleuriste (freelance) pour Mariages, Évènements de luxe, B2B \u0026 autres - The Flower Shop - Montpellier - RDV Obligatoire",
    "url": ""
  },
  {
    "lat": 43.62593,
    "lon": 4.008825,
    "name": "Tecnibat",
    "url": ""
  },
  {
    "lat": 43.62541,
    "lon": 4.009003,
    "name": "Valdeyron Materiaux",
    "url": ""
  },
  {
    "lat": 43.625317,
    "lon": 4.012974,
    "name": "Garage Ropa",
    "url": ""
  },
  {
    "lat": 43.625248,
    "lon": 4.010688,
    "name": "Patanegra Pure Origine",
    "url": ""
  },
  {
    "lat": 43.625393,
    "lon": 4.012283,
    "name": "La Salle Mauguio",
    "url": ""
  },
  {
    "lat": 43.62713,
    "lon": 4.009806,
    "name": "Saverdun Terre Cuite",
    "url": ""
  },
  {
    "lat": 43.628128,
    "lon": 4.011787,
    "name": "Tg Diffusion",
    "url": ""
  },
  {
    "lat": 43.624935,
    "lon": 4.011401,
    "name": "Lidl",
    "url": ""
  },
  {
    "lat": 43.626198,
    "lon": 4.008339,
    "name": "Carrosserie Bspv-Girard",
    "url": ""
  },
  {
    "lat": 43.626995,
    "lon": 4.013632,
    "name": "Le Matis",
    "url": ""
  },
  {
    "lat": 43.625416,
    "lon": 4.017131,
    "name": "Borne d\u0027impression photo Speedlab",
    "url": ""
  },
  {
    "lat": 43.625473,
    "lon": 4.015583,
    "name": "Netto",
    "url": ""
  },
  {
    "lat": 43.62658,
    "lon": 4.014075,
    "name": "Mondial Pare-Brise",
    "url": ""
  },
  {
    "lat": 43.62563,
    "lon": 4.015907,
    "name": "Centrakor",
    "url": ""
  },
  {
    "lat": 43.62638,
    "lon": 4.014988,
    "name": "D-Menciel",
    "url": ""
  },
  {
    "lat": 43.625275,
    "lon": 4.014607,
    "name": "Equinoxe 34",
    "url": ""
  },
  {
    "lat": 43.630844,
    "lon": 4.020663,
    "name": "Domaine la Clausade",
    "url": ""
  },
  {
    "lat": 43.640343,
    "lon": 4.019402,
    "name": "C.T.A.M",
    "url": ""
  },
  {
    "lat": 43.640915,
    "lon": 4.018777,
    "name": "Sécuritest Contrôle Technique Automobile MUDAISON",
    "url": ""
  },
  {
    "lat": 43.64184,
    "lon": 4.019058,
    "name": "Edenys",
    "url": ""
  },
  {
    "lat": 43.639137,
    "lon": 4.01794,
    "name": "Terrafood",
    "url": ""
  },
  {
    "lat": 43.643417,
    "lon": 4.014655,
    "name": "Fritec Montpellier",
    "url": ""
  },
  {
    "lat": 43.642754,
    "lon": 4.016175,
    "name": "Transport Messagerie \u0026 Import Export",
    "url": ""
  },
  {
    "lat": 43.642464,
    "lon": 4.016884,
    "name": "Société Française d\u0027aménagement",
    "url": ""
  },
  {
    "lat": 43.64192,
    "lon": 4.015,
    "name": "SICA Les Vergers de Mauguio",
    "url": ""
  },
  {
    "lat": 43.64364,
    "lon": 4.013518,
    "name": "Physioquanta",
    "url": ""
  },
  {
    "lat": 43.63952,
    "lon": 4.017918,
    "name": "Embal Pro Industrie",
    "url": ""
  },
  {
    "lat": 43.643044,
    "lon": 4.017049,
    "name": "Myconnect",
    "url": ""
  },
  {
    "lat": 43.63643,
    "lon": 3.990623,
    "name": "Pépinières Ruiz",
    "url": ""
  },
  {
    "lat": 43.633263,
    "lon": 3.984477,
    "name": "GAEC Carnoy-Chanson",
    "url": ""
  },
  {
    "lat": 43.63465,
    "lon": 3.980129,
    "name": "Atelier des Vidaux",
    "url": ""
  },
  {
    "lat": 43.633694,
    "lon": 3.968143,
    "name": "Stade Robert Castan",
    "url": ""
  },
  {
    "lat": 43.637337,
    "lon": 3.968369,
    "name": "Florence Lemaire",
    "url": ""
  },
  {
    "lat": 43.63908,
    "lon": 3.970133,
    "name": "Bibliothèque Municipale",
    "url": ""
  },
  {
    "lat": 43.638477,
    "lon": 3.969517,
    "name": "salle bassaget",
    "url": "https://lh3.googleusercontent.com/r1d3zLMTNSZG51SgJsAW7BzqeCTSldIKSio9E9l0u0CzaJBAXkRDv4WVDcpH3uiOjf9nwNCOb2V6sFAzYsrs7phtRSY"
  },
  {
    "lat": 43.63762,
    "lon": 3.975701,
    "name": "S3E",
    "url": ""
  },
  {
    "lat": 43.636852,
    "lon": 3.977636,
    "name": "Tech Auto",
    "url": ""
  },
  {
    "lat": 43.642227,
    "lon": 3.968184,
    "name": "Bertrand Lattes Aviation Consult",
    "url": ""
  },
  {
    "lat": 43.642796,
    "lon": 3.969053,
    "name": "BLI",
    "url": ""
  },
  {
    "lat": 43.643993,
    "lon": 3.968935,
    "name": "Orchestra",
    "url": ""
  },
  {
    "lat": 43.641174,
    "lon": 3.967047,
    "name": "Tennis Club de St Aunes",
    "url": ""
  },
  {
    "lat": 43.63884,
    "lon": 3.962748,
    "name": "G.M Coiffure",
    "url": ""
  },
  {
    "lat": 43.63989,
    "lon": 3.96538,
    "name": "Le Bistrot des Gônes",
    "url": ""
  },
  {
    "lat": 43.63905,
    "lon": 3.963415,
    "name": "Le bar à ongles by V St Aunes",
    "url": ""
  },
  {
    "lat": 43.636463,
    "lon": 3.965991,
    "name": "Église Saint Aunes",
    "url": "https://lh3.googleusercontent.com/TIWdnfBQ5jC4OaugS_EWMCF468zfJk74BW2YQ7c7MZoS4_mDO-RmM3Rw6FkxB-irU17PXiytpZP09QLdfRhASnntKL4"
  },
  {
    "lat": 43.639545,
    "lon": 3.962512,
    "name": "Servi-grill Portugais",
    "url": ""
  },
  {
    "lat": 43.63795,
    "lon": 3.96422,
    "name": "Restaurant Chez Romain",
    "url": ""
  },
  {
    "lat": 43.636395,
    "lon": 3.965323,
    "name": "M. V Toilettage",
    "url": ""
  },
  {
    "lat": 43.63993,
    "lon": 3.962648,
    "name": "Les Delices d\u0027Andrea",
    "url": ""
  },
  {
    "lat": 43.637207,
    "lon": 3.965922,
    "name": "fontaine de la salle polyvalente de st aunes",
    "url": "https://lh3.googleusercontent.com/dn58G_6CpPD7HCblGENvqr81KNqOUXW7vWr_g_nqqqZmbcjaEpQmEsZzI4-sfSPVwBve_mqDNfwTDJm1i1PzsJnaQ6hVqhE_EXM_ih30"
  },
  {
    "lat": 43.636723,
    "lon": 3.966452,
    "name": "Espace Culturel E. Leclerc Saint-Aunès",
    "url": ""
  },
  {
    "lat": 43.639786,
    "lon": 3.962014,
    "name": "Adg 34 Immo",
    "url": ""
  },
  {
    "lat": 43.642914,
    "lon": 3.958794,
    "name": "Redon Aurélie AUREA-ARCHITECTURE DPLG",
    "url": ""
  },
  {
    "lat": 43.645397,
    "lon": 3.951511,
    "name": "Frans Bonhomme",
    "url": ""
  },
  {
    "lat": 43.645885,
    "lon": 3.951075,
    "name": "Exadex Enchères Ventes aux Enchères",
    "url": ""
  },
  {
    "lat": 43.644985,
    "lon": 3.950572,
    "name": "Loxam",
    "url": ""
  },
  {
    "lat": 43.645767,
    "lon": 3.951799,
    "name": "Montpellier Accessoires",
    "url": ""
  },
  {
    "lat": 43.64071,
    "lon": 3.956539,
    "name": "Le manège à bijoux",
    "url": ""
  },
  {
    "lat": 43.635918,
    "lon": 3.965449,
    "name": "Avenir Togo",
    "url": ""
  },
  {
    "lat": 43.63571,
    "lon": 3.96315,
    "name": "Avenir Concept Design",
    "url": ""
  },
  {
    "lat": 43.634888,
    "lon": 3.965455,
    "name": "Centre Associatif de Saint-Aunès",
    "url": "https://lh3.googleusercontent.com/OSmzYk3WsHojUiTQgDNqKSsHpXhasBR9M3PxtyWrTrEAZgwqOWt_hL68UsMHpKVILoojs1c-V-qqLOnaM_hFyMyH59w"
  },
  {
    "lat": 43.635677,
    "lon": 3.962635,
    "name": "Leader Coiffure",
    "url": ""
  },
  {
    "lat": 43.62221,
    "lon": 3.952128,
    "name": "SignaSud",
    "url": ""
  },
  {
    "lat": 43.617996,
    "lon": 3.955842,
    "name": "Atelier 19",
    "url": ""
  },
  {
    "lat": 43.614452,
    "lon": 3.958082,
    "name": "La Cabane",
    "url": ""
  },
  {
    "lat": 43.61504,
    "lon": 3.964434,
    "name": "Froid d\u0027Oc",
    "url": ""
  },
  {
    "lat": 43.617374,
    "lon": 3.9867,
    "name": "Les Tables Jarque",
    "url": ""
  },
  {
    "lat": 43.60527,
    "lon": 3.982149,
    "name": "Sarl Lefilet",
    "url": ""
  },
  {
    "lat": 43.59723,
    "lon": 3.977587,
    "name": "Domaine des Grands Chais",
    "url": ""
  },
  {
    "lat": 43.59052,
    "lon": 3.976123,
    "name": "San Marco Montpellier Polo",
    "url": ""
  },
  {
    "lat": 43.596912,
    "lon": 3.982169,
    "name": "Mas de la Couarche: SOLEIL ARABIANS",
    "url": ""
  },
  {
    "lat": 43.571968,
    "lon": 3.953411,
    "name": "Connec\u0027Sud",
    "url": ""
  },
  {
    "lat": 43.573414,
    "lon": 3.951538,
    "name": "Arena Montpellier",
    "url": ""
  },
  {
    "lat": 43.57236,
    "lon": 3.947724,
    "name": "Made in Sud de France",
    "url": ""
  },
  {
    "lat": 43.574265,
    "lon": 3.947133,
    "name": "Bosch Car Service",
    "url": ""
  },
  {
    "lat": 43.575607,
    "lon": 3.947252,
    "name": "Assistance Dépannage 34",
    "url": ""
  },
  {
    "lat": 43.575424,
    "lon": 3.948645,
    "name": "China Vina",
    "url": ""
  },
  {
    "lat": 43.5744,
    "lon": 3.94768,
    "name": "Capra 34",
    "url": ""
  },
  {
    "lat": 43.579185,
    "lon": 3.949422,
    "name": "CCI Hérault",
    "url": ""
  },
  {
    "lat": 43.597054,
    "lon": 3.947156,
    "name": "Château la Banquière",
    "url": ""
  },
  {
    "lat": 43.592667,
    "lon": 3.958099,
    "name": "Com.Une.Exception",
    "url": ""
  },
  {
    "lat": 43.591465,
    "lon": 3.957429,
    "name": "MARCADIER Paysage",
    "url": ""
  },
  {
    "lat": 43.59268,
    "lon": 3.963542,
    "name": "La Poste",
    "url": ""
  },
  {
    "lat": 43.60598,
    "lon": 3.927875,
    "name": "EdenKids",
    "url": ""
  },
  {
    "lat": 43.601074,
    "lon": 3.926656,
    "name": "Fontaine du château de Mogere",
    "url": "https://lh3.googleusercontent.com/IG3PzbH3ab65TFIjrzqlnrUgXzwdMZv7NQNeRaJclIxXtvCMIMEz6HXB3JoqIfVj197vySouobE-d53KXEkVzAD6og"
  },
  {
    "lat": 43.601368,
    "lon": 3.927113,
    "name": "Chapelle",
    "url": "https://lh3.googleusercontent.com/o7cpL4qWrbrjW2u8_S_hqal3m35uN4fKXsjRmX4IsSdPDQ6_55uxpziPcjF1UVEIGYqHRokcyXbSDuvaPXhipRDuxZ98"
  },
  {
    "lat": 43.59027,
    "lon": 3.931641,
    "name": "INEO MIDI PYREN. LANGU. ROUS. PAR ABRE Ineo Midi Pyrénées Languedoc Roussillon",
    "url": ""
  },
  {
    "lat": 43.59208,
    "lon": 3.927269,
    "name": "Coach Sportif Montpellier",
    "url": ""
  },
  {
    "lat": 43.590076,
    "lon": 3.936021,
    "name": "Prison Island Montpellier",
    "url": ""
  },
  {
    "lat": 43.58932,
    "lon": 3.936546,
    "name": "Auto Pieces Lattes",
    "url": ""
  },
  {
    "lat": 43.58925,
    "lon": 3.935897,
    "name": "Bmx Avenue - Avenue Du Velo",
    "url": ""
  },
  {
    "lat": 43.590206,
    "lon": 3.933496,
    "name": "Axima",
    "url": ""
  },
  {
    "lat": 43.58987,
    "lon": 3.935312,
    "name": "Place du Marché Mauguio",
    "url": ""
  },
  {
    "lat": 43.59071,
    "lon": 3.936286,
    "name": "Circle Fishers",
    "url": ""
  },
  {
    "lat": 43.592495,
    "lon": 3.936652,
    "name": "Europe Moto",
    "url": ""
  },
  {
    "lat": 43.59143,
    "lon": 3.933548,
    "name": "Schneider Electric France",
    "url": ""
  },
  {
    "lat": 43.589203,
    "lon": 3.934591,
    "name": "Basic-Fit Mauguio Rue Charles Lindbergh",
    "url": ""
  },
  {
    "lat": 43.59191,
    "lon": 3.936099,
    "name": "Septeo",
    "url": ""
  },
  {
    "lat": 43.58946,
    "lon": 3.935205,
    "name": "Espace Mediterranee",
    "url": ""
  },
  {
    "lat": 43.590466,
    "lon": 3.935251,
    "name": "Renault Dealer",
    "url": ""
  },
  {
    "lat": 43.59028,
    "lon": 3.938576,
    "name": "Néoréva",
    "url": ""
  },
  {
    "lat": 43.590847,
    "lon": 3.937839,
    "name": "Cafés Maya",
    "url": ""
  },
  {
    "lat": 43.58987,
    "lon": 3.940775,
    "name": "C.e.r Mauguio Route De La,Mer",
    "url": ""
  },
  {
    "lat": 43.589867,
    "lon": 3.938032,
    "name": "Enelios",
    "url": ""
  },
  {
    "lat": 43.59104,
    "lon": 3.93963,
    "name": "Contact Hôtel le SUD Montpellier Aéroport Parc Expo Arena",
    "url": ""
  },
  {
    "lat": 43.589924,
    "lon": 3.936881,
    "name": "Pianorama",
    "url": ""
  },
  {
    "lat": 43.590576,
    "lon": 3.940632,
    "name": "Padd",
    "url": ""
  },
  {
    "lat": 43.5912,
    "lon": 3.937289,
    "name": "La Table Marocaine",
    "url": ""
  },
  {
    "lat": 43.59067,
    "lon": 3.937455,
    "name": "Physik Perf",
    "url": ""
  },
  {
    "lat": 43.5917,
    "lon": 3.939604,
    "name": "Ypo Camp Muret Camping-Cars",
    "url": ""
  },
  {
    "lat": 43.589054,
    "lon": 3.940807,
    "name": "Son et Image",
    "url": ""
  },
  {
    "lat": 43.59012,
    "lon": 3.937463,
    "name": "Rôle Energies",
    "url": ""
  },
  {
    "lat": 43.594097,
    "lon": 3.943538,
    "name": "Les Vérandas du Soleil",
    "url": ""
  },
  {
    "lat": 43.589462,
    "lon": 3.943634,
    "name": "Pure Impression",
    "url": ""
  },
  {
    "lat": 43.589073,
    "lon": 3.942077,
    "name": "Question Commerce",
    "url": ""
  },
  {
    "lat": 43.59299,
    "lon": 3.943158,
    "name": "La Cabane de Mauguio",
    "url": ""
  },
  {
    "lat": 43.589905,
    "lon": 3.942461,
    "name": "Audrey Jacquot-doutres",
    "url": ""
  },
  {
    "lat": 43.58712,
    "lon": 3.942721,
    "name": "Sterm",
    "url": ""
  },
  {
    "lat": 43.58826,
    "lon": 3.942569,
    "name": "Promod",
    "url": ""
  },
  {
    "lat": 43.588852,
    "lon": 3.943993,
    "name": "Media Fab",
    "url": ""
  },
  {
    "lat": 43.587223,
    "lon": 3.943802,
    "name": "SoCoo\u0027c",
    "url": ""
  },
  {
    "lat": 43.58687,
    "lon": 3.937935,
    "name": "Inaxel",
    "url": ""
  },
  {
    "lat": 43.588135,
    "lon": 3.941712,
    "name": "Sarl Jean Rolland",
    "url": ""
  },
  {
    "lat": 43.588577,
    "lon": 3.940934,
    "name": "YAMAHA yam34",
    "url": ""
  },
  {
    "lat": 43.58456,
    "lon": 3.939563,
    "name": "Comptoir Occitan",
    "url": ""
  },
  {
    "lat": 43.587147,
    "lon": 3.941004,
    "name": "Pascal Motos",
    "url": ""
  },
  {
    "lat": 43.584557,
    "lon": 3.938773,
    "name": "Octika",
    "url": ""
  },
  {
    "lat": 43.588497,
    "lon": 3.937782,
    "name": "Restaurant Nuances",
    "url": ""
  },
  {
    "lat": 43.584743,
    "lon": 3.937775,
    "name": "Futronix. Futronix France",
    "url": ""
  },
  {
    "lat": 43.588905,
    "lon": 3.937101,
    "name": "Cuisabain",
    "url": ""
  },
  {
    "lat": 43.585495,
    "lon": 3.939533,
    "name": "Tout un cadre",
    "url": ""
  },
  {
    "lat": 43.58784,
    "lon": 3.936937,
    "name": "Restaurant Le California - Mauguio",
    "url": ""
  },
  {
    "lat": 43.588715,
    "lon": 3.938114,
    "name": "Forêt Ressources Management",
    "url": ""
  },
  {
    "lat": 43.58776,
    "lon": 3.94103,
    "name": "Oenochêne",
    "url": ""
  },
  {
    "lat": 43.58141,
    "lon": 3.937648,
    "name": "F.N.A.I.M",
    "url": ""
  },
  {
    "lat": 43.582718,
    "lon": 3.93751,
    "name": "Garrot Chaillac",
    "url": ""
  },
  {
    "lat": 43.580532,
    "lon": 3.940389,
    "name": "Dictaplus",
    "url": ""
  },
  {
    "lat": 43.580677,
    "lon": 3.937555,
    "name": "Well\u0027Kyn",
    "url": ""
  },
  {
    "lat": 43.58367,
    "lon": 3.941429,
    "name": "Hymeo Piscines BDH Mauguio",
    "url": ""
  },
  {
    "lat": 43.58056,
    "lon": 3.938277,
    "name": "Languedoc Roussillon Materiaux",
    "url": ""
  },
  {
    "lat": 43.580696,
    "lon": 3.938825,
    "name": "Seris Europe Sécurité Industrie",
    "url": ""
  },
  {
    "lat": 43.582096,
    "lon": 3.938188,
    "name": "Antéa France",
    "url": ""
  },
  {
    "lat": 43.579807,
    "lon": 3.939592,
    "name": "CCI Languedoc-Roussillon",
    "url": ""
  },
  {
    "lat": 43.584095,
    "lon": 3.94017,
    "name": "Somethy",
    "url": ""
  },
  {
    "lat": 43.58288,
    "lon": 3.941302,
    "name": "Cyrpeo",
    "url": ""
  },
  {
    "lat": 43.583282,
    "lon": 3.941056,
    "name": "Alvarez Freres",
    "url": ""
  },
  {
    "lat": 43.5827,
    "lon": 3.941991,
    "name": "Espace 34",
    "url": ""
  },
  {
    "lat": 43.583336,
    "lon": 3.945245,
    "name": "LOUVAN Montpellier Aéroport",
    "url": ""
  },
  {
    "lat": 43.58226,
    "lon": 3.942374,
    "name": "Manpower",
    "url": ""
  },
  {
    "lat": 43.58047,
    "lon": 3.943033,
    "name": "Truffaut",
    "url": ""
  },
  {
    "lat": 43.580524,
    "lon": 3.946054,
    "name": "RENT a CAR",
    "url": ""
  },
  {
    "lat": 43.574993,
    "lon": 3.946042,
    "name": "Aftral Montpellier",
    "url": ""
  },
  {
    "lat": 43.57458,
    "lon": 3.94282,
    "name": "Kiabi",
    "url": ""
  },
  {
    "lat": 43.57523,
    "lon": 3.94686,
    "name": "Atmo Occitanie",
    "url": ""
  },
  {
    "lat": 43.575153,
    "lon": 3.942195,
    "name": "Société Christian Rage S.A.R.L.",
    "url": ""
  },
  {
    "lat": 43.57853,
    "lon": 3.942184,
    "name": "Loc\u0027Karting",
    "url": ""
  },
  {
    "lat": 43.57505,
    "lon": 3.945446,
    "name": "AFTRAL Montpellier",
    "url": ""
  },
  {
    "lat": 43.573463,
    "lon": 3.942192,
    "name": "Cash Converters",
    "url": ""
  },
  {
    "lat": 43.57238,
    "lon": 3.944429,
    "name": "Alinea",
    "url": ""
  },
  {
    "lat": 43.571026,
    "lon": 3.942336,
    "name": "Norauto",
    "url": ""
  },
  {
    "lat": 43.574013,
    "lon": 3.946518,
    "name": "Le Bistrot Francais",
    "url": ""
  },
  {
    "lat": 43.573067,
    "lon": 3.942686,
    "name": "Flunch",
    "url": ""
  },
  {
    "lat": 43.57355,
    "lon": 3.943744,
    "name": "Véo",
    "url": ""
  },
  {
    "lat": 43.57296,
    "lon": 3.944987,
    "name": "B\u0026m",
    "url": ""
  },
  {
    "lat": 43.573933,
    "lon": 3.945215,
    "name": "Le Fournil de Maguelone",
    "url": ""
  },
  {
    "lat": 43.572575,
    "lon": 3.942332,
    "name": "Subway",
    "url": ""
  },
  {
    "lat": 43.572475,
    "lon": 3.940958,
    "name": "Hélios Optique",
    "url": ""
  },
  {
    "lat": 43.57214,
    "lon": 3.941617,
    "name": "Brice Pérols",
    "url": ""
  },
  {
    "lat": 43.574432,
    "lon": 3.937765,
    "name": "Univers du Sommeil Pérols Montpellier",
    "url": ""
  },
  {
    "lat": 43.57305,
    "lon": 3.939528,
    "name": "Music Planet",
    "url": ""
  },
  {
    "lat": 43.574165,
    "lon": 3.941092,
    "name": "La Vie Claire",
    "url": ""
  },
  {
    "lat": 43.57039,
    "lon": 3.941743,
    "name": "Tel And Com",
    "url": ""
  },
  {
    "lat": 43.57219,
    "lon": 3.939282,
    "name": "Olly Gan",
    "url": ""
  },
  {
    "lat": 43.573532,
    "lon": 3.939007,
    "name": "Made4Baby",
    "url": ""
  },
  {
    "lat": 43.57396,
    "lon": 3.938538,
    "name": "easyGym Pérols",
    "url": ""
  },
  {
    "lat": 43.573616,
    "lon": 3.937323,
    "name": "Grim Passion",
    "url": ""
  },
  {
    "lat": 43.57264,
    "lon": 3.941267,
    "name": "Yzatis",
    "url": ""
  },
  {
    "lat": 43.574528,
    "lon": 3.9398,
    "name": "Giant Montpellier-Perols",
    "url": ""
  },
  {
    "lat": 43.579323,
    "lon": 3.938534,
    "name": "Cle Expertises",
    "url": ""
  },
  {
    "lat": 43.576042,
    "lon": 3.937651,
    "name": "Darty",
    "url": ""
  },
  {
    "lat": 43.5755,
    "lon": 3.936955,
    "name": "Théâtre Odéon Montpellier",
    "url": ""
  },
  {
    "lat": 43.575233,
    "lon": 3.938143,
    "name": "Escalade Bloc Session Montpellier",
    "url": ""
  },
  {
    "lat": 43.578552,
    "lon": 3.937097,
    "name": "Arthur Bonnet - Cuisiniste Montpellier - Pérols",
    "url": ""
  },
  {
    "lat": 43.575012,
    "lon": 3.937391,
    "name": "Orchestra PEROLS",
    "url": ""
  },
  {
    "lat": 43.5748,
    "lon": 3.938199,
    "name": "MDA Electroménager Discount",
    "url": ""
  },
  {
    "lat": 43.575745,
    "lon": 3.935201,
    "name": "Accastillage Diffusion",
    "url": ""
  },
  {
    "lat": 43.57646,
    "lon": 3.936655,
    "name": "Lapeyre",
    "url": ""
  },
  {
    "lat": 43.576454,
    "lon": 3.934243,
    "name": "GiFi Pérols",
    "url": ""
  },
  {
    "lat": 43.57829,
    "lon": 3.935596,
    "name": "Restaurant la Boucherie",
    "url": ""
  },
  {
    "lat": 43.57866,
    "lon": 3.93281,
    "name": "Quick",
    "url": ""
  },
  {
    "lat": 43.578087,
    "lon": 3.933436,
    "name": "Darty",
    "url": ""
  },
  {
    "lat": 43.576794,
    "lon": 3.935547,
    "name": "Gemo",
    "url": ""
  },
  {
    "lat": 43.57676,
    "lon": 3.934846,
    "name": "Decathlon Essentiel Montpellier Pérols",
    "url": ""
  },
  {
    "lat": 43.578094,
    "lon": 3.934081,
    "name": "Kiabi",
    "url": ""
  },
  {
    "lat": 43.576923,
    "lon": 3.933812,
    "name": "Magasin Kiabi PEROLS",
    "url": ""
  },
  {
    "lat": 43.577873,
    "lon": 3.936151,
    "name": "Bistro Regent Perols",
    "url": ""
  },
  {
    "lat": 43.576145,
    "lon": 3.935659,
    "name": "Picard Perols",
    "url": ""
  },
  {
    "lat": 43.57413,
    "lon": 3.936664,
    "name": "Picard",
    "url": ""
  },
  {
    "lat": 43.5783,
    "lon": 3.928404,
    "name": "Camping in Estanel",
    "url": ""
  },
  {
    "lat": 43.577168,
    "lon": 3.926968,
    "name": "Camping Le Parc",
    "url": ""
  },
  {
    "lat": 43.58272,
    "lon": 3.928773,
    "name": "Clopinette",
    "url": ""
  },
  {
    "lat": 43.582577,
    "lon": 3.929637,
    "name": "Centre Commercial Grand Sud",
    "url": ""
  },
  {
    "lat": 43.58252,
    "lon": 3.928218,
    "name": "Histoire d\u0027Or",
    "url": ""
  },
  {
    "lat": 43.582253,
    "lon": 3.928986,
    "name": "Jean Claude Aubry",
    "url": ""
  },
  {
    "lat": 43.584515,
    "lon": 3.927805,
    "name": "Conforama Montpellier",
    "url": ""
  },
  {
    "lat": 43.582207,
    "lon": 3.929827,
    "name": "Trésor",
    "url": ""
  },
  {
    "lat": 43.58084,
    "lon": 3.929932,
    "name": "Montpellier Lattes",
    "url": ""
  },
  {
    "lat": 43.58231,
    "lon": 3.930513,
    "name": "Etam",
    "url": ""
  },
  {
    "lat": 43.582767,
    "lon": 3.930578,
    "name": "Boulanger",
    "url": ""
  },
  {
    "lat": 43.583153,
    "lon": 3.928699,
    "name": "Carrefour Location",
    "url": ""
  },
  {
    "lat": 43.582916,
    "lon": 3.927466,
    "name": "Devred",
    "url": ""
  },
  {
    "lat": 43.583035,
    "lon": 3.929421,
    "name": "Jules S.A.S.",
    "url": ""
  },
  {
    "lat": 43.582825,
    "lon": 3.934692,
    "name": "Repair \u0026 Co - Lattes Pérols",
    "url": ""
  },
  {
    "lat": 43.58366,
    "lon": 3.936777,
    "name": "Brasserie Gusto",
    "url": ""
  },
  {
    "lat": 43.583504,
    "lon": 3.934346,
    "name": "Sport 2000 Montpellier Lattes",
    "url": ""
  },
  {
    "lat": 43.583553,
    "lon": 3.934907,
    "name": "Buffalo Grill",
    "url": ""
  },
  {
    "lat": 43.583973,
    "lon": 3.93322,
    "name": "Boulangerie Ange",
    "url": ""
  },
  {
    "lat": 43.582825,
    "lon": 3.934075,
    "name": "Clim-Mag",
    "url": ""
  },
  {
    "lat": 43.58035,
    "lon": 3.936821,
    "name": "Puissance Solaire Énergie",
    "url": ""
  },
  {
    "lat": 43.580933,
    "lon": 3.936281,
    "name": "Studio Pilates de Montpellier",
    "url": ""
  },
  {
    "lat": 43.58277,
    "lon": 3.936754,
    "name": "Boiron",
    "url": ""
  },
  {
    "lat": 43.583935,
    "lon": 3.932207,
    "name": "Jardiland",
    "url": ""
  },
  {
    "lat": 43.582348,
    "lon": 3.93573,
    "name": "M.D.A.",
    "url": ""
  },
  {
    "lat": 43.586815,
    "lon": 3.934125,
    "name": "T. M. E",
    "url": ""
  },
  {
    "lat": 43.587193,
    "lon": 3.935596,
    "name": "Média Fab",
    "url": ""
  },
  {
    "lat": 43.58858,
    "lon": 3.936762,
    "name": "Fitnessboutique France",
    "url": ""
  },
  {
    "lat": 43.587303,
    "lon": 3.934084,
    "name": "Bodeva Communication",
    "url": ""
  },
  {
    "lat": 43.58506,
    "lon": 3.933368,
    "name": "Trampoline Park You Jump Montpellier Lattes",
    "url": ""
  },
  {
    "lat": 43.585537,
    "lon": 3.932546,
    "name": "Gymnase de Champollion",
    "url": ""
  },
  {
    "lat": 43.588676,
    "lon": 3.934375,
    "name": "CarGo Location de véhicules Mauguio",
    "url": ""
  },
  {
    "lat": 43.58776,
    "lon": 3.933391,
    "name": "Les Jardins d\u0027Auréane",
    "url": ""
  },
  {
    "lat": 43.585575,
    "lon": 3.933593,
    "name": "Toutelanutrition.com Montpellier",
    "url": ""
  },
  {
    "lat": 43.587154,
    "lon": 3.933056,
    "name": "Cortus",
    "url": ""
  },
  {
    "lat": 43.588367,
    "lon": 3.932628,
    "name": "Centre Porsche Montpellier",
    "url": ""
  },
  {
    "lat": 43.588207,
    "lon": 3.934192,
    "name": "Forme-hotel \u0026 Spa Montpellier Sud-Est",
    "url": ""
  },
  {
    "lat": 43.587856,
    "lon": 3.935965,
    "name": "ALB Automobiles",
    "url": ""
  },
  {
    "lat": 43.586895,
    "lon": 3.928974,
    "name": "Auto Ecole Champollion",
    "url": ""
  },
  {
    "lat": 43.58857,
    "lon": 3.929827,
    "name": "Catherine Howard",
    "url": ""
  },
  {
    "lat": 43.585262,
    "lon": 3.928773,
    "name": "Conforama",
    "url": ""
  },
  {
    "lat": 43.587418,
    "lon": 3.9295,
    "name": "Alexlucas Cars 34",
    "url": ""
  },
  {
    "lat": 43.585026,
    "lon": 3.927178,
    "name": "Saveurs du Monde",
    "url": ""
  },
  {
    "lat": 43.589336,
    "lon": 3.929388,
    "name": "Les Chasselas",
    "url": ""
  },
  {
    "lat": 43.585217,
    "lon": 3.921582,
    "name": "New Squash et Badminton",
    "url": ""
  },
  {
    "lat": 43.586704,
    "lon": 3.925011,
    "name": "Jeu Pour Enfants De Boirargues",
    "url": "https://lh3.googleusercontent.com/N0Du4goOTVR-7mBl1tcB8S5-H34HCsUTKlB4ES1JwCyRGjXk051YGiFDxU4ExrcNWVyGdiWxLfIbugKiJBaR72iMj6ld"
  },
  {
    "lat": 43.5856,
    "lon": 3.921955,
    "name": "Mondial Pare-Brise",
    "url": ""
  },
  {
    "lat": 43.58494,
    "lon": 3.926545,
    "name": "Maxi Zoo France",
    "url": ""
  },
  {
    "lat": 43.584915,
    "lon": 3.924092,
    "name": "SARL Midi Pare Brise Franchisé MONDIAL PARE BRISE",
    "url": ""
  },
  {
    "lat": 43.585403,
    "lon": 3.922901,
    "name": "HELENIS",
    "url": ""
  },
  {
    "lat": 43.584793,
    "lon": 3.925519,
    "name": "Auto Bilan Monpellierain",
    "url": ""
  },
  {
    "lat": 43.58789,
    "lon": 3.916774,
    "name": "AJC Modélisme",
    "url": ""
  },
  {
    "lat": 43.58668,
    "lon": 3.919091,
    "name": "Gde Meca",
    "url": ""
  },
  {
    "lat": 43.58577,
    "lon": 3.92118,
    "name": "Courtois Services",
    "url": ""
  },
  {
    "lat": 43.585403,
    "lon": 3.920584,
    "name": "BUT",
    "url": ""
  },
  {
    "lat": 43.588913,
    "lon": 3.919627,
    "name": "Ferri-boniol Michèle",
    "url": ""
  },
  {
    "lat": 43.58761,
    "lon": 3.917482,
    "name": "New Life Fitness",
    "url": ""
  },
  {
    "lat": 43.58624,
    "lon": 3.920264,
    "name": "Studio Mng",
    "url": ""
  },
  {
    "lat": 43.586308,
    "lon": 3.921462,
    "name": "Sol-Fin Lattes",
    "url": ""
  },
  {
    "lat": 43.58736,
    "lon": 3.918446,
    "name": "Germain Roncari Thérapeute en hypnose et Psychopraticien",
    "url": ""
  },
  {
    "lat": 43.58615,
    "lon": 3.919664,
    "name": "Sénac Coralie",
    "url": ""
  },
  {
    "lat": 43.58311,
    "lon": 3.92041,
    "name": "Comptoir International du Cuir",
    "url": ""
  },
  {
    "lat": 43.5807,
    "lon": 3.920562,
    "name": "Société Languedocienne du Meuble",
    "url": ""
  },
  {
    "lat": 43.584084,
    "lon": 3.921466,
    "name": "ALDI France",
    "url": ""
  },
  {
    "lat": 43.581165,
    "lon": 3.920906,
    "name": "Mastempo",
    "url": ""
  },
  {
    "lat": 43.584633,
    "lon": 3.91984,
    "name": "First Stop Pneus \u0026 Co Lattes",
    "url": ""
  },
  {
    "lat": 43.582054,
    "lon": 3.921051,
    "name": "Himolla Crozatier Franchisé indépendant",
    "url": ""
  },
  {
    "lat": 43.58196,
    "lon": 3.920477,
    "name": "Crozatier",
    "url": ""
  },
  {
    "lat": 43.58383,
    "lon": 3.920812,
    "name": "L\u0027effet Jardin",
    "url": ""
  },
  {
    "lat": 43.581093,
    "lon": 3.920231,
    "name": "Cadeaux et Festivités.com",
    "url": ""
  },
  {
    "lat": 43.580894,
    "lon": 3.921979,
    "name": "Grand Litier - Lattes",
    "url": ""
  },
  {
    "lat": 43.582565,
    "lon": 3.921601,
    "name": "Monteleone",
    "url": ""
  },
  {
    "lat": 43.583694,
    "lon": 3.922547,
    "name": "Irrijardin",
    "url": ""
  },
  {
    "lat": 43.581673,
    "lon": 3.923467,
    "name": "Mobilier de France",
    "url": ""
  },
  {
    "lat": 43.583096,
    "lon": 3.922607,
    "name": "Intersport Lattes",
    "url": ""
  },
  {
    "lat": 43.58414,
    "lon": 3.925039,
    "name": "Vincent Tennis",
    "url": ""
  },
  {
    "lat": 43.582752,
    "lon": 3.923281,
    "name": "KERIA LAURIe LUMIÈRE",
    "url": ""
  },
  {
    "lat": 43.58019,
    "lon": 3.923899,
    "name": "Crozatier Languedocienne du Meuble",
    "url": ""
  },
  {
    "lat": 43.58316,
    "lon": 3.923694,
    "name": "LDLC",
    "url": ""
  },
  {
    "lat": 43.581814,
    "lon": 3.924804,
    "name": "BUT",
    "url": ""
  },
  {
    "lat": 43.58453,
    "lon": 3.923325,
    "name": "Hôtel le Mejean",
    "url": ""
  },
  {
    "lat": 43.581017,
    "lon": 3.922637,
    "name": "Monsieur Meuble",
    "url": ""
  },
  {
    "lat": 43.576366,
    "lon": 3.925393,
    "name": "Camping le Parc",
    "url": ""
  },
  {
    "lat": 43.579735,
    "lon": 3.921914,
    "name": "Chateau d\u0027Ax Montpellier",
    "url": ""
  },
  {
    "lat": 43.579075,
    "lon": 3.922335,
    "name": "Espace Cheval",
    "url": ""
  },
  {
    "lat": 43.579407,
    "lon": 3.921576,
    "name": "Dumond Xavier",
    "url": ""
  },
  {
    "lat": 43.57592,
    "lon": 3.924987,
    "name": "France Matériaux",
    "url": ""
  },
  {
    "lat": 43.5736,
    "lon": 3.921963,
    "name": "Logis le Mas de Couran",
    "url": ""
  },
  {
    "lat": 43.575172,
    "lon": 3.921341,
    "name": "Le Mas de couran",
    "url": ""
  },
  {
    "lat": 43.57329,
    "lon": 3.918624,
    "name": "City Stade De La Cougourlude",
    "url": "https://lh3.googleusercontent.com/9ortnCVuPBUvXcKVpXrNsLv7wPpPZKLMNHPOczok-VYpLXbxoHD0dFJ6ePsG0JbyXVEWohKaqW3d2OpNQX6hmdpXlQ"
  },
  {
    "lat": 43.576794,
    "lon": 3.912903,
    "name": "Piscines Desjoyaux",
    "url": ""
  },
  {
    "lat": 43.577045,
    "lon": 3.911757,
    "name": "Thierry BARRIERE",
    "url": ""
  },
  {
    "lat": 43.57433,
    "lon": 3.915518,
    "name": "Beenome",
    "url": ""
  },
  {
    "lat": 43.571087,
    "lon": 3.912903,
    "name": "2A Promotion",
    "url": ""
  },
  {
    "lat": 43.57264,
    "lon": 3.914186,
    "name": "Esthetic 2000",
    "url": ""
  },
  {
    "lat": 43.573666,
    "lon": 3.914589,
    "name": "La Piazza",
    "url": ""
  },
  {
    "lat": 43.571728,
    "lon": 3.907146,
    "name": "GUERINEL Julien",
    "url": ""
  },
  {
    "lat": 43.57183,
    "lon": 3.906338,
    "name": "Jean Vallon",
    "url": ""
  },
  {
    "lat": 43.57252,
    "lon": 3.907272,
    "name": "Apef",
    "url": ""
  },
  {
    "lat": 43.57177,
    "lon": 3.908192,
    "name": "Ajia Sushi \u0026 Burger Lattes",
    "url": ""
  },
  {
    "lat": 43.5803,
    "lon": 3.91058,
    "name": "Mas du Cheval",
    "url": ""
  },
  {
    "lat": 43.576477,
    "lon": 3.911284,
    "name": "Alfanoto",
    "url": ""
  },
  {
    "lat": 43.576286,
    "lon": 3.910159,
    "name": "Le Braséro",
    "url": ""
  },
  {
    "lat": 43.575954,
    "lon": 3.91076,
    "name": "Ms-Driver",
    "url": ""
  },
  {
    "lat": 43.58055,
    "lon": 3.909807,
    "name": "Le Mas du Cheval",
    "url": ""
  },
  {
    "lat": 43.582584,
    "lon": 3.915628,
    "name": "L.B Auto Import",
    "url": ""
  },
  {
    "lat": 43.58868,
    "lon": 3.91506,
    "name": "Healthy Body Nutrition",
    "url": ""
  },
  {
    "lat": 43.58808,
    "lon": 3.915776,
    "name": "Espace Escape",
    "url": ""
  },
  {
    "lat": 43.588966,
    "lon": 3.91391,
    "name": "New Squash",
    "url": ""
  },
  {
    "lat": 43.588512,
    "lon": 3.914208,
    "name": "NAF NAF Lattes",
    "url": ""
  },
  {
    "lat": 43.588223,
    "lon": 3.908042,
    "name": "Crâne d\u0027oeuf",
    "url": "https://lh3.googleusercontent.com/lMd3Kanmmaov9jpYv7J7IuRpQKKcSZ6VRebYzJUgrnvTUupmd4LZkOHA3lc4K43n9-SYDogJ2wSxOrZnjLTOdyFItkzBSVIYPR7HEeu6"
  },
  {
    "lat": 43.591846,
    "lon": 3.906697,
    "name": "LR Immobilier",
    "url": ""
  },
  {
    "lat": 43.592342,
    "lon": 3.906608,
    "name": "Scandal by Pourcel",
    "url": ""
  },
  {
    "lat": 43.592472,
    "lon": 3.907203,
    "name": "Zebre bleu",
    "url": ""
  },
  {
    "lat": 43.59941,
    "lon": 3.906711,
    "name": "Arthurimmo.com Montpellier Est",
    "url": ""
  },
  {
    "lat": 43.592125,
    "lon": 3.918502,
    "name": "Ferri-boniol Michèle",
    "url": ""
  },
  {
    "lat": 43.59427,
    "lon": 3.924892,
    "name": "Thrifty Car Rental",
    "url": ""
  },
  {
    "lat": 43.590145,
    "lon": 3.925847,
    "name": "pumptrack de Boirargues",
    "url": "https://lh3.googleusercontent.com/KC5DFREGjCyx3K773AYxR-2AqFdDnVpfNabygaE14SL7RpqFoO6kijL90IAcnl66q29z3f-efjzScvSKkeK-ROiYPjxYkZUGUk5-TgcQ"
  },
  {
    "lat": 43.598618,
    "lon": 3.917711,
    "name": "Montpellier Wado Ryu Karaté Club",
    "url": ""
  },
  {
    "lat": 43.59824,
    "lon": 3.920255,
    "name": "Snack le Gecko",
    "url": ""
  },
  {
    "lat": 43.603134,
    "lon": 3.918617,
    "name": "Statue de Sir Winston Churchill",
    "url": "https://lh3.googleusercontent.com/1DLUhrYkfQ1YDErTH60qqchIsCcdCZeHa8vUq5Kn54sxFulN_OGHPh6VQnnkAffo7Aia3nMAD8eW2O7jDU8yM4b1dw"
  },
  {
    "lat": 43.603886,
    "lon": 3.918735,
    "name": "Bâtiment en Mosaïque",
    "url": "https://lh3.googleusercontent.com/72-WKdzokSYKZ8ppeNpGZzUzZV_d_v2rnlCYF0EH1Sg45L_s82NWPDPheTQaX2QPU7WAvIwIjS8vhjbB7TzXxr02BsM"
  },
  {
    "lat": 43.603405,
    "lon": 3.920003,
    "name": "Quiksilver",
    "url": ""
  },
  {
    "lat": 43.602486,
    "lon": 3.92018,
    "name": "TESLA Supercharger Montpellier",
    "url": ""
  },
  {
    "lat": 43.60343,
    "lon": 3.921487,
    "name": "Brasserie Gusto",
    "url": ""
  },
  {
    "lat": 43.603252,
    "lon": 3.917128,
    "name": "Arche Mare Nostrum",
    "url": "https://lh3.googleusercontent.com/2KIaOqEmEwHk5qRD989-OXoAh1x1vA7vUM_TgLEDa50rZwEnXTRJE1TlxAez45fz_9NcqlV17T2gE-7PqTaJ_LWdSxde"
  },
  {
    "lat": 43.60361,
    "lon": 3.917777,
    "name": "Black Corner | Montpellier",
    "url": ""
  },
  {
    "lat": 43.60316,
    "lon": 3.917718,
    "name": "Ancienne Chapelle",
    "url": "https://lh3.googleusercontent.com/S2Kn7KcwCoUBMEKRzuTRfwppWKFPmWtFY5jb03h70ErXrDa2Tp99GmOx6ZZIflK-GUBavbdFFZNAzsmB_Qb-YgFxsCE"
  },
  {
    "lat": 43.603817,
    "lon": 3.919583,
    "name": "Hylton",
    "url": ""
  },
  {
    "lat": 43.603615,
    "lon": 3.920731,
    "name": "Darty",
    "url": ""
  },
  {
    "lat": 43.60296,
    "lon": 3.919211,
    "name": "Twistair",
    "url": "https://lh3.googleusercontent.com/wD3SYzUvUbtRaSVZAoHqstUy5BczKDqRNRW4y-LonzFOStMVHwjPYfuUB9eOKF4lcHLDlYWeMwZnHbhbBPeHNgL3pcc"
  },
  {
    "lat": 43.602863,
    "lon": 3.923934,
    "name": "Carré Voyages",
    "url": ""
  },
  {
    "lat": 43.600346,
    "lon": 3.925691,
    "name": "Belle demoiselle",
    "url": "https://lh3.googleusercontent.com/aAnBaJaubbmlhw3bd5hVeWltu3JReZiH1oA7gzShuz8SZm794utBrsfh_2CPGK3q4Mu1uz4XPRUBPnagBHcnfyUx9A"
  },
  {
    "lat": 43.605904,
    "lon": 3.924683,
    "name": "Columbus Café",
    "url": ""
  },
  {
    "lat": 43.605156,
    "lon": 3.922999,
    "name": "Boulodrome Odysseum",
    "url": "https://lh3.googleusercontent.com/2FI7h2jhqGm0krIjR0OESFXmEb0ENLsy090na3-o2tL-WulHmky560u2NeSXPq-bAilWegi99Jx42j9ZGyILBgt3cO8"
  },
  {
    "lat": 43.60448,
    "lon": 3.923655,
    "name": "Ikea",
    "url": ""
  },
  {
    "lat": 43.60556,
    "lon": 3.925752,
    "name": "Sauramps Odysseum",
    "url": ""
  },
  {
    "lat": 43.605003,
    "lon": 3.922291,
    "name": "KIKO Store",
    "url": ""
  },
  {
    "lat": 43.60669,
    "lon": 3.921728,
    "name": "ICADE",
    "url": ""
  },
  {
    "lat": 43.607277,
    "lon": 3.923479,
    "name": "Decathlon Montpellier Odysseum",
    "url": ""
  },
  {
    "lat": 43.6045,
    "lon": 3.922642,
    "name": "Du Bruit Dans la Maison",
    "url": ""
  },
  {
    "lat": 43.606873,
    "lon": 3.92412,
    "name": "Keep Cool Montpellier Odysseum",
    "url": ""
  },
  {
    "lat": 43.605476,
    "lon": 3.923492,
    "name": "Les Halles Solanid",
    "url": ""
  },
  {
    "lat": 43.606087,
    "lon": 3.921006,
    "name": "Randstad Search",
    "url": ""
  },
  {
    "lat": 43.604946,
    "lon": 3.920764,
    "name": "Bill l\u0027Horloger",
    "url": ""
  },
  {
    "lat": 43.606068,
    "lon": 3.920405,
    "name": "Colette Montpellier",
    "url": ""
  },
  {
    "lat": 43.605457,
    "lon": 3.91971,
    "name": "Amélie Crèpes Factory",
    "url": ""
  },
  {
    "lat": 43.608376,
    "lon": 3.917713,
    "name": "Allegro Musique",
    "url": ""
  },
  {
    "lat": 43.60591,
    "lon": 3.917523,
    "name": "Bausch \u0026 Lomb",
    "url": ""
  },
  {
    "lat": 43.608734,
    "lon": 3.917914,
    "name": "R2C",
    "url": ""
  },
  {
    "lat": 43.60856,
    "lon": 3.916715,
    "name": "Obug Montpellier",
    "url": ""
  },
  {
    "lat": 43.6045,
    "lon": 3.920358,
    "name": "Michel Dervyn",
    "url": ""
  },
  {
    "lat": 43.607834,
    "lon": 3.918561,
    "name": "Arche du Parc Club",
    "url": "https://lh3.googleusercontent.com/5FkK2gaRPC40FAlf7gf0CpjrqOGjhEVqZvl7ryTZGn0hXtXzAH8rF5QBC5ryc7VpbAcvRPEla5hBIwTd9jDyxtS_mXI"
  },
  {
    "lat": 43.608135,
    "lon": 3.913012,
    "name": "ELF",
    "url": ""
  },
  {
    "lat": 43.607456,
    "lon": 3.911768,
    "name": "DP News Communication",
    "url": ""
  },
  {
    "lat": 43.606213,
    "lon": 3.91273,
    "name": "Intrasense",
    "url": ""
  },
  {
    "lat": 43.607353,
    "lon": 3.912972,
    "name": "Kaliop Interactive Media",
    "url": ""
  },
  {
    "lat": 43.604477,
    "lon": 3.91552,
    "name": "Gaumont Montpellier Multiplexe",
    "url": ""
  },
  {
    "lat": 43.607456,
    "lon": 3.914507,
    "name": "Groupe GGL - Siège Social",
    "url": ""
  },
  {
    "lat": 43.60899,
    "lon": 3.915456,
    "name": "Qualiconsult Sécurité",
    "url": ""
  },
  {
    "lat": 43.60639,
    "lon": 3.912041,
    "name": "Agence de l\u0027Eau Rhône Méditerranée Corse",
    "url": ""
  },
  {
    "lat": 43.60703,
    "lon": 3.915483,
    "name": "Michel Simond",
    "url": ""
  },
  {
    "lat": 43.607105,
    "lon": 3.91602,
    "name": "Axiome Associés",
    "url": ""
  },
  {
    "lat": 43.60836,
    "lon": 3.915757,
    "name": "Lynx RH Montpellier",
    "url": ""
  },
  {
    "lat": 43.601208,
    "lon": 3.914824,
    "name": "Electric Charging Station",
    "url": ""
  },
  {
    "lat": 43.60099,
    "lon": 3.914072,
    "name": "Scintidoc",
    "url": ""
  },
  {
    "lat": 43.603737,
    "lon": 3.916231,
    "name": "Les 3 Brasseurs",
    "url": ""
  },
  {
    "lat": 43.603226,
    "lon": 3.915725,
    "name": "Casa Inesa",
    "url": ""
  },
  {
    "lat": 43.60308,
    "lon": 3.910198,
    "name": "Résidence Étudiante",
    "url": ""
  },
  {
    "lat": 43.603695,
    "lon": 3.910618,
    "name": "Pôle Emploi",
    "url": ""
  },
  {
    "lat": 43.605545,
    "lon": 3.910782,
    "name": "Tvsat-Pro",
    "url": ""
  },
  {
    "lat": 43.60824,
    "lon": 3.908592,
    "name": "Grotte Artificielle",
    "url": "https://lh3.googleusercontent.com/jIJot0lTECIErSNmvn7W_Wx0AmrRmFYS5_6wM5DdxbaRzEppt3Lg2RZAMWWsj6llJ1Kq4WB6rMU--XWCJ4yfrC3dFdo"
  },
  {
    "lat": 43.607147,
    "lon": 3.908133,
    "name": "Parc de la Lironde",
    "url": ""
  },
  {
    "lat": 43.60836,
    "lon": 3.908041,
    "name": "Graffiti De La Jungle Urbaine",
    "url": "https://lh3.googleusercontent.com/6q9WLgT95jLHtH8ekpirnywNWuX-Z5EFgW6gsGHbT1Grwox7smRldK02-ScD9EZqQ31bNhjx11J2qYQlgZsmwAvNAzQ"
  },
  {
    "lat": 43.608986,
    "lon": 3.907816,
    "name": "L`Orée de la Lironde",
    "url": ""
  },
  {
    "lat": 43.604816,
    "lon": 3.908301,
    "name": "The Beauty Suite - Nail Expert",
    "url": ""
  },
  {
    "lat": 43.607822,
    "lon": 3.909059,
    "name": "Altea-Consultant",
    "url": ""
  },
  {
    "lat": 43.61355,
    "lon": 3.906895,
    "name": "Metge Automobiles",
    "url": ""
  },
  {
    "lat": 43.612904,
    "lon": 3.91008,
    "name": "Stop Guêpes and Frelons",
    "url": ""
  },
  {
    "lat": 43.609818,
    "lon": 3.911273,
    "name": "Evere",
    "url": ""
  },
  {
    "lat": 43.61044,
    "lon": 3.908706,
    "name": "Actiglass",
    "url": ""
  },
  {
    "lat": 43.61151,
    "lon": 3.907571,
    "name": "Secret Love",
    "url": "https://lh3.googleusercontent.com/4ihX8KewAI1CJhVs8IEVJZCfXLvrpQWjFDHgnadNTpKg4b7yFSkSblf1nbUwEOlMbdWxSnJlrcGa7p9fwuHLN8aRiuKDSmWKD4oyJd2fqw"
  },
  {
    "lat": 43.610943,
    "lon": 3.906862,
    "name": "Vitale Coiff",
    "url": ""
  },
  {
    "lat": 43.61082,
    "lon": 3.908058,
    "name": "Jeff latex company",
    "url": ""
  },
  {
    "lat": 43.612732,
    "lon": 3.909275,
    "name": "Instanproduction",
    "url": ""
  },
  {
    "lat": 43.614044,
    "lon": 3.908614,
    "name": "Jeux Enfants Gabriel",
    "url": "https://lh3.googleusercontent.com/khq2yPqb-LEV8R62WBuwTahm8khU1rPnvm_y2giKC3RgROeHT5FfZwEc4AzXIUMm3Qo0F63-WW2jlr6UZ_fcl-6Ofbow"
  },
  {
    "lat": 43.610294,
    "lon": 3.907032,
    "name": "Akerys Promotion",
    "url": ""
  },
  {
    "lat": 43.609715,
    "lon": 3.910445,
    "name": "Pilates Centre Montpellier Millénaire",
    "url": ""
  },
  {
    "lat": 43.61004,
    "lon": 3.908248,
    "name": "Vast Rh",
    "url": ""
  },
  {
    "lat": 43.61044,
    "lon": 3.915951,
    "name": "Lien Horticole",
    "url": ""
  },
  {
    "lat": 43.612988,
    "lon": 3.914457,
    "name": "SCC",
    "url": ""
  },
  {
    "lat": 43.60979,
    "lon": 3.913035,
    "name": "SORECO",
    "url": ""
  },
  {
    "lat": 43.611053,
    "lon": 3.913693,
    "name": "Urbasolar",
    "url": ""
  },
  {
    "lat": 43.613415,
    "lon": 3.913592,
    "name": "Lpcr Groupe les Petits Chaperons Rouges Montpellier Eureka",
    "url": ""
  },
  {
    "lat": 43.609444,
    "lon": 3.913664,
    "name": "Vast Rh",
    "url": ""
  },
  {
    "lat": 43.612873,
    "lon": 3.915179,
    "name": "Axeo Services",
    "url": ""
  },
  {
    "lat": 43.613144,
    "lon": 3.912497,
    "name": "La Poste",
    "url": ""
  },
  {
    "lat": 43.609688,
    "lon": 3.911909,
    "name": "Dexo",
    "url": ""
  },
  {
    "lat": 43.61018,
    "lon": 3.914547,
    "name": "Ait",
    "url": ""
  },
  {
    "lat": 43.610615,
    "lon": 3.914417,
    "name": "Aphoria Expertise",
    "url": ""
  },
  {
    "lat": 43.61072,
    "lon": 3.912022,
    "name": "Caves Languedoc Roussillon",
    "url": ""
  },
  {
    "lat": 43.61014,
    "lon": 3.9135,
    "name": "VTR Voyages",
    "url": ""
  },
  {
    "lat": 43.614113,
    "lon": 3.912583,
    "name": "Ordre Geometres Experts Region LR",
    "url": ""
  },
  {
    "lat": 43.616985,
    "lon": 3.914332,
    "name": "URBANESENS, immobilier Neuf à Montpellier",
    "url": ""
  },
  {
    "lat": 43.61771,
    "lon": 3.916143,
    "name": "Vivaltis",
    "url": ""
  },
  {
    "lat": 43.617455,
    "lon": 3.915134,
    "name": "P.E.R Ingénierie",
    "url": ""
  },
  {
    "lat": 43.6168,
    "lon": 3.916344,
    "name": "Job Mtp",
    "url": ""
  },
  {
    "lat": 43.618397,
    "lon": 3.911721,
    "name": "Dell",
    "url": ""
  },
  {
    "lat": 43.6181,
    "lon": 3.914146,
    "name": "Evalandgo",
    "url": ""
  },
  {
    "lat": 43.61671,
    "lon": 3.915745,
    "name": "UCit",
    "url": ""
  },
  {
    "lat": 43.61753,
    "lon": 3.914154,
    "name": "SPA à Montpellier les Jardins du Millénaire",
    "url": ""
  },
  {
    "lat": 43.61396,
    "lon": 3.912005,
    "name": "Fmc 34",
    "url": ""
  },
  {
    "lat": 43.614403,
    "lon": 3.9143,
    "name": "Norisko Coordination",
    "url": ""
  },
  {
    "lat": 43.61789,
    "lon": 3.915454,
    "name": "Compass Group France",
    "url": ""
  },
  {
    "lat": 43.61432,
    "lon": 3.913639,
    "name": "Formega",
    "url": ""
  },
  {
    "lat": 43.614426,
    "lon": 3.909115,
    "name": "France 3 Languedoc Roussillon",
    "url": ""
  },
  {
    "lat": 43.614983,
    "lon": 3.909699,
    "name": "ADMR Hérault",
    "url": ""
  },
  {
    "lat": 43.614235,
    "lon": 3.907201,
    "name": "Restaurant Le Passeo Millénaire",
    "url": ""
  },
  {
    "lat": 43.61629,
    "lon": 3.910943,
    "name": "Voyance Luminance",
    "url": ""
  },
  {
    "lat": 43.61502,
    "lon": 3.90866,
    "name": "France3 SUD",
    "url": ""
  },
  {
    "lat": 43.61704,
    "lon": 3.910924,
    "name": "B\u0026B HOTEL Montpellier Centre Le Millénaire",
    "url": ""
  },
  {
    "lat": 43.615074,
    "lon": 3.907904,
    "name": "B\u0026B Hôtel Montpellier Centre le Millénaire",
    "url": ""
  },
  {
    "lat": 43.61543,
    "lon": 3.910328,
    "name": "IP Connect",
    "url": ""
  },
  {
    "lat": 43.622738,
    "lon": 3.911146,
    "name": "Sous mon Toit",
    "url": ""
  },
  {
    "lat": 43.62305,
    "lon": 3.909906,
    "name": "GlobalPOS",
    "url": ""
  },
  {
    "lat": 43.62279,
    "lon": 3.908896,
    "name": "Générale de Protection",
    "url": ""
  },
  {
    "lat": 43.619286,
    "lon": 3.908184,
    "name": "Orange Le Patio Montpellier",
    "url": ""
  },
  {
    "lat": 43.620693,
    "lon": 3.910797,
    "name": "Buro+ Buro City",
    "url": ""
  },
  {
    "lat": 43.625237,
    "lon": 3.908739,
    "name": "Micocouler",
    "url": "https://lh3.googleusercontent.com/8sJWlS2YFC1kS8Aie3Gk1aghpjtmsPYUJzC9FmzCOJODFHoOsH0mcHysgNBP0Or2q5Wv35Lkynt-DgDeCleyfAOdwRlc-Nczpj7ZSCyP"
  },
  {
    "lat": 43.624043,
    "lon": 3.907813,
    "name": "Mini dentelle",
    "url": "https://lh3.googleusercontent.com/CcW2UIASPoEdXBXlpc3YZzAQHhmrPgTUGdgifAIITOY4XS9NvKpzaYiPUrvdQo_6vcN2u0XSe5JbDNVEi4kKHqkQ5gjWkfMHSnW7jOw"
  },
  {
    "lat": 43.62673,
    "lon": 3.910395,
    "name": "CrossFit Castelnau-le-Lez",
    "url": ""
  },
  {
    "lat": 43.627785,
    "lon": 3.909394,
    "name": "Pays d\u0027Oc Mobilités",
    "url": ""
  },
  {
    "lat": 43.62532,
    "lon": 3.907902,
    "name": "Chateau fort mas rochet",
    "url": "https://lh3.googleusercontent.com/QCHHyS-RoG95TH_Gh6h2dmVJkg2Guvd9VQlAi-VO0hWfcdik6yR2wbVSwOpTslLTUmJfGjaZ1fqv1s2XWBohsMnzW1z-Xj__FZlu4KbF"
  },
  {
    "lat": 43.6262,
    "lon": 3.91103,
    "name": "Teambox",
    "url": ""
  },
  {
    "lat": 43.628113,
    "lon": 3.911622,
    "name": "Block\u0027Out",
    "url": ""
  },
  {
    "lat": 43.625874,
    "lon": 3.912975,
    "name": "CrossFit Castelnau-le-Lez",
    "url": ""
  },
  {
    "lat": 43.623753,
    "lon": 3.912815,
    "name": "Annie Marxer Ressources",
    "url": ""
  },
  {
    "lat": 43.626778,
    "lon": 3.911899,
    "name": "AFE Montpellier",
    "url": ""
  },
  {
    "lat": 43.625816,
    "lon": 3.911447,
    "name": "Dextran Métrologie",
    "url": ""
  },
  {
    "lat": 43.62425,
    "lon": 3.913564,
    "name": "Bari Trattoria",
    "url": ""
  },
  {
    "lat": 43.619423,
    "lon": 3.913081,
    "name": "Park \u0026 Suites Elégance Montpellier Millénaire",
    "url": ""
  },
  {
    "lat": 43.62325,
    "lon": 3.913165,
    "name": "Compagnie des Déboucheurs Montpellier Hérault",
    "url": ""
  },
  {
    "lat": 43.619312,
    "lon": 3.913833,
    "name": "Class\u0027croute",
    "url": ""
  },
  {
    "lat": 43.62158,
    "lon": 3.9126,
    "name": "NOVEYS PATRIMOINE - Gestion de Patrimoine \u0026 immobilier à Montpellier",
    "url": ""
  },
  {
    "lat": 43.619133,
    "lon": 3.914887,
    "name": "Avinéon",
    "url": ""
  },
  {
    "lat": 43.619377,
    "lon": 3.915395,
    "name": "La Churrasqueira",
    "url": ""
  },
  {
    "lat": 43.62021,
    "lon": 3.912022,
    "name": "CodinGame",
    "url": ""
  },
  {
    "lat": 43.618774,
    "lon": 3.918155,
    "name": "Medtech",
    "url": ""
  },
  {
    "lat": 43.618855,
    "lon": 3.91678,
    "name": "ORSYS",
    "url": ""
  },
  {
    "lat": 43.61892,
    "lon": 3.917603,
    "name": "Servitel",
    "url": ""
  },
  {
    "lat": 43.624535,
    "lon": 3.920497,
    "name": "La Plage by Verchant",
    "url": ""
  },
  {
    "lat": 43.623817,
    "lon": 3.918601,
    "name": "Golf de Castelnau-le-Lez",
    "url": ""
  },
  {
    "lat": 43.624428,
    "lon": 3.918627,
    "name": "Gîte Les Coquilloux",
    "url": ""
  },
  {
    "lat": 43.618687,
    "lon": 3.92172,
    "name": "La Ferme Urbaine Collective de la Condamine",
    "url": ""
  },
  {
    "lat": 43.621983,
    "lon": 3.923485,
    "name": "Restaurant Marcelle",
    "url": ""
  },
  {
    "lat": 43.622833,
    "lon": 3.922856,
    "name": "M. Damien Cousseau",
    "url": ""
  },
  {
    "lat": 43.618275,
    "lon": 3.916616,
    "name": "Foncière Bergé",
    "url": ""
  },
  {
    "lat": 43.618023,
    "lon": 3.919075,
    "name": "I2A",
    "url": ""
  },
  {
    "lat": 43.617306,
    "lon": 3.919068,
    "name": "Capelec",
    "url": ""
  },
  {
    "lat": 43.61704,
    "lon": 3.918367,
    "name": "Annealsys",
    "url": ""
  },
  {
    "lat": 43.618347,
    "lon": 3.919847,
    "name": "DiaDom",
    "url": ""
  },
  {
    "lat": 43.611393,
    "lon": 3.918685,
    "name": "Zénith",
    "url": ""
  },
  {
    "lat": 43.610096,
    "lon": 3.918908,
    "name": "Folia, Restaurant de Flaugergues",
    "url": ""
  },
  {
    "lat": 43.61009,
    "lon": 3.917329,
    "name": "Zigliani Batisseur",
    "url": ""
  },
  {
    "lat": 43.60908,
    "lon": 3.91724,
    "name": "Solipsis",
    "url": ""
  },
  {
    "lat": 43.61008,
    "lon": 3.918033,
    "name": "Business Car Company",
    "url": ""
  },
  {
    "lat": 43.609844,
    "lon": 3.9168,
    "name": "Price Observatory",
    "url": ""
  },
  {
    "lat": 43.6104,
    "lon": 3.91651,
    "name": "PatrimHome",
    "url": ""
  },
  {
    "lat": 43.61058,
    "lon": 3.917382,
    "name": "Atipico Restaurant Libanais",
    "url": ""
  },
  {
    "lat": 43.60934,
    "lon": 3.916756,
    "name": "Acoustic Technologies Midi",
    "url": ""
  },
  {
    "lat": 43.61221,
    "lon": 3.923945,
    "name": "Tennis Club de Grammont",
    "url": ""
  },
  {
    "lat": 43.610092,
    "lon": 3.929931,
    "name": "Église Orthodoxe Ste Philothée",
    "url": ""
  },
  {
    "lat": 43.612255,
    "lon": 3.930348,
    "name": "Compass Group France",
    "url": ""
  },
  {
    "lat": 43.61263,
    "lon": 3.92913,
    "name": "Skate Park de Gramont - Montpellier",
    "url": "https://lh3.googleusercontent.com/UCop79FT31fUMHbCPSnqm6PrC-AEEEmRNsVr4as_aLSmA-oGkgFPQlfQRos9xW-zIsHtdZEfPvmEMCL-5fxhLQzgRBP8iL0GtcZzYxUW"
  },
  {
    "lat": 43.612976,
    "lon": 3.930751,
    "name": "Zénith Sud",
    "url": ""
  },
  {
    "lat": 43.616905,
    "lon": 3.930962,
    "name": "Théâtre des 13 vents",
    "url": ""
  },
  {
    "lat": 43.61618,
    "lon": 3.929661,
    "name": "Château de Grammont",
    "url": "https://lh3.googleusercontent.com/VmHSkiXmvG_wzwrts_at4qSSzlN2Ripjn_NWHDhv37SLSwcr8cuilo4RjkkasFK1BG6frrXsV2Shgja9-GsdXd-6Hcc"
  },
  {
    "lat": 43.614704,
    "lon": 3.929934,
    "name": "Entrée Parc Grammont",
    "url": "https://lh3.googleusercontent.com/fvFOSBehMxE9XTJVmNqV0ggR0rq-ROd_3Ad7QQm7pouol4Af2zPlH7saCySs7Z0L8wc_L0fLX7wy7Cu6YcPpF1ZAe6A"
  },
  {
    "lat": 43.616272,
    "lon": 3.930475,
    "name": "Coffre De Grammont",
    "url": "https://lh3.googleusercontent.com/ZMHK2a8fi6VfQSrPGZU2lmtjzrCYiy95MN1h4EwUmo2Qs9d7AR2n5KnJ6dArwZ0_sniCdizUUz5X7zd0hj6Baib6SA"
  },
  {
    "lat": 43.61581,
    "lon": 3.930771,
    "name": "Tête De Cheval De Grammont",
    "url": "https://lh3.googleusercontent.com/H0y9furSxdEUrW717eHW30M-Bw0286aqCwSFqjrbfAn5WBFJdc7Zqyy6czyltgd1Q9mOPpTfMvvcXUSkL4-GtnUBLQA"
  },
  {
    "lat": 43.61719,
    "lon": 3.929347,
    "name": "Centre Equestre Montpellier Grammont",
    "url": ""
  },
  {
    "lat": 43.616817,
    "lon": 3.930288,
    "name": "Roseraie",
    "url": "https://lh3.googleusercontent.com/VeVfe1dj-FiNcgtTwsQKKaJUMWI4H5ad4BH_YGmwPHn570I37pci5PY2vIEZMJ88-BMcKbzp0_EcpkwRcPfNkAoPi08iZCSVQKR0T1Fs"
  },
  {
    "lat": 43.61554,
    "lon": 3.930132,
    "name": "Domaine de Grammont",
    "url": ""
  },
  {
    "lat": 43.61384,
    "lon": 3.935394,
    "name": "Complexe Sportif de Niggashu",
    "url": ""
  },
  {
    "lat": 43.613968,
    "lon": 3.946525,
    "name": "Mas du Ministre",
    "url": ""
  },
  {
    "lat": 43.622177,
    "lon": 3.938983,
    "name": "Domaine DeCalage",
    "url": ""
  },
  {
    "lat": 43.63727,
    "lon": 3.929409,
    "name": "O\u0027Sushi",
    "url": ""
  },
  {
    "lat": 43.636955,
    "lon": 3.9285,
    "name": "Agence Nestenn Immobilier Castelnau le Lez",
    "url": ""
  },
  {
    "lat": 43.63703,
    "lon": 3.92967,
    "name": "RAS Intérim et Recrutement",
    "url": ""
  },
  {
    "lat": 43.637375,
    "lon": 3.926925,
    "name": "Carte de l\u0027Aube Rouge",
    "url": "https://lh3.googleusercontent.com/0I6rIxZWXuO7ozE3XPP2MaXSbq6z6JdlOcqQ-TJYPPRFLMGlHLDyK-E0FiWdPTE6JArxnkz-7YrM44d_-BRyeCzW6NUGQ4lCyGouuOT0"
  },
  {
    "lat": 43.6372,
    "lon": 3.927795,
    "name": "Kia Motors Sodak",
    "url": ""
  },
  {
    "lat": 43.63609,
    "lon": 3.92718,
    "name": "Iris Promotion",
    "url": ""
  },
  {
    "lat": 43.640343,
    "lon": 3.941443,
    "name": "FMB Solutions Documentaires",
    "url": ""
  },
  {
    "lat": 43.64053,
    "lon": 3.939948,
    "name": "Les 5 Continents",
    "url": ""
  },
  {
    "lat": 43.640034,
    "lon": 3.9393,
    "name": "Psa Retail Peugeot",
    "url": ""
  },
  {
    "lat": 43.639584,
    "lon": 3.938104,
    "name": "Piscine Plus",
    "url": ""
  },
  {
    "lat": 43.64165,
    "lon": 3.939416,
    "name": "VillaVerde le Crès",
    "url": ""
  },
  {
    "lat": 43.64084,
    "lon": 3.93869,
    "name": "Caves Cairel Le Crès",
    "url": ""
  },
  {
    "lat": 43.640083,
    "lon": 3.937753,
    "name": "Aux Filles du Sud",
    "url": ""
  },
  {
    "lat": 43.64103,
    "lon": 3.941959,
    "name": "easyGym Montpellier Le Crès",
    "url": ""
  },
  {
    "lat": 43.64153,
    "lon": 3.944025,
    "name": "Gémo",
    "url": ""
  },
  {
    "lat": 43.640392,
    "lon": 3.943676,
    "name": "Lidl",
    "url": ""
  },
  {
    "lat": 43.642395,
    "lon": 3.944423,
    "name": "MH cuisines",
    "url": ""
  },
  {
    "lat": 43.643433,
    "lon": 3.945215,
    "name": "Ricaud Rep\u0027Art",
    "url": ""
  },
  {
    "lat": 43.642757,
    "lon": 3.945875,
    "name": "Fresque \"le Peintre\"",
    "url": "https://lh3.googleusercontent.com/sHEy_jd5niPDjSx9SIYKA4lcXaPtTsAH2xSeL7p3kE8Bt9zBh1-9rpjOvllVOQKycx1xDw16OVpe7epwGnSzJczbmPnXyZvjE42OiEnleQ"
  },
  {
    "lat": 43.64308,
    "lon": 3.943423,
    "name": "Norauto Le Cres",
    "url": ""
  },
  {
    "lat": 43.642677,
    "lon": 3.942666,
    "name": "Carrefour Traiteur",
    "url": ""
  },
  {
    "lat": 43.64221,
    "lon": 3.946004,
    "name": "Locmat et Equipmat",
    "url": ""
  },
  {
    "lat": 43.6426,
    "lon": 3.941756,
    "name": "Brasserie B",
    "url": ""
  },
  {
    "lat": 43.64271,
    "lon": 3.940243,
    "name": "L\u0027Atelier Photo STUDAPHOT",
    "url": ""
  },
  {
    "lat": 43.642776,
    "lon": 3.941067,
    "name": "Aqua Flora",
    "url": ""
  },
  {
    "lat": 43.642223,
    "lon": 3.940448,
    "name": "Crescendo Restaurant",
    "url": ""
  },
  {
    "lat": 43.64246,
    "lon": 3.9392,
    "name": "Culture Vélo Montpellier Le Crès - Vente - Réparation - Location Vélos sur Montpellier",
    "url": ""
  },
  {
    "lat": 43.64317,
    "lon": 3.936308,
    "name": "Boulangerie Aux Delices",
    "url": ""
  },
  {
    "lat": 43.642067,
    "lon": 3.935424,
    "name": "Parc Municipal Jacques Robert",
    "url": "https://lh3.googleusercontent.com/VM6Mm9dmDETpLpVTmJrvsjU77hf4SFEhaahd2gryTwnjhU45TrsPFDU2MYX0Co85vsFY5CwODqbAFGOQnj4QFqu8sTg"
  },
  {
    "lat": 43.64485,
    "lon": 3.93671,
    "name": "Mazda Rubis Automobiles Concessionnaire",
    "url": ""
  },
  {
    "lat": 43.643833,
    "lon": 3.936535,
    "name": "So.Hair Studio",
    "url": ""
  },
  {
    "lat": 43.63997,
    "lon": 3.935456,
    "name": "Union-materiaux Le Cres",
    "url": ""
  },
  {
    "lat": 43.639736,
    "lon": 3.933069,
    "name": "Temps-Danse-Création",
    "url": ""
  },
  {
    "lat": 43.6391,
    "lon": 3.935082,
    "name": "Chronodrive",
    "url": ""
  },
  {
    "lat": 43.641388,
    "lon": 3.934541,
    "name": "Hom",
    "url": ""
  },
  {
    "lat": 43.639244,
    "lon": 3.93311,
    "name": "VOLKSWAGEN",
    "url": ""
  },
  {
    "lat": 43.63817,
    "lon": 3.932941,
    "name": "Biocoop L\u0027Aile du Papillon au Crès",
    "url": ""
  },
  {
    "lat": 43.638447,
    "lon": 3.934082,
    "name": "AYME et FILS le Crès",
    "url": ""
  },
  {
    "lat": 43.63944,
    "lon": 3.936371,
    "name": "Honda EAG Groupe Capel",
    "url": ""
  },
  {
    "lat": 43.640297,
    "lon": 3.934246,
    "name": "Restaurant le Forest",
    "url": ""
  },
  {
    "lat": 43.637936,
    "lon": 3.932271,
    "name": "L\u0027Estaminet",
    "url": ""
  },
  {
    "lat": 43.639217,
    "lon": 3.932543,
    "name": "Panofrance",
    "url": ""
  },
  {
    "lat": 43.639553,
    "lon": 3.934462,
    "name": "Sous le Murier",
    "url": ""
  },
  {
    "lat": 43.6387,
    "lon": 3.93281,
    "name": "Panofrance Montpellier",
    "url": ""
  },
  {
    "lat": 43.638783,
    "lon": 3.927654,
    "name": "Azema Musique",
    "url": ""
  },
  {
    "lat": 43.639164,
    "lon": 3.929126,
    "name": "Zepetra",
    "url": ""
  },
  {
    "lat": 43.63837,
    "lon": 3.928999,
    "name": "Montimaran Automobile",
    "url": ""
  },
  {
    "lat": 43.638905,
    "lon": 3.92961,
    "name": "Quiz Room Montpellier",
    "url": ""
  },
  {
    "lat": 43.640343,
    "lon": 3.929625,
    "name": "Conciergerie Groomi",
    "url": ""
  },
  {
    "lat": 43.63928,
    "lon": 3.92774,
    "name": "Tendancechaussures.com",
    "url": ""
  },
  {
    "lat": 43.637405,
    "lon": 3.929957,
    "name": "Sud Vo",
    "url": ""
  },
  {
    "lat": 43.638256,
    "lon": 3.927043,
    "name": "O Saveurs de l\u0027Aube Rouge",
    "url": ""
  },
  {
    "lat": 43.6382,
    "lon": 3.929857,
    "name": "Burger King France",
    "url": ""
  },
  {
    "lat": 43.63772,
    "lon": 3.927926,
    "name": "Le 18",
    "url": ""
  },
  {
    "lat": 43.643635,
    "lon": 3.928705,
    "name": "Ap Media",
    "url": ""
  },
  {
    "lat": 43.64455,
    "lon": 3.92424,
    "name": "Toutounet toilettage canin",
    "url": ""
  },
  {
    "lat": 43.643917,
    "lon": 3.920748,
    "name": "Attard Automobiles",
    "url": ""
  },
  {
    "lat": 43.64414,
    "lon": 3.919611,
    "name": "Sarl J C Facades",
    "url": ""
  },
  {
    "lat": 43.64422,
    "lon": 3.921311,
    "name": "Attard Dépannage",
    "url": ""
  },
  {
    "lat": 43.64251,
    "lon": 3.917732,
    "name": "Zoobrew",
    "url": ""
  },
  {
    "lat": 43.645237,
    "lon": 3.918411,
    "name": "Auto Ecole des Garrigues",
    "url": ""
  },
  {
    "lat": 43.64367,
    "lon": 3.921318,
    "name": "Clim+",
    "url": ""
  },
  {
    "lat": 43.64483,
    "lon": 3.918219,
    "name": "Portales jardins",
    "url": ""
  },
  {
    "lat": 43.64332,
    "lon": 3.919313,
    "name": "Sedi",
    "url": ""
  },
  {
    "lat": 43.64297,
    "lon": 3.916914,
    "name": "Securitest Carenz",
    "url": ""
  },
  {
    "lat": 43.645157,
    "lon": 3.918996,
    "name": "SLMTP",
    "url": ""
  },
  {
    "lat": 43.64233,
    "lon": 3.921324,
    "name": "Terrain multisport du Devois",
    "url": "https://lh3.googleusercontent.com/cD1aSZ70DwfWu28cPROgxIX92BXYEbWa1LD_pR9Fr7H1Dbf-pR_gDmEWGLR8-udleosqiIIj3eAjv_hpTklEBUmbwoRcXTGmJE3Poewg"
  },
  {
    "lat": 43.641285,
    "lon": 3.917469,
    "name": "Carrosserie Lamare",
    "url": ""
  },
  {
    "lat": 43.64195,
    "lon": 3.920122,
    "name": "Pole In Art",
    "url": ""
  },
  {
    "lat": 43.63778,
    "lon": 3.916538,
    "name": "Mercedes-Benz Sodira Distributeur et Réparateur agréé",
    "url": ""
  },
  {
    "lat": 43.64238,
    "lon": 3.919137,
    "name": "Young Min Grill",
    "url": ""
  },
  {
    "lat": 43.64111,
    "lon": 3.918158,
    "name": "Garage des Romarins",
    "url": ""
  },
  {
    "lat": 43.639397,
    "lon": 3.922227,
    "name": "Restaurant Rêve du Chef",
    "url": ""
  },
  {
    "lat": 43.640175,
    "lon": 3.922757,
    "name": "Bureau du Berger",
    "url": ""
  },
  {
    "lat": 43.640102,
    "lon": 3.925712,
    "name": "UPS",
    "url": ""
  },
  {
    "lat": 43.638668,
    "lon": 3.923808,
    "name": "Allouch Jean-Philippe",
    "url": ""
  },
  {
    "lat": 43.639805,
    "lon": 3.92341,
    "name": "basket",
    "url": "https://lh3.googleusercontent.com/PYlPsYauyGBp0Q7R5uiMutzRezgW2308rKrgD5Iki-BCK2rRR7MN11zLzRgXmovmUUQBqFWBL0We6IoHZcsioTeUzQNxL8mgzX3VcJ7q"
  },
  {
    "lat": 43.642284,
    "lon": 3.922189,
    "name": "Arbre droit de la femme",
    "url": "https://lh3.googleusercontent.com/KMQgHHNlgE9pAFnvpcvpA1i16L0986XOnjxj2HE3bY_9o7wd1fBrcbAQ_OoHsOEr28BOTPDnXdrCNv86FeA-fnEeQBfs2okgePlJ84wd"
  },
  {
    "lat": 43.63812,
    "lon": 3.926495,
    "name": "Coiff\u0026Co",
    "url": ""
  },
  {
    "lat": 43.638977,
    "lon": 3.925161,
    "name": "Intermarché Aube Rouge",
    "url": ""
  },
  {
    "lat": 43.6382,
    "lon": 3.925515,
    "name": "Mercedes Benz",
    "url": ""
  },
  {
    "lat": 43.638348,
    "lon": 3.924654,
    "name": "Sablassou Pizzéria",
    "url": ""
  },
  {
    "lat": 43.635654,
    "lon": 3.92591,
    "name": "Dis Moi Oui",
    "url": ""
  },
  {
    "lat": 43.637314,
    "lon": 3.925492,
    "name": "Saeng Dao",
    "url": ""
  },
  {
    "lat": 43.63622,
    "lon": 3.925988,
    "name": "Aluminium MD",
    "url": ""
  },
  {
    "lat": 43.635487,
    "lon": 3.925329,
    "name": "Midas",
    "url": ""
  },
  {
    "lat": 43.63565,
    "lon": 3.924725,
    "name": "Adice Intérim",
    "url": ""
  },
  {
    "lat": 43.634975,
    "lon": 3.92427,
    "name": "France Pare Brise",
    "url": ""
  },
  {
    "lat": 43.63676,
    "lon": 3.925895,
    "name": "Cinderella Célébration Mariage",
    "url": ""
  },
  {
    "lat": 43.636,
    "lon": 3.925461,
    "name": "University Residence Primavera",
    "url": ""
  },
  {
    "lat": 43.637028,
    "lon": 3.926596,
    "name": "Stim Wave Castelnau",
    "url": ""
  },
  {
    "lat": 43.635742,
    "lon": 3.923831,
    "name": "Viandes d\u0027oc",
    "url": ""
  },
  {
    "lat": 43.631462,
    "lon": 3.924043,
    "name": "Triade Electronique",
    "url": ""
  },
  {
    "lat": 43.632736,
    "lon": 3.920265,
    "name": "Tennis Club Saint Georges",
    "url": ""
  },
  {
    "lat": 43.636433,
    "lon": 3.920592,
    "name": "Onorm Elec Rénovation",
    "url": ""
  },
  {
    "lat": 43.633465,
    "lon": 3.921457,
    "name": "Locmat",
    "url": ""
  },
  {
    "lat": 43.633457,
    "lon": 3.919877,
    "name": "Maisons BIC Montpellier",
    "url": ""
  },
  {
    "lat": 43.63492,
    "lon": 3.919633,
    "name": "Hera beaute, experte sourcils et beauté",
    "url": ""
  },
  {
    "lat": 43.63313,
    "lon": 3.912686,
    "name": "Tek Villa",
    "url": ""
  },
  {
    "lat": 43.63395,
    "lon": 3.913379,
    "name": "Luc Bedaghe",
    "url": ""
  },
  {
    "lat": 43.63508,
    "lon": 3.916214,
    "name": "Nout",
    "url": ""
  },
  {
    "lat": 43.635185,
    "lon": 3.913122,
    "name": "Castel\u0027Immo",
    "url": ""
  },
  {
    "lat": 43.63505,
    "lon": 3.915648,
    "name": "Glce Event",
    "url": ""
  },
  {
    "lat": 43.63576,
    "lon": 3.914118,
    "name": "La Maison de La Gravure Mediterranée",
    "url": ""
  },
  {
    "lat": 43.63589,
    "lon": 3.916059,
    "name": "Au Mazet de Grand Mémé",
    "url": ""
  },
  {
    "lat": 43.63339,
    "lon": 3.915725,
    "name": "By Coralie | Maquillage semi-permanent Montpellier / Castelnau-Le-Lez",
    "url": ""
  },
  {
    "lat": 43.632492,
    "lon": 3.913268,
    "name": "Agence immobilière Immo Conseil Finance Castelnau le Lez",
    "url": ""
  },
  {
    "lat": 43.631783,
    "lon": 3.912172,
    "name": "Picard Castelnau",
    "url": ""
  },
  {
    "lat": 43.632275,
    "lon": 3.915861,
    "name": "Intens\u0027Events",
    "url": ""
  },
  {
    "lat": 43.632607,
    "lon": 3.916334,
    "name": "Asia Home",
    "url": ""
  },
  {
    "lat": 43.6321,
    "lon": 3.913216,
    "name": "Missions Interim",
    "url": ""
  },
  {
    "lat": 43.629745,
    "lon": 3.909934,
    "name": "Urban Soccer Montpellier",
    "url": ""
  },
  {
    "lat": 43.63081,
    "lon": 3.906588,
    "name": "Garage Ortigosa",
    "url": ""
  },
  {
    "lat": 43.631306,
    "lon": 3.909253,
    "name": "TACOS \u0026 NAAN Restaurant",
    "url": ""
  },
  {
    "lat": 43.6323,
    "lon": 3.910019,
    "name": "Pousse Organic Break",
    "url": ""
  },
  {
    "lat": 43.630436,
    "lon": 3.909463,
    "name": "Immoprêt Montpellier Est - courtier en prêt immobilier",
    "url": ""
  },
  {
    "lat": 43.633057,
    "lon": 3.907999,
    "name": "G.ROC Sarl Groc Père et Fils",
    "url": ""
  },
  {
    "lat": 43.63156,
    "lon": 3.91063,
    "name": "La Belle Bulle",
    "url": ""
  },
  {
    "lat": 43.63193,
    "lon": 3.908633,
    "name": "Achador",
    "url": ""
  },
  {
    "lat": 43.63219,
    "lon": 3.908062,
    "name": "Petit train des enfants",
    "url": "https://lh3.googleusercontent.com/1948T_C36BNAX7k--bibnIWuPVxkiu1xu1QOcW56vqXncaGES1bsIo4p0zo3BndvbxNICw3ONFFJqG4RP80Sg5fzZtp5xgg0JuSEybB4"
  },
  {
    "lat": 43.630856,
    "lon": 3.90882,
    "name": "Laverie WASH\u0027N DRY",
    "url": ""
  },
  {
    "lat": 43.63104,
    "lon": 3.908216,
    "name": "Hair Love Coiffure",
    "url": ""
  },
  {
    "lat": 43.63164,
    "lon": 3.908156,
    "name": "Lady Sushi Castelnau le lez",
    "url": ""
  },
  {
    "lat": 43.63065,
    "lon": 3.906659,
    "name": "Renault Agence Ortigosa Benjamin",
    "url": ""
  },
  {
    "lat": 43.637123,
    "lon": 3.910897,
    "name": "Piscine Christine Caron à Castelnau le lez",
    "url": ""
  },
  {
    "lat": 43.634094,
    "lon": 3.906838,
    "name": "Gymnase Halle des Perrières",
    "url": ""
  },
  {
    "lat": 43.637592,
    "lon": 3.911079,
    "name": "Fauris Mireille",
    "url": ""
  },
  {
    "lat": 43.635796,
    "lon": 3.908975,
    "name": "Répare Ta Bécane.com",
    "url": ""
  },
  {
    "lat": 43.642307,
    "lon": 3.909297,
    "name": "Patrick Leleu Humiditologue",
    "url": ""
  },
  {
    "lat": 43.64271,
    "lon": 3.908656,
    "name": "Taxi du Romarin",
    "url": ""
  },
  {
    "lat": 43.642345,
    "lon": 3.916012,
    "name": "Sellier Impact",
    "url": ""
  },
  {
    "lat": 43.63884,
    "lon": 3.912889,
    "name": "Le labyrinthe- Table d\u0027orientation du Parc Laporte",
    "url": "https://lh3.googleusercontent.com/gTQEpkXajLF1PRv0wYtt5reXWFRHnAOuwWKnYNVjo5YjBEUhmxHrdsLQXx1JYTrm-4--KfA2kfE5brQv2F1kEfZSiDU"
  },
  {
    "lat": 43.63823,
    "lon": 3.914043,
    "name": "Mairie Annexe",
    "url": "https://lh3.googleusercontent.com/Jvm9yJ4rAZoskOQRcPehqDAAA4bXcevnFqXJFB5uWXt4fWu27p-IKRwgeVt2urHvYC7rflTNAA99K5JwH1WK0x4Zgw"
  },
  {
    "lat": 43.641792,
    "lon": 3.91625,
    "name": "Meredith BITON Notaire à Castelnau-le-lez",
    "url": ""
  },