[
  {
    "lat": 43.608803,
    "lon": 3.864033,
    "name": "Garage Passion Auto",
    "url": ""
  },
  {
    "lat": 43.610065,
    "lon": 3.862059,
    "name": "Cité Universitaire les Arceaux",
    "url": ""
  },
  {
    "lat": 43.61051,
    "lon": 3.862859,
    "name": "Loc\u0027Apparts Montpellier",
    "url": ""
  },
  {
    "lat": 43.61032,
    "lon": 3.865122,
    "name": "Licorne de l’alcôve",
    "url": "https://lh3.googleusercontent.com/Fzygxp4FZdiU1HmswgictVKwzBO9172PZVco_PmnFHsQy-D-uJM-hEezVh3KkzGKi8gvUWoFWiCVg9fQm6cpZe_Mvg"
  },
  {
    "lat": 43.60997,
    "lon": 3.862953,
    "name": "SB beauty",
    "url": ""
  },
  {
    "lat": 43.608414,
    "lon": 3.862872,
    "name": "Fouquet Architecture",
    "url": ""
  },
  {
    "lat": 43.60969,
    "lon": 3.86423,
    "name": "Irfa Sud Hérault - Montpellier \u0026 Agde",
    "url": ""
  },
  {
    "lat": 43.61058,
    "lon": 3.864077,
    "name": "Érica Leite",
    "url": ""
  },
  {
    "lat": 43.607265,
    "lon": 3.860551,
    "name": "Maison Pour Tous Albertine Sarrazin",
    "url": "https://lh3.googleusercontent.com/8cNCi8X4mfRY0jlkAOz8UEoyBZCbzZCXuYdkcjlwnAu2l6lHOZWOd1r7d700zBBav1PTKMO3LbWLrnUyD_0x60AZsMM"
  },
  {
    "lat": 43.609383,
    "lon": 3.864986,
    "name": "Union Nationale d\u0027Intérêt Technique et Economique Mutualiste",
    "url": ""
  },
  {
    "lat": 43.607014,
    "lon": 3.863115,
    "name": "Cabiro Sophie",
    "url": ""
  },
  {
    "lat": 43.606224,
    "lon": 3.864173,
    "name": "Languedoc Depannage Distribution",
    "url": ""
  },
  {
    "lat": 43.62388,
    "lon": 3.862427,
    "name": "Auto Ecole de la Comédie",
    "url": ""
  },
  {
    "lat": 43.624138,
    "lon": 3.86369,
    "name": "Agence Du Triolet",
    "url": ""
  },
  {
    "lat": 43.6239,
    "lon": 3.861809,
    "name": "Shiva Food",
    "url": ""
  },
  {
    "lat": 43.62319,
    "lon": 3.863381,
    "name": "Les Romarins S.A.R.L.",
    "url": ""
  },
  {
    "lat": 43.624695,
    "lon": 3.864613,
    "name": "Student Residence Artémisia Montpellier Saint-Eloi",
    "url": ""
  },
  {
    "lat": 43.624622,
    "lon": 3.862703,
    "name": "Résidence étudiante Nemea Montpellier Paul Valery",
    "url": ""
  },
  {
    "lat": 43.62275,
    "lon": 3.863765,
    "name": "Laverie Automatique Pharma",
    "url": ""
  },
  {
    "lat": 43.61574,
    "lon": 3.862698,
    "name": "Micro Crèche le Petit Chemin",
    "url": ""
  },
  {
    "lat": 43.618607,
    "lon": 3.864923,
    "name": "Aeriforme",
    "url": ""
  },
  {
    "lat": 43.61901,
    "lon": 3.862394,
    "name": "institut de beauté bio GARDENIA",
    "url": ""
  },
  {
    "lat": 43.61917,
    "lon": 3.861225,
    "name": "Peyrou Multi Services",
    "url": ""
  },
  {
    "lat": 43.618874,
    "lon": 3.86334,
    "name": "Ici l\u0027Ailleurs",
    "url": ""
  },
  {
    "lat": 43.61793,
    "lon": 3.86524,
    "name": "C\u0026c Immobilier Montpellier",
    "url": ""
  },
  {
    "lat": 43.61868,
    "lon": 3.863075,
    "name": "Alimentation Philippides",
    "url": ""
  },
  {
    "lat": 43.610943,
    "lon": 3.865462,
    "name": "Chez le Pecheur",
    "url": ""
  },
  {
    "lat": 43.612255,
    "lon": 3.862042,
    "name": "Fromagerie - Restaurant Biquette",
    "url": ""
  },
  {
    "lat": 43.61512,
    "lon": 3.863771,
    "name": "I.E.F.A.R",
    "url": ""
  },
  {
    "lat": 43.6112,
    "lon": 3.863399,
    "name": "Le Réfectoire",
    "url": ""
  },
  {
    "lat": 43.61149,
    "lon": 3.861592,
    "name": "Jourdan Guy",
    "url": ""
  },
  {
    "lat": 43.612015,
    "lon": 3.86409,
    "name": "Côtédétente",
    "url": ""
  },
  {
    "lat": 43.614063,
    "lon": 3.865076,
    "name": "PAUL",
    "url": ""
  },
  {
    "lat": 43.61452,
    "lon": 3.865325,
    "name": "PHILEAS World Montpellier",
    "url": ""
  },
  {
    "lat": 43.612217,
    "lon": 3.863178,
    "name": "Habitat Autonome Francais",
    "url": ""
  },
  {
    "lat": 43.611652,
    "lon": 3.862165,
    "name": "Café Cevicheria",
    "url": ""
  },
  {
    "lat": 43.612827,
    "lon": 3.865091,
    "name": "Anafagc",
    "url": ""
  },
  {
    "lat": 43.612198,
    "lon": 3.861514,
    "name": "Centre Langage Écoute Tomatis - Montpellier",
    "url": ""
  },
  {
    "lat": 43.615425,
    "lon": 3.864333,
    "name": "Église Sainte-Thérèse-de-Lisieux",
    "url": ""
  },
  {
    "lat": 43.612236,
    "lon": 3.86256,
    "name": "Cupix.fr",
    "url": ""
  },
  {
    "lat": 43.612614,
    "lon": 3.867411,
    "name": "Epicerie Fine Gaizergues",
    "url": ""
  },
  {
    "lat": 43.611313,
    "lon": 3.870065,
    "name": "marcher Peyrou",
    "url": ""
  },
  {
    "lat": 43.614113,
    "lon": 3.869741,
    "name": "Meshaka Pierre",
    "url": ""
  },
  {
    "lat": 43.612747,
    "lon": 3.870241,
    "name": "Évolt",
    "url": ""
  },
  {
    "lat": 43.612217,
    "lon": 3.869236,
    "name": "Colombet",
    "url": ""
  },
  {
    "lat": 43.61192,
    "lon": 3.866083,
    "name": "Adapt Montpellier",
    "url": ""
  },
  {
    "lat": 43.613136,
    "lon": 3.869208,
    "name": "Café du Roi",
    "url": ""
  },
  {
    "lat": 43.611267,
    "lon": 3.867293,
    "name": "Arceaux",
    "url": ""
  },
  {
    "lat": 43.613506,
    "lon": 3.866729,
    "name": "Vival",
    "url": ""
  },
  {
    "lat": 43.612232,
    "lon": 3.870111,
    "name": "Valette Berthelsen Immobilier",
    "url": ""
  },
  {
    "lat": 43.612637,
    "lon": 3.868413,
    "name": "Alice Gomel - DRAINAGE LYMPHATIQUE / MASSAGE BIEN-ÊTRE / MADÉROTHÉRAPIE FROIDE / PALPER-ROULER",
    "url": ""
  },
  {
    "lat": 43.61353,
    "lon": 3.868394,
    "name": "Résidence ÉTUDIANTE nemea",
    "url": ""
  },
  {
    "lat": 43.61159,
    "lon": 3.869093,
    "name": "Drôle De Porte",
    "url": "https://lh3.googleusercontent.com/2RV_dK_8ouOYSbo9cTVUFY2N_gcVoXhSZ-mRkA46QvBsjsKgTuRL5u5NeuotoCP_u3VI6BJBobq5eobTqAjs-EFq5A"
  },
  {
    "lat": 43.610847,
    "lon": 3.866251,
    "name": "Fresque Obscure",
    "url": "https://lh3.googleusercontent.com/5xznCyuv1ovkZIiN5cGT2gR7H9gM_fRiuNCf-TA_x0J3mLV7wfkRxlzQmRMmGuNqgJZez2Q-viexded-0k_EXmp-pGnV"
  },
  {
    "lat": 43.61561,
    "lon": 3.869394,
    "name": "V.O",
    "url": ""
  },
  {
    "lat": 43.61951,
    "lon": 3.869005,
    "name": "éducateur canin une fille o\u0027poils montpellier",
    "url": ""
  },
  {
    "lat": 43.617966,
    "lon": 3.868107,
    "name": "Stade Phillippidès",
    "url": ""
  },
  {
    "lat": 43.616634,
    "lon": 3.870357,
    "name": "Technolabs",
    "url": ""
  },
  {
    "lat": 43.619022,
    "lon": 3.86945,
    "name": "Station Philippidès",
    "url": "https://lh3.googleusercontent.com/vw6eW4jcGODIyctgiM2kvYug9NsAFfojLjEKkBgxdAF_XtsBEvBunpB-KmorUlzYQH6TRO0vtmZTfOFAFCU0ebPibA"
  },
  {
    "lat": 43.618687,
    "lon": 3.868904,
    "name": "Gymnase Alain Achille",
    "url": ""
  },
  {
    "lat": 43.617184,
    "lon": 3.868067,
    "name": "Stade d\u0027Athlétisme Philippidès",
    "url": ""
  },
  {
    "lat": 43.619778,
    "lon": 3.865868,
    "name": "Kendo Montpellier",
    "url": ""
  },
  {
    "lat": 43.618683,
    "lon": 3.869915,
    "name": "Couvent Secret De Boutonnet",
    "url": "https://lh3.googleusercontent.com/yEQLf0H5t1iS5-7XA3wjHqe7T7DMS8QPKfUGaXRyWrRKBNLU5Jd__aUjzuj2rzInuJE2k5NAlcaAmw_gn6_5mCD9yDA"
  },
  {
    "lat": 43.619007,
    "lon": 3.865549,
    "name": "La cant’oche",
    "url": ""
  },
  {
    "lat": 43.61674,
    "lon": 3.869013,
    "name": "Hotel Acapulco",
    "url": ""
  },
  {
    "lat": 43.617977,
    "lon": 3.872212,
    "name": "Bureau de Poste Boutonnet",
    "url": "https://lh3.googleusercontent.com/_vzRInpHqhzDCUCW0zmJiGdJkEmNIuTdgjnrEWe50reamH9BDD2jvpOAc3exPlUNMM1Xbhkc4ynscAldNBckCl98ySo"
  },
  {
    "lat": 43.619293,
    "lon": 3.873186,
    "name": "Lavoservices",
    "url": ""
  },
  {
    "lat": 43.616077,
    "lon": 3.875635,
    "name": "Montpellier Cyclable",
    "url": ""
  },
  {
    "lat": 43.615425,
    "lon": 3.874957,
    "name": "Ma Perque",
    "url": ""
  },
  {
    "lat": 43.61756,
    "lon": 3.874807,
    "name": "Les Vils Faquins",
    "url": ""
  },
  {
    "lat": 43.618034,
    "lon": 3.872811,
    "name": "Vitraux de la Chapelle du Château",
    "url": "https://lh3.googleusercontent.com/rDubIUui_g_Fu_7byavo7YDHjMkb-Mh8H1Z_PR6c1Knfd8tCTyptqvXIvjDlB29zEK4ENepd19o2wO4OBs1Lwo40Ow"
  },
  {
    "lat": 43.618015,
    "lon": 3.875396,
    "name": "Parc Suzanne Babut",
    "url": "https://lh3.googleusercontent.com/V7X0NFcmJyyp7eQIlfgvFMlTYBUofergull0agnhIL0lEKqbx7v35gACkQ0dSavn6aolhPrh3c1Xd-aze6sqWAaKLY9ERhQI_Qd9qig"
  },
  {
    "lat": 43.61764,
    "lon": 3.872737,
    "name": "Fresque Du Château De Boutonnet",
    "url": "https://lh3.googleusercontent.com/NY-llvD0QxM4QOMD3Z2BUi0Rzm1YIP6_fRA8OeS4Pxoi4VbXAOUY0VCvlbD4RVPEu6YWWcUT5nZNJRZY6n6ZK0F-kuk"
  },
  {
    "lat": 43.61968,
    "lon": 3.872598,
    "name": "Résidence Osiris",
    "url": "https://lh3.googleusercontent.com/OjsZQXwb445Z3cxMtpPx9Zy-rvzesSVdjcf5gGdT5IiFrvjJg01CTN7GjFNEuuf7570DZSDN27Vxj-313I3zTZW9yPM"
  },
  {
    "lat": 43.61989,
    "lon": 3.873349,
    "name": "Salon Mixte Arc en Ciel",
    "url": ""
  },
  {
    "lat": 43.61667,
    "lon": 3.87439,
    "name": "Mon Épicerie Bio",
    "url": ""
  },
  {
    "lat": 43.61525,
    "lon": 3.875646,
    "name": "Moderne Electrique Tattoo",
    "url": ""
  },
  {
    "lat": 43.61602,
    "lon": 3.87222,
    "name": "Outils-réseaux",
    "url": ""
  },
  {
    "lat": 43.618732,
    "lon": 3.871182,
    "name": "Stèle Hommage À Jean Ginestié",
    "url": "https://lh3.googleusercontent.com/E2nFx1cMmKm1vk2oDO8v8Y9Tv1Yi2n3eEAkgLJs8fwd05BnCWCdVYdGpjwwbYbR7kMDrqRo_op--DaoNtW9oJqRAAJ4"
  },
  {
    "lat": 43.614956,
    "lon": 3.871885,
    "name": "Bassin aux papyrus",
    "url": "https://lh3.googleusercontent.com/rhsfge_NMz1VhhBDgWh-64Hp4YPKZjVKWuAnP4HBC3kCXFny_b0naGLGtew3OsISY4xt2c9mm265yLVhbuAgM79d83xnQpqUdYk81HU4"
  },
  {
    "lat": 43.610844,
    "lon": 3.875005,
    "name": "Effia Stationnement Effia Stationnement et Mobilite",
    "url": ""
  },
  {
    "lat": 43.612827,
    "lon": 3.874635,
    "name": "Le Mélody",
    "url": ""
  },
  {
    "lat": 43.610435,
    "lon": 3.874857,
    "name": "FH Chaudière Luthier",
    "url": ""
  },
  {
    "lat": 43.612675,
    "lon": 3.872786,
    "name": "Broc Café Montpellier",
    "url": ""
  },
  {
    "lat": 43.612957,
    "lon": 3.87525,
    "name": "L\u0027Osteria",
    "url": ""
  },
  {
    "lat": 43.6117,
    "lon": 3.873672,
    "name": "Jean Claude Biguine",
    "url": ""
  },
  {
    "lat": 43.610508,
    "lon": 3.873114,
    "name": "Appartement neuf Montpellier - Immobilier - Défiscalisation",
    "url": ""
  },
  {
    "lat": 43.611305,
    "lon": 3.873298,
    "name": "Panda d\u0027occitanie",
    "url": "https://lh3.googleusercontent.com/dUY3s2CEYIQcFiTSuRN6Y22bBtK5JNlo8HZ2tELhBEdm5ZYZovART4JJVJiADkoNFa_1eTP_Nn2kVLSVJGTsjyl29gY"
  },
  {
    "lat": 43.611095,
    "lon": 3.87483,
    "name": "L\u0027Atelier Capifrance Montpellier",
    "url": ""
  },
  {
    "lat": 43.61388,
    "lon": 3.872308,
    "name": "Citation De Valery-larbaud",
    "url": "https://lh3.googleusercontent.com/Z1JErls7ew3z8n5bdXjFyKchDaAzLWpQB5LtOtph0csA-BHOho1Xh4NwjST_yShItmaUaqNR0HCqI7JsvGBX_3D40g"
  },
  {
    "lat": 43.61319,
    "lon": 3.874028,
    "name": "Cathédrale Saint-Pierre de Montpellier",
    "url": ""
  },
  {
    "lat": 43.612427,
    "lon": 3.870692,
    "name": "Association M.U.C.Escrime",
    "url": ""
  },
  {
    "lat": 43.611794,
    "lon": 3.875611,
    "name": "Bella Couture",
    "url": ""
  },
  {
    "lat": 43.61442,
    "lon": 3.879914,
    "name": "El Pincho Loco",
    "url": ""
  },
  {
    "lat": 43.610783,
    "lon": 3.878326,
    "name": "Le Comptoir du Disque",
    "url": ""
  },
  {
    "lat": 43.61157,
    "lon": 3.877774,
    "name": "Café de la Mer",
    "url": ""
  },
  {
    "lat": 43.613857,
    "lon": 3.877074,
    "name": "Djaam",
    "url": ""
  },
  {
    "lat": 43.61328,
    "lon": 3.879193,
    "name": "Tavola Calda",
    "url": ""
  },
  {
    "lat": 43.612946,
    "lon": 3.876763,
    "name": "Storm Trooper psychédélique",
    "url": "https://lh3.googleusercontent.com/GAFzZRmX11ZBag8WTsE6xdFhRYIVSxLYAEYNPX8O79NDAUxijVAA8qerX0zAX81olhpSTJ5yJ6CZcR9kfCKoa5M_79I"
  },
  {
    "lat": 43.612118,
    "lon": 3.877581,
    "name": "Collège De Monde Les 12 Médecin",
    "url": "https://lh3.googleusercontent.com/BkkTVfH8a-1o34S3PI3LcGf2FTqQPOumJ_X2lWJj3OyLrqWK4e78XDpzDNFnPG_44iE9sATubjyljCi0xXZYKDBMAytbPGGQaq3qx7BD"
  },
  {
    "lat": 43.611065,
    "lon": 3.876152,
    "name": "Snapbed",
    "url": ""
  },
  {
    "lat": 43.610405,
    "lon": 3.877672,
    "name": "Funbird",
    "url": ""
  },
  {
    "lat": 43.614426,
    "lon": 3.877253,
    "name": "Mesdemoizelles Couture",
    "url": ""
  },
  {
    "lat": 43.611313,
    "lon": 3.877075,
    "name": "Sensing Labs",
    "url": ""
  },
  {
    "lat": 43.613544,
    "lon": 3.879726,
    "name": "Trigger Bar",
    "url": ""
  },
  {
    "lat": 43.615,
    "lon": 3.880782,
    "name": "Sécuritest Contrôle Technique Automobile MONTPELLIER",
    "url": ""
  },
  {
    "lat": 43.612373,
    "lon": 3.876537,
    "name": "De Chatouville Immobilier Montpellier",
    "url": ""
  },
  {
    "lat": 43.613167,
    "lon": 3.881065,
    "name": "Jardin Hôtel De Sully",
    "url": "https://lh3.googleusercontent.com/er1OPUKHBgnGsul1H8x3JoBXrgJ8Bpt3RrbZ5E02ANX2mHM9RaMr_LmgK-8rFUvz15VwNJ2tz6ObDPMym-xKyMImXxWb"
  },
  {
    "lat": 43.61421,
    "lon": 3.881386,
    "name": "CORUM IMMOBILIER : Syndic - Gestion - Location - Vente",
    "url": ""
  },
  {
    "lat": 43.611706,
    "lon": 3.881967,
    "name": "Ginkgo Biloba",
    "url": "https://lh3.googleusercontent.com/WVc14V1PhuxW052qNopDxDYEBWY2DfS0B4gjzb7goE7q7zQ32Vnb7zjZVR0VpnfKvQHZp65K_DawyzK_RkgEMQZBlHY"
  },
  {
    "lat": 43.611294,
    "lon": 3.882259,
    "name": "Jardin du Champ de Mars",
    "url": ""
  },
  {
    "lat": 43.61019,
    "lon": 3.885347,
    "name": "College Joffre",
    "url": ""
  },
  {
    "lat": 43.610996,
    "lon": 3.880993,
    "name": "Kiosque à Malices",
    "url": ""
  },
  {
    "lat": 43.61372,
    "lon": 3.881321,
    "name": "Vestige de la Chapelle des Plaques",
    "url": "https://lh3.googleusercontent.com/5AMcvS5chaLGbhDCc_qoVT2zgiwJIjV_jChZDfB8RLjyCU7OT1OwUeNIKlDObGO5i992eo-q1rzOdQv0pyYyEJY89ak"
  },
  {
    "lat": 43.613293,
    "lon": 3.881972,
    "name": "Brasserie du Corum",
    "url": ""
  },
  {
    "lat": 43.610226,
    "lon": 3.882161,
    "name": "Pavillon Populaire de Montpellier",
    "url": ""
  },
  {
    "lat": 43.614376,
    "lon": 3.884447,
    "name": "Communauté Protestante Biblique",
    "url": ""
  },
  {
    "lat": 43.614586,
    "lon": 3.880942,
    "name": "Le Djazz",
    "url": ""
  },
  {
    "lat": 43.61068,
    "lon": 3.881448,
    "name": "Kiosque des Champs de Mars",
    "url": "https://lh3.googleusercontent.com/Jki4Ni0myIJxYjoxMd3uf1sQFPftVni-3a-OgHlIfWePIyHEs8vxzEUh6wVpkjkoD7SZKvHm5nNmLTMPggDeI8Bcq7RXWHlYivKugjWG"
  },
  {
    "lat": 43.61046,
    "lon": 3.882861,
    "name": "La Maison des Pigeons",
    "url": "https://lh3.googleusercontent.com/HPTHHXe58HYFgs6M0bBe4Z3Lj1Mg6FlioxMnfIAeDgYBrbgFXlLLBEa3ndrfA7p9wdC9FtJJhjZESjxoqVYrG2Z1dw4rmV4S_aSZkFg"
  },
  {
    "lat": 43.619232,
    "lon": 3.882113,
    "name": "Union Française Centre Vacances",
    "url": ""
  },
  {
    "lat": 43.615852,
    "lon": 3.88283,
    "name": "Brandie Agence Communication",
    "url": ""
  },
  {
    "lat": 43.617935,
    "lon": 3.882829,
    "name": "ASBAM Montpellier",
    "url": ""
  },
  {
    "lat": 43.617207,
    "lon": 3.885317,
    "name": "Missions Interim",
    "url": ""
  },
  {
    "lat": 43.615753,
    "lon": 3.88175,
    "name": "CVL le Jounié",
    "url": ""
  },
  {
    "lat": 43.61838,
    "lon": 3.882348,
    "name": "L\u0027Atelier Musée",
    "url": ""
  },
  {
    "lat": 43.616158,
    "lon": 3.881483,
    "name": "Fontaine des beaux arts",
    "url": "https://lh3.googleusercontent.com/ovSHeQHvC3yD5GVctvsoNP21Ne8NvO2Q9x8ZWJvSSUxX7E_jnHJ9RqIfBholQTlR-K312-aMyx5P7vKWWHfR1-UaDbTcISw_q8dKyx-3"
  },
  {
    "lat": 43.617424,
    "lon": 3.881108,
    "name": "Atelier Wafflart",
    "url": ""
  },
  {
    "lat": 43.61719,
    "lon": 3.882159,
    "name": "Le Vieux Biclou",
    "url": ""
  },
  {
    "lat": 43.61513,
    "lon": 3.882823,
    "name": "Urbat",
    "url": ""
  },
  {
    "lat": 43.618797,
    "lon": 3.885214,
    "name": "Tennis Club de la Pierre Rouge",
    "url": ""
  },
  {
    "lat": 43.617016,
    "lon": 3.88096,
    "name": "Trébaol Loïc",
    "url": ""
  },
  {
    "lat": 43.615974,
    "lon": 3.882258,
    "name": "Troc\u0026Mode kids",
    "url": ""
  },
  {
    "lat": 43.615566,
    "lon": 3.883538,
    "name": "Archéa les As du Placard S.A.M. Entreprise indépendante",
    "url": ""
  },
  {
    "lat": 43.617165,
    "lon": 3.877144,
    "name": "le kraken blessé",
    "url": "https://lh3.googleusercontent.com/WWPtE2MqE1AYwSuXEfGxcFSK9SN3TOvc7-gpPqLncwN9_sURPjn5FUv1uowv-oa2mLXdqpMNa0eJ7Ai6YLYmvBgjRpnXJZb4z_Qktdsp_A"
  },
  {
    "lat": 43.616016,
    "lon": 3.880167,
    "name": "Pialot-Escande B.E.T",
    "url": ""
  },
  {
    "lat": 43.61637,
    "lon": 3.879184,
    "name": "Studio Lakanal",
    "url": ""
  },
  {
    "lat": 43.616264,
    "lon": 3.880766,
    "name": "NOON",
    "url": ""
  },
  {
    "lat": 43.616196,
    "lon": 3.878034,
    "name": "Le petit écolier s\u0027échappant par le mur",
    "url": "https://lh3.googleusercontent.com/SHVqxtJbUWFMOZ0XU6SyfPVFdXDzMF0LgisQOjRJe5PZcXj180fAcPnXFWfUliicJ5L-dbEOzr1cvT8R6D-Pwq-GLWU"
  },
  {
    "lat": 43.61687,
    "lon": 3.87832,
    "name": "Théâtre Pierre Tabard",
    "url": "https://lh3.googleusercontent.com/aH6_3MMr-4RunzOHTLSiuKKCCr0-q9y9sM5OrqZgVlj4fFsHX4LzQseD2AZTJ8z_4wkixksP0tiDCXPv0oFGh0w_BLE"
  },
  {
    "lat": 43.616856,
    "lon": 3.879628,
    "name": "Chic Et Boheme",
    "url": ""
  },
  {
    "lat": 43.618465,
    "lon": 3.878552,
    "name": "Fontaine Archives Départementale",
    "url": "https://lh3.googleusercontent.com/in_HgrqoWZ9OoIj0IPFzWMirBY4wx_nuyv6If3SyLPvowWpN45dWKWIhRUizrk-AJiBYNakRrFfwuWvp5vnP8vlPNcHd"
  },
  {
    "lat": 43.61734,
    "lon": 3.880248,
    "name": "Oratorio Scène",
    "url": ""
  },
  {
    "lat": 43.61795,
    "lon": 3.878593,
    "name": "Center Building 1789",
    "url": "https://lh3.googleusercontent.com/88cualmhXUPln6oZ-YsnhwV2J78KKQt2Vc1lXMffMoxsz0UKFDCJn4qftkGxgYyfLjPNo7zeLjoR289iKObf-N4Usag"
  },
  {
    "lat": 43.615417,
    "lon": 3.880751,
    "name": "Bonsoir Chez Vous évènement cocktails",
    "url": ""
  },
  {
    "lat": 43.615726,
    "lon": 3.87969,
    "name": "Vasudevo Yoga",
    "url": ""
  },
  {
    "lat": 43.615585,
    "lon": 3.877564,
    "name": "Mongrossiste.Com",
    "url": ""
  },
  {
    "lat": 43.623768,
    "lon": 3.88519,
    "name": "Opus Développement S.A.R.L.",
    "url": ""
  },
  {
    "lat": 43.620407,
    "lon": 3.884499,
    "name": "Le Potager de l\u0027Eden",
    "url": ""
  },
  {
    "lat": 43.62312,
    "lon": 3.885424,
    "name": "OPUS Développement",
    "url": ""
  },
  {
    "lat": 43.620007,
    "lon": 3.882907,
    "name": "Ufcv À Montpellier",
    "url": ""
  },
  {
    "lat": 43.62267,
    "lon": 3.881034,
    "name": "Groupe ACPPA",
    "url": ""
  },
  {
    "lat": 43.62371,
    "lon": 3.871769,
    "name": "Cité universitaire Boutonnet",
    "url": "https://lh3.googleusercontent.com/TGhWb7qrB_atkjO2RHnAuwe-g2qrWqrzIAs8CHnG_2byIM1LJEfhWH2Bo_1S-o0rkeKUBfvAjt5rej5n4dqFfngqyceeeFqpks98UDs"
  },
  {
    "lat": 43.62089,
    "lon": 3.872254,
    "name": "Richard Mindren Expertise Construction",
    "url": ""
  },
  {
    "lat": 43.621853,
    "lon": 3.872394,
    "name": "Ecosec",
    "url": ""
  },
  {
    "lat": 43.621735,
    "lon": 3.871229,
    "name": "Natural Event",
    "url": ""
  },
  {
    "lat": 43.622505,
    "lon": 3.872176,
    "name": "Danz\u0027nco - Boutonnet/Facs",
    "url": ""
  },
  {
    "lat": 43.624413,
    "lon": 3.873663,
    "name": "Résidence étudiante Montpellier Sainte Odile",
    "url": ""
  },
  {
    "lat": 43.620605,
    "lon": 3.873043,
    "name": "Chic \u0026 Cheap Concept-Store",
    "url": ""
  },
  {
    "lat": 43.624016,
    "lon": 3.872753,
    "name": "Parc sainte odile, deuxième entrée est",
    "url": "https://lh3.googleusercontent.com/YpH6d_GfZokHuvqsmdkkbSx7cAc3kqB8PG326Emm880peAnDQBciTbtK5QRW-lL26O4OhutD8dg8_mtftgZzh1OQKVvLiV_FkOamKbIS"
  },
  {
    "lat": 43.62345,
    "lon": 3.873522,
    "name": "Gourvès Rigal Josiane",
    "url": ""
  },
  {
    "lat": 43.621956,
    "lon": 3.869698,
    "name": "Off Appartement",
    "url": ""
  },
  {
    "lat": 43.62291,
    "lon": 3.868405,
    "name": "Boutonnet service",
    "url": ""
  },
  {
    "lat": 43.622215,
    "lon": 3.868598,
    "name": "Allo Saveurs",
    "url": ""
  },
  {
    "lat": 43.620705,
    "lon": 3.868528,
    "name": "Pepite-Lr",
    "url": ""
  },
  {
    "lat": 43.623608,
    "lon": 3.867392,
    "name": "Villa Boutonnet",
    "url": ""
  },
  {
    "lat": 43.621777,
    "lon": 3.867315,
    "name": "Amphithéâtre du parc boumeester",
    "url": "https://lh3.googleusercontent.com/xmZ5on4vxi6Q4dZpRmR-3lg45rTrWOo5qDXfThk_4S1v5B3e8cHMw7V28FBDR9Ti-fefYO7G_6_bgNn2DonPz4tgHUrXaqIMpd6JLOk6"
  },
  {
    "lat": 43.624916,
    "lon": 3.867253,
    "name": "L\u0027Escale Régale",
    "url": ""
  },
  {
    "lat": 43.62237,
    "lon": 3.866424,
    "name": "Le Bœuf Restaurant",
    "url": ""
  },
  {
    "lat": 43.623447,
    "lon": 3.887529,
    "name": "Librairie Maguelone",
    "url": ""
  },
  {
    "lat": 43.623207,
    "lon": 3.886144,
    "name": "Habitat et Humanisme",
    "url": ""
  },
  {
    "lat": 43.621,
    "lon": 3.887636,
    "name": "Braise, Cave \u0026 Table",
    "url": ""
  },
  {
    "lat": 43.62099,
    "lon": 3.888525,
    "name": "Novanéa",
    "url": ""
  },
  {
    "lat": 43.622925,
    "lon": 3.888498,
    "name": "Elaïné Franzini Soria",
    "url": ""
  },
  {
    "lat": 43.622448,
    "lon": 3.888431,
    "name": "Jeu fleur",
    "url": "https://lh3.googleusercontent.com/vQHJ0Gwx0y0ggbQlIqmWS3Gm8xDAzPaVM0th5lwGh8Wjn9uw3cwmnKPdiyLFf3fQYHDT1daZbuMkCVqciyac5nNQsLBlksVbR1xWtSY"
  },
  {
    "lat": 43.623333,
    "lon": 3.888647,
    "name": "Claudie Coiffure",
    "url": ""
  },
  {
    "lat": 43.620705,
    "lon": 3.894898,
    "name": "Académie de Danse Nicolas",
    "url": ""
  },
  {
    "lat": 43.621075,
    "lon": 3.893728,
    "name": "Le Jardin des Frangins",
    "url": ""
  },
  {
    "lat": 43.623703,
    "lon": 3.894994,
    "name": "Brillanceau Sonia",
    "url": ""
  },
  {
    "lat": 43.62253,
    "lon": 3.896075,
    "name": "Moulin de Sauret",
    "url": ""
  },
  {
    "lat": 43.623074,
    "lon": 3.893698,
    "name": "Tai Chi Centre",
    "url": ""
  },
  {
    "lat": 43.619396,
    "lon": 3.892359,
    "name": "Bricorama",
    "url": ""
  },
  {
    "lat": 43.6176,
    "lon": 3.892933,
    "name": "Parc Rimbaud",
    "url": ""
  },
  {
    "lat": 43.617973,
    "lon": 3.894231,
    "name": "Boulodrome Rimbaud",
    "url": "https://lh3.googleusercontent.com/gyr2zKaJcfRzjjj1p6pJWOiLh_ZRDZVyWt1tUep71cD9J9EJP8eVOo84277TSEgRTTkIPnouqK0uBFSyvv2I97anj7w"
  },
  {
    "lat": 43.616253,
    "lon": 3.887854,
    "name": "Les Films des Deux Rives",
    "url": ""
  },
  {
    "lat": 43.61745,
    "lon": 3.890412,
    "name": "Belugou Aimee",
    "url": ""
  },
  {
    "lat": 43.619347,
    "lon": 3.886316,
    "name": "Résidence étudiante Nemea Montpellier Beaux Arts",
    "url": ""
  },
  {
    "lat": 43.615322,
    "lon": 3.886785,
    "name": "Service d\u0027Accompagnement Heliokos",
    "url": ""
  },
  {
    "lat": 43.61743,
    "lon": 3.886859,
    "name": "Martineau Jean-Luc",
    "url": ""
  },
  {
    "lat": 43.61624,
    "lon": 3.890051,
    "name": "Espace Yoga",
    "url": ""
  },
  {
    "lat": 43.617153,
    "lon": 3.887961,
    "name": "Renau Roman",
    "url": ""
  },
  {
    "lat": 43.61912,
    "lon": 3.890474,
    "name": "Maison pour Tous Georges Sand",
    "url": ""
  },
  {
    "lat": 43.614838,
    "lon": 3.887616,
    "name": "Hôtel Ulysse",
    "url": ""
  },
  {
    "lat": 43.614925,
    "lon": 3.886327,
    "name": "Au Prim\u0027aubes",
    "url": ""
  },
  {
    "lat": 43.61241,
    "lon": 3.889967,
    "name": "Auto-ecole Anteane",
    "url": ""
  },
  {
    "lat": 43.61007,
    "lon": 3.888661,
    "name": "FO Union Départementale",
    "url": ""
  },
  {
    "lat": 43.613174,
    "lon": 3.889133,
    "name": "The Cluster",
    "url": ""
  },
  {
    "lat": 43.614697,
    "lon": 3.888167,
    "name": "Ard Axel Recherche Developpement",
    "url": ""
  },
  {
    "lat": 43.61016,
    "lon": 3.888109,
    "name": "France Bleu Hérault",
    "url": ""
  },
  {
    "lat": 43.6146,
    "lon": 3.890949,
    "name": "Hairbrushing Montpellier",
    "url": ""
  },
  {
    "lat": 43.61428,
    "lon": 3.887229,
    "name": "Les Aubes",
    "url": ""
  },
  {
    "lat": 43.613483,
    "lon": 3.888201,
    "name": "Société des Petroles Shell Shell",
    "url": ""
  },
  {
    "lat": 43.61272,
    "lon": 3.889431,
    "name": "AXA Assurance Diane Belle",
    "url": ""
  },
  {
    "lat": 43.609863,
    "lon": 3.895238,
    "name": "Novotel Suites Gym",
    "url": ""
  },
  {
    "lat": 43.611935,
    "lon": 3.895055,
    "name": "LDA Renovation",
    "url": ""
  },
  {
    "lat": 43.613205,
    "lon": 3.89358,
    "name": "Association Gammes",
    "url": ""
  },
  {
    "lat": 43.610058,
    "lon": 3.891253,
    "name": "Hôtel Kyriad Sogegone Franchise Indep Montpellier",
    "url": ""
  },
  {
    "lat": 43.613262,
    "lon": 3.892015,
    "name": "Centre de gynecologie-obstetrique",
    "url": ""
  },
  {
    "lat": 43.609856,
    "lon": 3.895863,
    "name": "Taxi Montpellier",
    "url": ""
  },
  {
    "lat": 43.609837,
    "lon": 3.894559,
    "name": "Novotel Suites Montpellier",
    "url": ""
  },
  {
    "lat": 43.612488,
    "lon": 3.894443,
    "name": "Secrets de Pains",
    "url": ""
  },
  {
    "lat": 43.613064,
    "lon": 3.894816,
    "name": "Montpellier Eaux Vives Canoë-Kayak",
    "url": ""
  },
  {
    "lat": 43.61025,
    "lon": 3.895611,
    "name": "Dart",
    "url": ""
  },
  {
    "lat": 43.61122,
    "lon": 3.897726,
    "name": "Olmos Staff",
    "url": ""
  },
  {
    "lat": 43.613503,
    "lon": 3.898209,
    "name": "B.E.T. Fünfrock",
    "url": ""
  },
  {
    "lat": 43.612568,
    "lon": 3.900522,
    "name": "Agence Web Drujok Montpellier",
    "url": ""
  },
  {
    "lat": 43.60975,
    "lon": 3.896741,
    "name": "Les Clapets du Moulin l\u0027Évêque",
    "url": "https://lh3.googleusercontent.com/s-y2mX1Favaay7o_kWdNz8T3vr3wJt--hdd2J7ObigoI4IiKxDjdRKDT6c0oJThvnaVioJK8XkTuuFFnjg_oY6xZhy8skXV4PMBFuvY"
  },
  {
    "lat": 43.61233,
    "lon": 3.898099,
    "name": "LA CASA DE LA PAELLA traiteur",
    "url": ""
  },
  {
    "lat": 43.612553,
    "lon": 3.897759,
    "name": "Cabinet EL\u0026VEN",
    "url": ""
  },
  {
    "lat": 43.611862,
    "lon": 3.899053,
    "name": "Bowling de Montpellier",
    "url": ""
  },
  {
    "lat": 43.610615,
    "lon": 3.898884,
    "name": "Etincelle",
    "url": ""
  },
  {
    "lat": 43.61124,
    "lon": 3.898325,
    "name": "Mahé",
    "url": ""
  },
  {
    "lat": 43.612415,
    "lon": 3.898688,
    "name": "Magasin Maison Thiriet",
    "url": ""
  },
  {
    "lat": 43.60908,
    "lon": 3.893562,
    "name": "Dawan Montpellier",
    "url": ""
  },
  {
    "lat": 43.60911,
    "lon": 3.891198,
    "name": "Agirc-Arrco",
    "url": ""
  },
  {
    "lat": 43.60663,
    "lon": 3.893516,
    "name": "Orientaction",
    "url": ""
  },
  {
    "lat": 43.608265,
    "lon": 3.891907,
    "name": "Montpellier Campsite - Helpful",
    "url": "https://lh3.googleusercontent.com/8FyZ2O0V44CLfJxUfdBcHGMXrSBH9c9Vdi34icPzDgRGPV5u-vEDfldSEB9az-RmTGvjLg-5_RgQ2lTHSOq6gyRrhhw_21PcmMX5iWT_"
  },
  {
    "lat": 43.60571,
    "lon": 3.894421,
    "name": "Avatacar",
    "url": ""
  },
  {
    "lat": 43.60532,
    "lon": 3.891371,
    "name": "Mutami",
    "url": ""
  },
  {
    "lat": 43.607067,
    "lon": 3.893132,
    "name": "Piscine Olympique d\u0027Antigone",
    "url": ""
  },
  {
    "lat": 43.607574,
    "lon": 3.891118,
    "name": "Montpellier Campsite - Camaraderie",
    "url": "https://lh3.googleusercontent.com/zoIYbR94WkeSygYceE91rft-CjRVDxf9Ez4ffU3Co5Bd8dVtwHMfMLKyG2tFHh6zBKYb5DvG6SqeTIMfs_x0IPeDHrxiiW4I0NDBDcE"
  },
  {
    "lat": 43.60778,
    "lon": 3.894234,
    "name": "Trident de Poséidon",
    "url": "https://lh3.googleusercontent.com/zNw6ZW-MV6UbFYZskizs-CEkW1xVUXkCcou3V-9YhSIc7FrJaWCMO5yGtDuNX5Z07xfsksoipP2SdrRFU1PnmFGSyv4GN1_NAbEudor4lA"
  },
  {
    "lat": 43.60716,
    "lon": 3.894521,
    "name": "Stéphane PEREZ",
    "url": ""
  },
  {
    "lat": 43.607563,
    "lon": 3.894978,
    "name": "Esplanade de l’Europe",
    "url": ""
  },
  {
    "lat": 43.6066,
    "lon": 3.892949,
    "name": "Terre Nourricière",
    "url": ""
  },
  {
    "lat": 43.60731,
    "lon": 3.891772,
    "name": "Opca2",
    "url": ""
  },
  {
    "lat": 43.608463,
    "lon": 3.893593,
    "name": "Médiathèque Centrale Emile Zola",
    "url": ""
  },
  {
    "lat": 43.606613,
    "lon": 3.895318,
    "name": "Kemet Care",
    "url": ""
  },
  {
    "lat": 43.608753,
    "lon": 3.8877,
    "name": "Nombre d\u0027or",
    "url": "https://lh3.googleusercontent.com/9FCS27Cl-__W8vgNGKdE4tJtEikhfThMWMheqyGJ1CbMM8pbe-bXItH4tezvyygF7NBPjjNv6sBBUuFd721kwMQ-JOSqWliKKPbyKduNzw"
  },
  {
    "lat": 43.606167,
    "lon": 3.886571,
    "name": "La Maison des Echanges",
    "url": ""
  },
  {
    "lat": 43.605297,
    "lon": 3.887805,
    "name": "Ranger Montpellier",
    "url": ""
  },
  {
    "lat": 43.60534,
    "lon": 3.890358,
    "name": "Sun City Appart Hôtel",
    "url": ""
  },
  {
    "lat": 43.605415,
    "lon": 3.889379,
    "name": "Bonfiglio Didier",
    "url": ""
  },
  {
    "lat": 43.606106,
    "lon": 3.889524,
    "name": "Le Thélème Experts Comptables SCM",
    "url": ""
  },
  {
    "lat": 43.609222,
    "lon": 3.889633,
    "name": "Halles Jacques Coeur",
    "url": ""
  },
  {
    "lat": 43.60685,
    "lon": 3.890097,
    "name": "Aupalya",
    "url": ""
  },
  {
    "lat": 43.609604,
    "lon": 3.888799,
    "name": "Cgt Fapt 34",
    "url": ""
  },
  {
    "lat": 43.6072,
    "lon": 3.886338,
    "name": "Finances Et Vous",
    "url": ""
  },
  {
    "lat": 43.607872,
    "lon": 3.88937,
    "name": "Antigone Market Montpellier",
    "url": ""
  },
  {
    "lat": 43.605293,
    "lon": 3.888522,
    "name": "Le Globe",
    "url": ""
  },
  {
    "lat": 43.60832,
    "lon": 3.889578,
    "name": "Tacos Family",
    "url": ""
  },
  {
    "lat": 43.607998,
    "lon": 3.886678,
    "name": "Carrousel d\u0027Antigone",
    "url": "https://lh3.googleusercontent.com/3HjvooFI4Ya1bFPLr7Mk3QxP1hyJkZRdWoZmmJzWMZ0wWp2zMmfNGmKzN7mLro3FBY1Ggz3O6-PGKMVYNgfKj__8ppDOM9Tqjkpl44Q"
  },
  {
    "lat": 43.60758,
    "lon": 3.881698,
    "name": "Restaurant Vietnamien La Pagode",
    "url": ""
  },
  {
    "lat": 43.60905,
    "lon": 3.882823,
    "name": "Ligne Rebelle",
    "url": ""
  },
  {
    "lat": 43.606728,
    "lon": 3.881147,
    "name": "Boutique robe de mariée | Cymbeline Montpellier",
    "url": ""
  },
  {
    "lat": 43.607975,
    "lon": 3.885561,
    "name": "Hubside.Store",
    "url": ""
  },
  {
    "lat": 43.605793,
    "lon": 3.883337,
    "name": "L\u0027Escrimeuse",
    "url": "https://lh3.googleusercontent.com/0h-DkhKTwrt-smbffqR8PQbX3k4FLeMYPUtZiAAbGxCpuuJRvyxvtiu41vSkLaikXUqIiJxwMlKDKDyk9KyEvEb-OtNMGrboQv6wGVFX"
  },
  {
    "lat": 43.60645,
    "lon": 3.88189,
    "name": "Ba La Chuoi",
    "url": ""
  },
  {
    "lat": 43.605347,
    "lon": 3.885869,
    "name": "Ange Marguerite",
    "url": "https://lh3.googleusercontent.com/t3Lf2yDQsFj1YQFJ_jJE_c0qVVkKp9sGZfXuglFuDeL8UfLTaWw3t9KS8oa8sF_B_jByk9NGS0G5r-fAlX6rT6l7Qnuslv1Citm5dU2Eug"
  },
  {
    "lat": 43.60839,
    "lon": 3.884737,
    "name": "Yves Rocher",
    "url": ""
  },
  {
    "lat": 43.607296,
    "lon": 3.881144,
    "name": "Le New Kashmir",
    "url": "https://lh3.googleusercontent.com/_lenZVNFsD-qgf_wv9kFk8M2xFgHciLYxeoZynCYtOxErh-MUpgw2ytB3LSxwE3izSxcIbj3uMLWd7VPDGUBvA3EzhE85lDC63A7wUPJnQ"
  },
  {
    "lat": 43.60594,
    "lon": 3.881957,
    "name": "Matik",
    "url": ""
  },
  {
    "lat": 43.607803,
    "lon": 3.884883,
    "name": "F.V.I",
    "url": ""
  },
  {
    "lat": 43.609016,
    "lon": 3.884954,
    "name": "Boutique Créateurs - Éditions limitées - Montpellier",
    "url": ""
  },
  {
    "lat": 43.606396,
    "lon": 3.883941,
    "name": "Dedini Architecte d\u0027intérieur",
    "url": ""
  },
  {
    "lat": 43.60623,
    "lon": 3.884716,
    "name": "Transmanudem",
    "url": ""
  },
  {
    "lat": 43.608715,
    "lon": 3.877191,
    "name": "Le Gardien",
    "url": "https://lh3.googleusercontent.com/p_EOzhRb4oogpC_j3M1R7tRFU9KAldAdzs7ptoyXZCWViLcShnMHwEBsCY3PycLTgEmSmsQEm3fa6ruZvFEwLq2Nw_E"
  },
  {
    "lat": 43.608307,
    "lon": 3.876747,
    "name": "Restaurant Le Monastir",
    "url": ""
  },
  {
    "lat": 43.60792,
    "lon": 3.879595,
    "name": "Tout Pour la Chaussure",
    "url": ""
  },
  {
    "lat": 43.608803,
    "lon": 3.876761,
    "name": "KanaBeach",
    "url": ""
  },
  {
    "lat": 43.60752,
    "lon": 3.877919,
    "name": "capricho",
    "url": ""
  },
  {
    "lat": 43.60832,
    "lon": 3.875838,
    "name": "Rocco et sa mère",
    "url": ""
  },
  {
    "lat": 43.607464,
    "lon": 3.877216,
    "name": "Hôtel des Etuves",
    "url": ""
  },
  {
    "lat": 43.60937,
    "lon": 3.879461,
    "name": "Pandora",
    "url": ""
  },
  {
    "lat": 43.607407,
    "lon": 3.876453,
    "name": "LA LOGE Immobilier écusson",
    "url": ""
  },
  {
    "lat": 43.60681,
    "lon": 3.878376,
    "name": "Association Le jour d\u0027après",
    "url": ""
  },
  {
    "lat": 43.606026,
    "lon": 3.877202,
    "name": "Les Tartes LEBRUN",
    "url": ""
  },
  {
    "lat": 43.609486,
    "lon": 3.880465,
    "name": "La Loge aux Fleurs",
    "url": ""
  },
  {
    "lat": 43.606876,
    "lon": 3.877361,
    "name": "La Case du Saloum",
    "url": ""
  },
  {
    "lat": 43.608604,
    "lon": 3.873286,
    "name": "Institut Mary Cohr",
    "url": ""
  },
  {
    "lat": 43.60897,
    "lon": 3.875577,
    "name": "Mat \u0026 Seb",
    "url": ""
  },
  {
    "lat": 43.606262,
    "lon": 3.873165,
    "name": "Adequat 033",
    "url": ""
  },
  {
    "lat": 43.608387,
    "lon": 3.875007,
    "name": "Hôtel d\u0027Antoine ALLUT",
    "url": "https://lh3.googleusercontent.com/OU1cYq7Xd2JUdJX4Gq8wCAQqpIlCEMRULewCVkN5iISaiWZk9xKdDU06atJeRGAOUdHznO2G_8CA8C9t6UsBJVqybJBVW-LUixc-NH9E"
  },
  {
    "lat": 43.609814,
    "lon": 3.874745,
    "name": "Baci Baci",
    "url": ""
  },
  {
    "lat": 43.606953,
    "lon": 3.875473,
    "name": "Le Dernier Sou",
    "url": ""
  },
  {
    "lat": 43.60669,
    "lon": 3.873794,
    "name": "A2b Immersions",
    "url": ""
  },
  {
    "lat": 43.606388,
    "lon": 3.871739,
    "name": "Montpellier centre Duplex style loft",
    "url": ""
  },
  {
    "lat": 43.60715,
    "lon": 3.871299,
    "name": "A360Degres",
    "url": ""
  },
  {
    "lat": 43.60959,
    "lon": 3.875486,
    "name": "Nateo",
    "url": ""
  },
  {
    "lat": 43.61,
    "lon": 3.872985,
    "name": "Église Protestante EPAM",
    "url": "https://lh3.googleusercontent.com/yk2IBhbRqyvnkIcqxWqMx2ljsWLGUFK7s0_RVCJPqsZU5CgXmqh-MS5rcjWs2zwLhFxSutn9DWaCI69vxydJ9MyQzY5L"
  },
  {
    "lat": 43.60844,
    "lon": 3.872173,
    "name": "Hôtel des Voyageurs",
    "url": ""
  },
  {
    "lat": 43.607388,
    "lon": 3.87072,
    "name": "TIZI COIFFURE (barber-shop)",
    "url": ""
  },
  {
    "lat": 43.609463,
    "lon": 3.872742,
    "name": "Abacus",
    "url": ""
  },
  {
    "lat": 43.60864,
    "lon": 3.866459,
    "name": "Le Mouton Noir",
    "url": ""
  },
  {
    "lat": 43.608,
    "lon": 3.867992,
    "name": "Adia Experts en Batiment",
    "url": ""
  },
  {
    "lat": 43.60936,
    "lon": 3.866703,
    "name": "Picadeli",
    "url": ""
  },
  {
    "lat": 43.606525,
    "lon": 3.868612,
    "name": "Centre Sécurité",
    "url": ""
  },
  {
    "lat": 43.60713,
    "lon": 3.866997,
    "name": "Place marbrée",
    "url": "https://lh3.googleusercontent.com/9KinbQmRaf7lpXf19TDr-G3kr5l4LWgX5J09lyK-fBxkUnVeEAdZ2EFNnaBIAUGCK2Pt2DLQS4ZNtNRHzoIUMzTz2w"
  },
  {
    "lat": 43.608894,
    "lon": 3.867705,
    "name": "Bar Brasserie les Salins",
    "url": ""
  },
  {
    "lat": 43.610607,
    "lon": 3.865755,
    "name": "Searchitecte",
    "url": ""
  },
  {
    "lat": 43.607353,
    "lon": 3.869274,
    "name": "Les Ferronniers du Languedoc : Ferronnerie Montpellier",
    "url": ""
  },
  {
    "lat": 43.607784,
    "lon": 3.870312,
    "name": "My Anglophone Sister",
    "url": ""
  },
  {
    "lat": 43.60637,
    "lon": 3.867792,
    "name": "Lou Loue Coursier Moto",
    "url": ""
  },
  {
    "lat": 43.60793,
    "lon": 3.868662,
    "name": "Bazar d\u0027Agadir",
    "url": ""
  },
  {
    "lat": 43.607876,
    "lon": 3.869863,
    "name": "Le Coin des Saveurs",
    "url": ""
  },
  {
    "lat": 43.606873,
    "lon": 3.870514,
    "name": "Carsat languedoc Roussillon",
    "url": ""
  },
  {
    "lat": 43.6097,
    "lon": 3.869804,
    "name": "François Dolambi",
    "url": ""
  }
]