[
  {
    "lat": 43.653633,
    "lon": 3.997733,
    "name": "Volkswagen",
    "url": ""
  },
  {
    "lat": 43.648582,
    "lon": 3.990338,
    "name": "Soprema Entreprises",
    "url": ""
  },
  {
    "lat": 43.649273,
    "lon": 3.99167,
    "name": "Emmaüs",
    "url": ""
  },
  {
    "lat": 43.594063,
    "lon": 3.996176,
    "name": "Ecuries du Mas des 4 Vents",
    "url": ""
  },
  {
    "lat": 43.592327,
    "lon": 3.999023,
    "name": "Mauguio Volley - ASVBM",
    "url": ""
  },
  {
    "lat": 43.597874,
    "lon": 4.004813,
    "name": "Le Mazet Chambre d\u0027Hôtes",
    "url": ""
  },
  {
    "lat": 43.60935,
    "lon": 3.992386,
    "name": "Acc\u0027Tion Dog",
    "url": ""
  },
  {
    "lat": 43.620365,
    "lon": 3.990588,
    "name": "Stade de Rugby Mauguio",
    "url": ""
  },
  {
    "lat": 43.620136,
    "lon": 3.992025,
    "name": "Stade Léo Lagrange",
    "url": ""
  },
  {
    "lat": 43.619537,
    "lon": 3.992875,
    "name": "Pires José",
    "url": ""
  },
  {
    "lat": 43.616753,
    "lon": 3.992738,
    "name": "Legaud Thierry",
    "url": ""
  },
  {
    "lat": 43.62371,
    "lon": 3.989608,
    "name": "Pires José",
    "url": ""
  },
  {
    "lat": 43.621273,
    "lon": 3.991873,
    "name": "Brochier Facades",
    "url": ""
  },
  {
    "lat": 43.621655,
    "lon": 3.989171,
    "name": "Naturapalm",
    "url": ""
  },
  {
    "lat": 43.622597,
    "lon": 3.995138,
    "name": "Elan Elagage | Mauguio",
    "url": ""
  },
  {
    "lat": 43.6166,
    "lon": 3.996279,
    "name": "M.E Facades",
    "url": ""
  },
  {
    "lat": 43.617428,
    "lon": 3.998554,
    "name": "Pepinieres Ruiz",
    "url": ""
  },
  {
    "lat": 43.616985,
    "lon": 4.001222,
    "name": "Aef",
    "url": ""
  },
  {
    "lat": 43.616577,
    "lon": 4.001528,
    "name": "Boulodrome de Peyre Blanque",
    "url": "https://lh3.googleusercontent.com/lco2QUV9KCdCyq_82Cx4uqB64o44o_1vE4sQFHsltG1J-Gwhw2hbDJ3BOkaA9e1UiKRtTwd5Bp6Ce2UI7YPPVYD6JV4u6tbuk9rHDhZe"
  },
  {
    "lat": 43.61721,
    "lon": 4.001271,
    "name": "Batinov34",
    "url": ""
  },
  {
    "lat": 43.623753,
    "lon": 4.001376,
    "name": "Ipt34.com Mauguio",
    "url": ""
  },
  {
    "lat": 43.62326,
    "lon": 4.001418,
    "name": "Banque Alimentaire de l\u0027hérault",
    "url": ""
  },
  {
    "lat": 43.620953,
    "lon": 4.00533,
    "name": "Page Mjc Mauguio-Carnon",
    "url": ""
  },
  {
    "lat": 43.62166,
    "lon": 4.005648,
    "name": "MJC Mauguio",
    "url": ""
  },
  {
    "lat": 43.622105,
    "lon": 4.003374,
    "name": "Alexandra ALLOUCHE MIEUX ETRE",
    "url": ""
  },
  {
    "lat": 43.620975,
    "lon": 4.005897,
    "name": "Orientaction",
    "url": ""
  },
  {
    "lat": 43.61641,
    "lon": 4.006418,
    "name": "Com\u00279",
    "url": ""
  },
  {
    "lat": 43.61598,
    "lon": 4.004603,
    "name": "La Pizz\u0027Arrive Mauguio",
    "url": ""
  },
  {
    "lat": 43.616024,
    "lon": 4.006836,
    "name": "Aux Deux Comptoirs",
    "url": ""
  },
  {
    "lat": 43.615803,
    "lon": 4.005687,
    "name": "Brasserie de l\u0027Avenue",
    "url": ""
  },
  {
    "lat": 43.618153,
    "lon": 4.006998,
    "name": "Open Eye Drone",
    "url": ""
  },
  {
    "lat": 43.616447,
    "lon": 4.007466,
    "name": "SICA Vergers Mauguio",
    "url": ""
  },
  {
    "lat": 43.616577,
    "lon": 4.003752,
    "name": "El Impiador 34",
    "url": ""
  },
  {
    "lat": 43.617214,
    "lon": 4.007027,
    "name": "Pepin Sandrine",
    "url": ""
  },
  {
    "lat": 43.61578,
    "lon": 4.00763,
    "name": "Guy Hoquet l\u0027Immobilier Mauguio",
    "url": ""
  },
  {
    "lat": 43.617767,
    "lon": 4.00781,
    "name": "Rivauto",
    "url": ""
  },
  {
    "lat": 43.619137,
    "lon": 4.004632,
    "name": "SPI Graphic",
    "url": ""
  },
  {
    "lat": 43.615425,
    "lon": 4.006232,
    "name": "Monument aux morts",
    "url": "https://lh3.googleusercontent.com/08QJk2NJLk2FmUZ1mWTZYgozQPSrAuuBfiLyIhjR1X7WPslAPO2dx3tFPaDSVImI00kqQwdsw2Lgufakg_wF3Opibg"
  },
  {
    "lat": 43.611946,
    "lon": 4.004635,
    "name": "HADJADJ Cedric",
    "url": ""
  },
  {
    "lat": 43.61273,
    "lon": 4.006963,
    "name": "Des Filles et des Garçons",
    "url": ""
  },
  {
    "lat": 43.612553,
    "lon": 4.005763,
    "name": "Baleo",
    "url": ""
  },
  {
    "lat": 43.614586,
    "lon": 4.007448,
    "name": "Salon de Toilettage LES BULLES DE JACK",
    "url": ""
  },
  {
    "lat": 43.61446,
    "lon": 4.00788,
    "name": "Ruedo - oeuvre du plasticien Jordi - 2019",
    "url": "https://lh3.googleusercontent.com/HyALkpLFxO5Mqxt0ObzjBKTJi5TLCHvson5sz4rmYKGPFq4JNWMAZvi_UpGVW7_Fyly92BUDlPd_8TeclR1tgHj1W5r3TWn8sXbKdXoB"
  },
  {
    "lat": 43.611843,
    "lon": 4.005445,
    "name": "Intermarché station-service Mauguio",
    "url": ""
  },
  {
    "lat": 43.612713,
    "lon": 4.006137,
    "name": "Sequoia pressing",
    "url": ""
  },
  {
    "lat": 43.613777,
    "lon": 4.005421,
    "name": "Piscine Aquad\u0027Or",
    "url": ""
  },
  {
    "lat": 43.612305,
    "lon": 4.003653,
    "name": "JouéClub",
    "url": ""
  },
  {
    "lat": 43.615433,
    "lon": 4.000039,
    "name": "France Handling",
    "url": ""
  },
  {
    "lat": 43.610672,
    "lon": 4.00345,
    "name": "Mendez Pierre",
    "url": ""
  },
  {
    "lat": 43.60995,
    "lon": 4.004232,
    "name": "Mademoiselle Beauté",
    "url": ""
  },
  {
    "lat": 43.60934,
    "lon": 4.01195,
    "name": "Corbeille De Fer",
    "url": "https://lh3.googleusercontent.com/-to2di-cXh1ni_1qWNDXv2jDOXOkeRwYbICrIDDf5sNyX2EM4VE0nQbobQHg2t_1F5Ie00Rc9UYop51bdfdbIpnueqQ"
  },
  {
    "lat": 43.608486,
    "lon": 4.013279,
    "name": "Les petites maisons des abeilles melgoriennes",
    "url": "https://lh3.googleusercontent.com/I7gU7CaRAKsLhgA_jhjKbhQnzzMEJcbOW4DqrUEMHQRBr1eE-jX1eirn3oEYQSQRboOpTl0Ifg0xJjYc2arX0bYExRI"
  },
  {
    "lat": 43.609814,
    "lon": 4.011457,
    "name": "Ma première petite voiture",
    "url": "https://lh3.googleusercontent.com/4AvZ3dAWxXExZn9sEx3-aQ_RzkWjpYBFFU80W7qORip44YUXe9LKZ4EXVWswq7hOtmK5XHbkEmHuiXZS1WW4fe0jzUaXQf_vZQ2TOHUH"
  },
  {
    "lat": 43.609573,
    "lon": 4.012689,
    "name": "Bootcamp Athletic Training",
    "url": ""
  },
  {
    "lat": 43.63643,
    "lon": 3.990623,
    "name": "Pépinières Ruiz",
    "url": ""
  },
  {
    "lat": 43.633263,
    "lon": 3.984477,
    "name": "GAEC Carnoy-Chanson",
    "url": ""
  },
  {
    "lat": 43.63465,
    "lon": 3.980129,
    "name": "Atelier des Vidaux",
    "url": ""
  },
  {
    "lat": 43.633694,
    "lon": 3.968143,
    "name": "Stade Robert Castan",
    "url": ""
  },
  {
    "lat": 43.638477,
    "lon": 3.969517,
    "name": "salle bassaget",
    "url": "https://lh3.googleusercontent.com/r1d3zLMTNSZG51SgJsAW7BzqeCTSldIKSio9E9l0u0CzaJBAXkRDv4WVDcpH3uiOjf9nwNCOb2V6sFAzYsrs7phtRSY"
  },
  {
    "lat": 43.63908,
    "lon": 3.970133,
    "name": "Bibliothèque Municipale",
    "url": ""
  },
  {
    "lat": 43.637337,
    "lon": 3.968369,
    "name": "Florence Lemaire",
    "url": ""
  },
  {
    "lat": 43.63762,
    "lon": 3.975701,
    "name": "S3E",
    "url": ""
  },
  {
    "lat": 43.636852,
    "lon": 3.977636,
    "name": "Tech Auto",
    "url": ""
  },
  {
    "lat": 43.643993,
    "lon": 3.968935,
    "name": "Orchestra",
    "url": ""
  },
  {
    "lat": 43.642796,
    "lon": 3.969053,
    "name": "BLI",
    "url": ""
  },
  {
    "lat": 43.642227,
    "lon": 3.968184,
    "name": "Bertrand Lattes Aviation Consult",
    "url": ""
  },
  {
    "lat": 43.641174,
    "lon": 3.967047,
    "name": "Tennis Club de St Aunes",
    "url": ""
  },
  {
    "lat": 43.636723,
    "lon": 3.966452,
    "name": "Yves Rocher",
    "url": ""
  },
  {
    "lat": 43.63884,
    "lon": 3.962748,
    "name": "G.M Coiffure",
    "url": ""
  },
  {
    "lat": 43.637207,
    "lon": 3.965922,
    "name": "fontaine de la salle polyvalente de st aunes",
    "url": "https://lh3.googleusercontent.com/dn58G_6CpPD7HCblGENvqr81KNqOUXW7vWr_g_nqqqZmbcjaEpQmEsZzI4-sfSPVwBve_mqDNfwTDJm1i1PzsJnaQ6hVqhE_EXM_ih30"
  },
  {
    "lat": 43.63905,
    "lon": 3.963415,
    "name": "Le bar à ongles by V St Aunes",
    "url": ""
  },
  {
    "lat": 43.63993,
    "lon": 3.962648,
    "name": "Les Delices d\u0027Andrea",
    "url": ""
  },
  {
    "lat": 43.636463,
    "lon": 3.965991,
    "name": "Église Saint Aunes",
    "url": "https://lh3.googleusercontent.com/TIWdnfBQ5jC4OaugS_EWMCF468zfJk74BW2YQ7c7MZoS4_mDO-RmM3Rw6FkxB-irU17PXiytpZP09QLdfRhASnntKL4"
  },
  {
    "lat": 43.63989,
    "lon": 3.96538,
    "name": "Le Bistrot des Gônes",
    "url": ""
  },
  {
    "lat": 43.63795,
    "lon": 3.96422,
    "name": "Restaurant Chez Romain",
    "url": ""
  },
  {
    "lat": 43.639545,
    "lon": 3.962512,
    "name": "Servi-grill Portugais",
    "url": ""
  },
  {
    "lat": 43.636395,
    "lon": 3.965323,
    "name": "M. V Toilettage",
    "url": ""
  },
  {
    "lat": 43.639786,
    "lon": 3.962014,
    "name": "Adg 34 Immo",
    "url": ""
  },
  {
    "lat": 43.642914,
    "lon": 3.958794,
    "name": "Redon Aurélie AUREA-ARCHITECTURE DPLG",
    "url": ""
  },
  {
    "lat": 43.644985,
    "lon": 3.950572,
    "name": "Loxam",
    "url": ""
  },
  {
    "lat": 43.645885,
    "lon": 3.951075,
    "name": "Exadex Enchères Ventes aux Enchères",
    "url": ""
  },
  {
    "lat": 43.645397,
    "lon": 3.951511,
    "name": "Frans Bonhomme",
    "url": ""
  },
  {
    "lat": 43.645767,
    "lon": 3.951799,
    "name": "Montpellier Accessoires",
    "url": ""
  },
  {
    "lat": 43.64071,
    "lon": 3.956539,
    "name": "Le manège à bijoux",
    "url": ""
  },
  {
    "lat": 43.635918,
    "lon": 3.965449,
    "name": "Avenir Togo",
    "url": ""
  },
  {
    "lat": 43.635677,
    "lon": 3.962635,
    "name": "Leader Coiffure",
    "url": ""
  },
  {
    "lat": 43.634888,
    "lon": 3.965455,
    "name": "Centre Associatif de Saint-Aunès",
    "url": "https://lh3.googleusercontent.com/OSmzYk3WsHojUiTQgDNqKSsHpXhasBR9M3PxtyWrTrEAZgwqOWt_hL68UsMHpKVILoojs1c-V-qqLOnaM_hFyMyH59w"
  },
  {
    "lat": 43.63571,
    "lon": 3.96315,
    "name": "Avenir Concept Design",
    "url": ""
  },
  {
    "lat": 43.62221,
    "lon": 3.952128,
    "name": "SignaSud",
    "url": ""
  },
  {
    "lat": 43.617996,
    "lon": 3.955842,
    "name": "Atelier 19",
    "url": ""
  },
  {
    "lat": 43.614452,
    "lon": 3.958082,
    "name": "La Cabane",
    "url": ""
  },
  {
    "lat": 43.61504,
    "lon": 3.964434,
    "name": "Froid d\u0027Oc",
    "url": ""
  },
  {
    "lat": 43.617374,
    "lon": 3.9867,
    "name": "Les Tables Jarque",
    "url": ""
  },
  {
    "lat": 43.60527,
    "lon": 3.982149,
    "name": "Sarl Lefilet",
    "url": ""
  },
  {
    "lat": 43.59723,
    "lon": 3.977587,
    "name": "Domaine des Grands Chais",
    "url": ""
  },
  {
    "lat": 43.59052,
    "lon": 3.976123,
    "name": "San Marco Montpellier Polo",
    "url": ""
  },
  {
    "lat": 43.596912,
    "lon": 3.982169,
    "name": "Mas de la Couarche: SOLEIL ARABIANS",
    "url": ""
  },
  {
    "lat": 43.571968,
    "lon": 3.953411,
    "name": "Connec\u0027Sud",
    "url": ""
  },
  {
    "lat": 43.574265,
    "lon": 3.947133,
    "name": "Bosch Car Service",
    "url": ""
  },
  {
    "lat": 43.573414,
    "lon": 3.951538,
    "name": "Arena Montpellier",
    "url": ""
  },
  {
    "lat": 43.57236,
    "lon": 3.947724,
    "name": "Made in Sud de France",
    "url": ""
  },
  {
    "lat": 43.5744,
    "lon": 3.94768,
    "name": "Capra 34",
    "url": ""
  },
  {
    "lat": 43.57516,
    "lon": 3.94834,
    "name": "China Wok",
    "url": ""
  },
  {
    "lat": 43.575638,
    "lon": 3.947423,
    "name": "Montpellier Dépannage",
    "url": ""
  },
  {
    "lat": 43.579185,
    "lon": 3.949422,
    "name": "CCI Hérault",
    "url": ""
  },
  {
    "lat": 43.597054,
    "lon": 3.947156,
    "name": "Château la Banquière",
    "url": ""
  },
  {
    "lat": 43.592667,
    "lon": 3.958099,
    "name": "Com.Une.Exception",
    "url": ""
  },
  {
    "lat": 43.591465,
    "lon": 3.957429,
    "name": "MARCADIER Paysage",
    "url": ""
  },
  {
    "lat": 43.59268,
    "lon": 3.963542,
    "name": "La Poste",
    "url": ""
  },
  {
    "lat": 43.60598,
    "lon": 3.927875,
    "name": "EdenKids",
    "url": ""
  },
  {
    "lat": 43.601368,
    "lon": 3.927113,
    "name": "Chapelle",
    "url": "https://lh3.googleusercontent.com/o7cpL4qWrbrjW2u8_S_hqal3m35uN4fKXsjRmX4IsSdPDQ6_55uxpziPcjF1UVEIGYqHRokcyXbSDuvaPXhipRDuxZ98"
  },
  {
    "lat": 43.601074,
    "lon": 3.926656,
    "name": "Fontaine du château de Mogere",
    "url": "https://lh3.googleusercontent.com/IG3PzbH3ab65TFIjrzqlnrUgXzwdMZv7NQNeRaJclIxXtvCMIMEz6HXB3JoqIfVj197vySouobE-d53KXEkVzAD6og"
  },
  {
    "lat": 43.59027,
    "lon": 3.931641,
    "name": "INEO MIDI PYREN. LANGU. ROUS. PAR ABRE Ineo Midi Pyrénées Languedoc Roussillon",
    "url": ""
  },
  {
    "lat": 43.59208,
    "lon": 3.927269,
    "name": "Coach Sportif Montpellier",
    "url": ""
  },
  {
    "lat": 43.58946,
    "lon": 3.935205,
    "name": "Espace Mediterranee",
    "url": ""
  },
  {
    "lat": 43.58987,
    "lon": 3.935312,
    "name": "Place du Marché Mauguio",
    "url": ""
  },
  {
    "lat": 43.590206,
    "lon": 3.933496,
    "name": "Ineo MPLR",
    "url": ""
  },
  {
    "lat": 43.59191,
    "lon": 3.936099,
    "name": "Septeo",
    "url": ""
  },
  {
    "lat": 43.590466,
    "lon": 3.935251,
    "name": "Renault Dealer",
    "url": ""
  },
  {
    "lat": 43.58925,
    "lon": 3.935897,
    "name": "Bmx Avenue - Avenue Du Velo",
    "url": ""
  },
  {
    "lat": 43.590534,
    "lon": 3.936513,
    "name": "Liam Concept Store",
    "url": ""
  },
  {
    "lat": 43.592495,
    "lon": 3.936652,
    "name": "Europe Moto",
    "url": ""
  },
  {
    "lat": 43.590065,
    "lon": 3.935935,
    "name": "ATPlus",
    "url": ""
  },
  {
    "lat": 43.589397,
    "lon": 3.936665,
    "name": "Rexel",
    "url": ""
  },
  {
    "lat": 43.59143,
    "lon": 3.933548,
    "name": "Schneider Electric France",
    "url": ""
  },
  {
    "lat": 43.589203,
    "lon": 3.934591,
    "name": "Basic-Fit Mauguio Rue Charles Lindbergh",
    "url": ""
  },
  {
    "lat": 43.59067,
    "lon": 3.937455,
    "name": "Physik Perf",
    "url": ""
  },
  {
    "lat": 43.59028,
    "lon": 3.938576,
    "name": "Idealsud",
    "url": ""
  },
  {
    "lat": 43.58983,
    "lon": 3.936986,
    "name": "Le Gam",
    "url": ""
  },
  {
    "lat": 43.59212,
    "lon": 3.940943,
    "name": "Moto Park Montpellier",
    "url": ""
  },
  {
    "lat": 43.590626,
    "lon": 3.94058,
    "name": "Moto Sud 34",
    "url": ""
  },
  {
    "lat": 43.589817,
    "lon": 3.940712,
    "name": "TRYBA Mauguio",
    "url": ""
  },
  {
    "lat": 43.58981,
    "lon": 3.937999,
    "name": "Cryonext",
    "url": ""
  },
  {
    "lat": 43.59012,
    "lon": 3.937463,
    "name": "Rôle Energies",
    "url": ""
  },
  {
    "lat": 43.589325,
    "lon": 3.939619,
    "name": "Ciat",
    "url": ""
  },
  {
    "lat": 43.591736,
    "lon": 3.939467,
    "name": "Az Musique",
    "url": ""
  },
  {
    "lat": 43.589287,
    "lon": 3.938762,
    "name": "savie",
    "url": ""
  },
  {
    "lat": 43.590847,
    "lon": 3.937839,
    "name": "Cafés Maya",
    "url": ""
  },
  {
    "lat": 43.589054,
    "lon": 3.940905,
    "name": "Bang \u0026 Olufsen",
    "url": ""
  },
  {
    "lat": 43.591137,
    "lon": 3.937243,
    "name": "Assistance Securite Systems",
    "url": ""
  },
  {
    "lat": 43.594097,
    "lon": 3.943538,
    "name": "Les Vérandas du Soleil",
    "url": ""
  },
  {
    "lat": 43.589233,
    "lon": 3.942401,
    "name": "Comptoir Electrique Francais Cef",
    "url": ""
  },
  {
    "lat": 43.589462,
    "lon": 3.943634,
    "name": "Pure Impression",
    "url": ""
  },
  {
    "lat": 43.589905,
    "lon": 3.942461,
    "name": "Audrey Jacquot-doutres",
    "url": ""
  },
  {
    "lat": 43.59299,
    "lon": 3.943158,
    "name": "La Cabane de Mauguio",
    "url": ""
  },
  {
    "lat": 43.588852,
    "lon": 3.943993,
    "name": "Media Fab",
    "url": ""
  },
  {
    "lat": 43.587223,
    "lon": 3.943802,
    "name": "SoCoo\u0027c",
    "url": ""
  },
  {
    "lat": 43.588676,
    "lon": 3.942014,
    "name": "Fluvia Ets Thomen et Cie",
    "url": ""
  },
  {
    "lat": 43.587296,
    "lon": 3.942032,
    "name": "Fast Hötel Montpellier Establissements Parc Expo",
    "url": ""
  },
  {
    "lat": 43.58712,
    "lon": 3.942721,
    "name": "Sterm",
    "url": ""
  },
  {
    "lat": 43.58826,
    "lon": 3.942569,
    "name": "Promod",
    "url": ""
  },
  {
    "lat": 43.587353,
    "lon": 3.941276,
    "name": "Kawazaki",
    "url": ""
  },
  {
    "lat": 43.58483,
    "lon": 3.938375,
    "name": "We Van",
    "url": ""
  },
  {
    "lat": 43.586815,
    "lon": 3.941369,
    "name": "MC2 Motors",
    "url": ""
  },
  {
    "lat": 43.584743,
    "lon": 3.937775,
    "name": "Futronix. Futronix France",
    "url": ""
  },
  {
    "lat": 43.58475,
    "lon": 3.94075,
    "name": "Mobalpa",
    "url": ""
  },
  {
    "lat": 43.584846,
    "lon": 3.93925,
    "name": "Celesta-lab",
    "url": ""
  },
  {
    "lat": 43.58784,
    "lon": 3.937768,
    "name": "Bpa Fenetres et Fermetures",
    "url": ""
  },
  {
    "lat": 43.585934,
    "lon": 3.940248,
    "name": "Pacific Peche",
    "url": ""
  },
  {
    "lat": 43.585423,
    "lon": 3.939809,
    "name": "ITribu Mauguio Fréjorgues",
    "url": ""
  },
  {
    "lat": 43.588577,
    "lon": 3.940934,
    "name": "YAMAHA yam34",
    "url": ""
  },
  {
    "lat": 43.58717,
    "lon": 3.937708,
    "name": "Cofriset",
    "url": ""
  },
  {
    "lat": 43.584766,
    "lon": 3.939835,
    "name": "Realtech",
    "url": ""
  },
  {
    "lat": 43.588238,
    "lon": 3.937831,
    "name": "Murprotec",
    "url": ""
  },
  {
    "lat": 43.588184,
    "lon": 3.94165,
    "name": "Locavorium Fréjorgues",
    "url": ""
  },
  {
    "lat": 43.57992,
    "lon": 3.93729,
    "name": "Effia",
    "url": ""
  },
  {
    "lat": 43.582096,
    "lon": 3.938188,
    "name": "Geodis Freight Forwarding France",
    "url": ""
  },
  {
    "lat": 43.579807,
    "lon": 3.939592,
    "name": "CCI Languedoc-Roussillon",
    "url": ""
  },
  {
    "lat": 43.58056,
    "lon": 3.938277,
    "name": "Languedoc Roussillon Materiaux",
    "url": ""
  },
  {
    "lat": 43.580696,
    "lon": 3.938825,
    "name": "Seris Europe Sécurité Industrie",
    "url": ""
  },
  {
    "lat": 43.58367,
    "lon": 3.941429,
    "name": "Hymeo Piscines BDH Mauguio",
    "url": ""
  },
  {
    "lat": 43.583282,
    "lon": 3.941056,
    "name": "Alvarez Freres",
    "url": ""
  },
  {
    "lat": 43.583168,
    "lon": 3.941384,
    "name": "D-Day Vision",
    "url": ""
  },
  {
    "lat": 43.58109,
    "lon": 3.938493,
    "name": "Capgemini Sud",
    "url": ""
  },
  {
    "lat": 43.5822,
    "lon": 3.93738,
    "name": "Ubic",
    "url": ""
  },
  {
    "lat": 43.582718,
    "lon": 3.93751,
    "name": "Garrot Chaillac",
    "url": ""
  },
  {
    "lat": 43.580532,
    "lon": 3.940389,
    "name": "Dictaplus",
    "url": ""
  },
  {
    "lat": 43.5827,
    "lon": 3.941991,
    "name": "Espace 34",
    "url": ""
  },
  {
    "lat": 43.580475,
    "lon": 3.946106,
    "name": "Rent A Car",
    "url": ""
  },
  {
    "lat": 43.58226,
    "lon": 3.942374,
    "name": "Manpower",
    "url": ""
  },
  {
    "lat": 43.583336,
    "lon": 3.945245,
    "name": "LOUVAN Montpellier Aéroport",
    "url": ""
  },
  {
    "lat": 43.580486,
    "lon": 3.942909,
    "name": "Truffaut Garden Mauguio",
    "url": ""
  },
  {
    "lat": 43.57458,
    "lon": 3.94282,
    "name": "Kiabi",
    "url": ""
  },
  {
    "lat": 43.57523,
    "lon": 3.94686,
    "name": "Atmo Occitanie",
    "url": ""
  },
  {
    "lat": 43.575153,
    "lon": 3.942195,
    "name": "Société Christian Rage S.A.R.L.",
    "url": ""
  },
  {
    "lat": 43.57853,
    "lon": 3.942184,
    "name": "Loc\u0027Karting",
    "url": ""
  },
  {
    "lat": 43.574993,
    "lon": 3.946042,
    "name": "Aftral Montpellier",
    "url": ""
  },
  {
    "lat": 43.57505,
    "lon": 3.945446,
    "name": "AFTRAL Montpellier",
    "url": ""
  },
  {
    "lat": 43.574272,
    "lon": 3.946429,
    "name": "Brasserie du Parc by les Artistes",
    "url": ""
  },
  {
    "lat": 43.57391,
    "lon": 3.945205,
    "name": "Pizzeria Fino",
    "url": ""
  },
  {
    "lat": 43.573463,
    "lon": 3.942192,
    "name": "Cash Converters",
    "url": ""
  },
  {
    "lat": 43.57296,
    "lon": 3.944987,
    "name": "B\u0026m",
    "url": ""
  },
  {
    "lat": 43.57355,
    "lon": 3.943744,
    "name": "Véo",
    "url": ""
  },
  {
    "lat": 43.57238,
    "lon": 3.944429,
    "name": "Alinea",
    "url": ""
  },
  {
    "lat": 43.572655,
    "lon": 3.942638,
    "name": "Erbé Perols Auchan",
    "url": ""
  },
  {
    "lat": 43.571,
    "lon": 3.942332,
    "name": "L\u0027allegria",
    "url": ""
  },
  {
    "lat": 43.572945,
    "lon": 3.942224,
    "name": "Marionnaud Parfumerie",
    "url": ""
  },
  {
    "lat": 43.57219,
    "lon": 3.939282,
    "name": "Olly Gan",
    "url": ""
  },
  {
    "lat": 43.574528,
    "lon": 3.94073,
    "name": "La Prose Déjeuner",
    "url": ""
  },
  {
    "lat": 43.57401,
    "lon": 3.938485,
    "name": "Liberty gym",
    "url": ""
  },
  {
    "lat": 43.57444,
    "lon": 3.93789,
    "name": "Euroliterie, Bedding, Mattress, Mattress, Sofa, Sofa",
    "url": ""
  },
  {
    "lat": 43.57305,
    "lon": 3.939528,
    "name": "objectifcode CENTRE d\u0027EXAMEN du CODE de la ROUTE",
    "url": ""
  },
  {
    "lat": 43.574165,
    "lon": 3.941092,
    "name": "La Vie Claire",
    "url": ""
  },
  {
    "lat": 43.57039,
    "lon": 3.941743,
    "name": "Tel And Com",
    "url": ""
  },
  {
    "lat": 43.572475,
    "lon": 3.940958,
    "name": "Hélios Optique",
    "url": ""
  },
  {
    "lat": 43.573322,
    "lon": 3.939016,
    "name": "Garden Braise",
    "url": ""
  },
  {
    "lat": 43.57368,
    "lon": 3.937357,
    "name": "Ford Vignale",
    "url": ""
  },
  {
    "lat": 43.57264,
    "lon": 3.941267,
    "name": "Darjeeling",
    "url": ""
  },
  {
    "lat": 43.572308,
    "lon": 3.941632,
    "name": "Montpellier Méditerranée Duty Free Shopping",
    "url": ""
  },
  {
    "lat": 43.5755,
    "lon": 3.936955,
    "name": "Poltronesofa France",
    "url": ""
  },
  {
    "lat": 43.5748,
    "lon": 3.938199,
    "name": "MDA Electroménager Discount",
    "url": ""
  },
  {
    "lat": 43.576042,
    "lon": 3.937651,
    "name": "Darty",
    "url": ""
  },
  {
    "lat": 43.575233,
    "lon": 3.938143,
    "name": "Escalade Bloc Session Montpellier",
    "url": ""
  },
  {
    "lat": 43.579323,
    "lon": 3.938534,
    "name": "Cle Expertises",
    "url": ""
  },
  {
    "lat": 43.578552,
    "lon": 3.937097,
    "name": "Arthur Bonnet - Cuisiniste Montpellier - Pérols",
    "url": ""
  },
  {
    "lat": 43.575012,
    "lon": 3.937391,
    "name": "Orchestra PEROLS",
    "url": ""
  },
  {
    "lat": 43.576923,
    "lon": 3.933812,
    "name": "Magasin Kiabi PEROLS",
    "url": ""
  },
  {
    "lat": 43.57692,
    "lon": 3.935588,
    "name": "Gémo",
    "url": ""
  },
  {
    "lat": 43.576145,
    "lon": 3.935659,
    "name": "Picard Perols",
    "url": ""
  },
  {
    "lat": 43.578087,
    "lon": 3.933436,
    "name": "Darty",
    "url": ""
  },
  {
    "lat": 43.578094,
    "lon": 3.934081,
    "name": "Kiabi",
    "url": ""
  },
  {
    "lat": 43.57579,
    "lon": 3.935096,
    "name": "Krys",
    "url": ""
  },
  {
    "lat": 43.57694,
    "lon": 3.934687,
    "name": "Darty",
    "url": ""
  },
  {
    "lat": 43.57646,
    "lon": 3.936655,
    "name": "Lapeyre",
    "url": ""
  },
  {
    "lat": 43.576454,
    "lon": 3.934243,
    "name": "GiFi Pérols",
    "url": ""
  },
  {
    "lat": 43.57829,
    "lon": 3.935596,
    "name": "Restaurant la Boucherie",
    "url": ""
  },
  {
    "lat": 43.57866,
    "lon": 3.93281,
    "name": "Quick",
    "url": ""
  },
  {
    "lat": 43.577873,
    "lon": 3.936151,
    "name": "Bistro Regent Perols",
    "url": ""
  },
  {
    "lat": 43.57413,
    "lon": 3.936664,
    "name": "Picard",
    "url": ""
  },
  {
    "lat": 43.5783,
    "lon": 3.928404,
    "name": "Camping in Estanel",
    "url": ""
  },
  {
    "lat": 43.577168,
    "lon": 3.926968,
    "name": "Camping Le Parc",
    "url": ""
  },
  {
    "lat": 43.582916,
    "lon": 3.927466,
    "name": "Gerastam",
    "url": ""
  },
  {
    "lat": 43.58206,
    "lon": 3.929099,
    "name": "Carrefour Voyages Montpellier Lattes",
    "url": ""
  },
  {
    "lat": 43.58287,
    "lon": 3.930986,
    "name": "SEPHORA",
    "url": ""
  },
  {
    "lat": 43.58455,
    "lon": 3.927766,
    "name": "Conforama",
    "url": ""
  },
  {
    "lat": 43.58079,
    "lon": 3.931477,
    "name": "Centre Auto Feu Vert MONTPELLIER LATTES",
    "url": ""
  },
  {
    "lat": 43.58216,
    "lon": 3.930047,
    "name": "Morgan",
    "url": ""
  },
  {
    "lat": 43.582615,
    "lon": 3.928009,
    "name": "IKKS",
    "url": ""
  },
  {
    "lat": 43.582737,
    "lon": 3.929254,
    "name": "Celio",
    "url": ""
  },
  {
    "lat": 43.58084,
    "lon": 3.929932,
    "name": "Montpellier Lattes",
    "url": ""
  },
  {
    "lat": 43.58254,
    "lon": 3.928673,
    "name": "IKKS Women",
    "url": ""
  },
  {
    "lat": 43.58238,
    "lon": 3.930632,
    "name": "Devred1902",
    "url": ""
  },
  {
    "lat": 43.582996,
    "lon": 3.92877,
    "name": "GRAND LITIER Tendances literie",
    "url": ""
  },
  {
    "lat": 43.580933,
    "lon": 3.936281,
    "name": "Studio Pilates de Montpellier",
    "url": ""
  },
  {
    "lat": 43.583515,
    "lon": 3.934255,
    "name": "Sport 2000",
    "url": ""
  },
  {
    "lat": 43.58035,
    "lon": 3.936821,
    "name": "Puissance Solaire Énergie",
    "url": ""
  },
  {
    "lat": 43.583935,
    "lon": 3.932207,
    "name": "Jardiland",
    "url": ""
  },
  {
    "lat": 43.582348,
    "lon": 3.93573,
    "name": "M.D.A.",
    "url": ""
  },
  {
    "lat": 43.583973,
    "lon": 3.93322,
    "name": "Boulangerie Ange",
    "url": ""
  },
  {
    "lat": 43.582825,
    "lon": 3.934075,
    "name": "Clim-Mag",
    "url": ""
  },
  {
    "lat": 43.58366,
    "lon": 3.936777,
    "name": "Brasserie Gusto",
    "url": ""
  },
  {
    "lat": 43.58277,
    "lon": 3.936754,
    "name": "Boiron",
    "url": ""
  },
  {
    "lat": 43.583553,
    "lon": 3.934907,
    "name": "Buffalo Grill",
    "url": ""
  },
  {
    "lat": 43.582825,
    "lon": 3.934691,
    "name": "ETS PINTAT",
    "url": ""
  },
  {
    "lat": 43.587685,
    "lon": 3.932878,
    "name": "Kalypse",
    "url": ""
  },
  {
    "lat": 43.58848,
    "lon": 3.933794,
    "name": "CAPEL STORE Occasions",
    "url": ""
  },
  {
    "lat": 43.58847,
    "lon": 3.934498,
    "name": "Repro Languedoc Solutions",
    "url": ""
  },
  {
    "lat": 43.588367,
    "lon": 3.932628,
    "name": "Centre Porsche Montpellier",
    "url": ""
  },
  {
    "lat": 43.585613,
    "lon": 3.933455,
    "name": "Gouiran",
    "url": ""
  },
  {
    "lat": 43.58858,
    "lon": 3.936762,
    "name": "Fitnessboutique France",
    "url": ""
  },
  {
    "lat": 43.587193,
    "lon": 3.935596,
    "name": "Média Fab",
    "url": ""
  },
  {
    "lat": 43.587303,
    "lon": 3.934084,
    "name": "Bodeva Communication",
    "url": ""
  },
  {
    "lat": 43.585686,
    "lon": 3.932894,
    "name": "Gouiran Beauté",
    "url": ""
  },
  {
    "lat": 43.586277,
    "lon": 3.934218,
    "name": "Eryma Mauguio",
    "url": ""
  },
  {
    "lat": 43.586815,
    "lon": 3.934125,
    "name": "T. M. E",
    "url": ""
  },
  {
    "lat": 43.587856,
    "lon": 3.935965,
    "name": "ALB Automobiles",
    "url": ""
  },
  {
    "lat": 43.58721,
    "lon": 3.934708,
    "name": "JLPS Constructions",
    "url": ""
  },
  {
    "lat": 43.58506,
    "lon": 3.933368,
    "name": "Trampoline Park You Jump Montpellier Lattes",
    "url": ""
  },
  {
    "lat": 43.587368,
    "lon": 3.929552,
    "name": "Ucar Montpellier Lattes",
    "url": ""
  },
  {
    "lat": 43.589336,
    "lon": 3.929388,
    "name": "Les Chasselas",
    "url": ""
  },
  {
    "lat": 43.58857,
    "lon": 3.929827,
    "name": "Catherine Howard",
    "url": ""
  },
  {
    "lat": 43.585026,
    "lon": 3.927178,
    "name": "Saveurs du Monde",
    "url": ""
  },
  {
    "lat": 43.585262,
    "lon": 3.928773,
    "name": "Conforama",
    "url": ""
  },
  {
    "lat": 43.586895,
    "lon": 3.928974,
    "name": "Auto Ecole Champollion",
    "url": ""
  },
  {
    "lat": 43.585403,
    "lon": 3.922901,
    "name": "HELENIS",
    "url": ""
  },
  {
    "lat": 43.585217,
    "lon": 3.921582,
    "name": "New Squash et Badminton",
    "url": ""
  },
  {
    "lat": 43.5856,
    "lon": 3.921955,
    "name": "Mondial Pare-Brise",
    "url": ""
  },
  {
    "lat": 43.584988,
    "lon": 3.926494,
    "name": "Maxi Zoo Montpellier",
    "url": ""
  },
  {
    "lat": 43.584793,
    "lon": 3.925519,
    "name": "Auto Bilan Monpellierain",
    "url": ""
  },
  {
    "lat": 43.586704,
    "lon": 3.925011,
    "name": "Jeu Pour Enfants De Boirargues",
    "url": "https://lh3.googleusercontent.com/N0Du4goOTVR-7mBl1tcB8S5-H34HCsUTKlB4ES1JwCyRGjXk051YGiFDxU4ExrcNWVyGdiWxLfIbugKiJBaR72iMj6ld"
  },
  {
    "lat": 43.584915,
    "lon": 3.924092,
    "name": "SARL Midi Pare Brise Franchisé MONDIAL PARE BRISE",
    "url": ""
  },
  {
    "lat": 43.588913,
    "lon": 3.919627,
    "name": "Ferri-boniol Michèle",
    "url": ""
  },
  {
    "lat": 43.586308,
    "lon": 3.921462,
    "name": "Sol-Fin Lattes",
    "url": ""
  },
  {
    "lat": 43.58736,
    "lon": 3.918446,
    "name": "Germain Roncari Thérapeute en hypnose et Psychopraticien",
    "url": ""
  },
  {
    "lat": 43.58615,
    "lon": 3.919664,
    "name": "Sénac Coralie",
    "url": ""
  },
  {
    "lat": 43.585403,
    "lon": 3.920584,
    "name": "BUT",
    "url": ""
  },
  {
    "lat": 43.58789,
    "lon": 3.916774,
    "name": "AJC Modélisme",
    "url": ""
  },
  {
    "lat": 43.58668,
    "lon": 3.919091,
    "name": "Garage des Pins",
    "url": ""
  },
  {
    "lat": 43.58568,
    "lon": 3.921315,
    "name": "Aquila RH\u0027 Montpellier Sud",
    "url": ""
  },
  {
    "lat": 43.58624,
    "lon": 3.920264,
    "name": "Studio Mng",
    "url": ""
  },
  {
    "lat": 43.58761,
    "lon": 3.917482,
    "name": "New Life Fitness",
    "url": ""
  },
  {
    "lat": 43.58462,
    "lon": 3.92024,
    "name": "Mas Campo",
    "url": ""
  },
  {
    "lat": 43.581203,
    "lon": 3.921002,
    "name": "Agence Nestenn Immobilier",
    "url": ""
  },
  {
    "lat": 43.58184,
    "lon": 3.92041,
    "name": "Magasin Swissflex Montpellier",
    "url": ""
  },
  {
    "lat": 43.581047,
    "lon": 3.920283,
    "name": "L\u0027After Beauté",
    "url": ""
  },
  {
    "lat": 43.584633,
    "lon": 3.91984,
    "name": "First Stop Pneus \u0026 Co Lattes",
    "url": ""
  },
  {
    "lat": 43.58311,
    "lon": 3.92041,
    "name": "Comptoir International du Cuir",
    "url": ""
  },
  {
    "lat": 43.582054,
    "lon": 3.921051,
    "name": "Himolla Crozatier Franchisé indépendant",
    "url": ""
  },
  {
    "lat": 43.58383,
    "lon": 3.920812,
    "name": "Effet Jardin Restaurant grill",
    "url": ""
  },
  {
    "lat": 43.58445,
    "lon": 3.924305,
    "name": "marcel \u0026 fils BIO",
    "url": ""
  },
  {
    "lat": 43.5825,
    "lon": 3.921669,
    "name": "Les Comptoirs de la Bio Lattes",
    "url": ""
  },
  {
    "lat": 43.581264,
    "lon": 3.9256,
    "name": "Castorama Montpellier Lattes",
    "url": ""
  },
  {
    "lat": 43.58099,
    "lon": 3.923322,
    "name": "But Montpellier Lattes",
    "url": ""
  },
  {
    "lat": 43.58453,
    "lon": 3.923325,
    "name": "Hôtel le Mejean",
    "url": ""
  },
  {
    "lat": 43.581707,
    "lon": 3.923681,
    "name": "Lidl",
    "url": ""
  },
  {
    "lat": 43.582638,
    "lon": 3.923031,
    "name": "Cash Express",
    "url": ""
  },
  {
    "lat": 43.583694,
    "lon": 3.922547,
    "name": "Irrijardin",
    "url": ""
  },
  {
    "lat": 43.58019,
    "lon": 3.923899,
    "name": "Crozatier Languedocienne du Meuble",
    "url": ""
  },
  {
    "lat": 43.581017,
    "lon": 3.922637,
    "name": "Monsieur Meuble",
    "url": ""
  },
  {
    "lat": 43.58316,
    "lon": 3.923694,
    "name": "LDLC",
    "url": ""
  },
  {
    "lat": 43.584118,
    "lon": 3.925064,
    "name": "Aux Pêches Gourmands",
    "url": ""
  },
  {
    "lat": 43.576366,
    "lon": 3.925393,
    "name": "Camping le Parc",
    "url": ""
  },
  {
    "lat": 43.579735,
    "lon": 3.921914,
    "name": "C2M",
    "url": ""
  },
  {
    "lat": 43.579407,
    "lon": 3.921576,
    "name": "Lidl",
    "url": ""
  },
  {
    "lat": 43.57592,
    "lon": 3.924987,
    "name": "France Matériaux",
    "url": ""
  },
  {
    "lat": 43.579075,
    "lon": 3.922335,
    "name": "Espace Cheval",
    "url": ""
  },
  {
    "lat": 43.5736,
    "lon": 3.921963,
    "name": "Logis le Mas de Couran",
    "url": ""
  },
  {
    "lat": 43.575172,
    "lon": 3.921341,
    "name": "Le Mas de couran",
    "url": ""
  },
  {
    "lat": 43.57329,
    "lon": 3.918624,
    "name": "City Stade De La Cougourlude",
    "url": "https://lh3.googleusercontent.com/9ortnCVuPBUvXcKVpXrNsLv7wPpPZKLMNHPOczok-VYpLXbxoHD0dFJ6ePsG0JbyXVEWohKaqW3d2OpNQX6hmdpXlQ"
  },
  {
    "lat": 43.576794,
    "lon": 3.912903,
    "name": "Piscines Desjoyaux",
    "url": ""
  },
  {
    "lat": 43.57703,
    "lon": 3.911671,
    "name": "Sabine Rivière",
    "url": ""
  },
  {
    "lat": 43.57264,
    "lon": 3.914186,
    "name": "Esthetic 2000",
    "url": ""
  },
  {
    "lat": 43.571087,
    "lon": 3.912903,
    "name": "2A Promotion",
    "url": ""
  },
  {
    "lat": 43.57433,
    "lon": 3.915518,
    "name": "Beenome",
    "url": ""
  },
  {
    "lat": 43.573666,
    "lon": 3.914589,
    "name": "La Piazza",
    "url": ""
  },
  {
    "lat": 43.57183,
    "lon": 3.906338,
    "name": "Jean Vallon",
    "url": ""
  },
  {
    "lat": 43.571728,
    "lon": 3.907146,
    "name": "GUERINEL Julien",
    "url": ""
  },
  {
    "lat": 43.57252,
    "lon": 3.907272,
    "name": "Bichreiki Maître Reiki Enseignante",
    "url": ""
  },
  {
    "lat": 43.57177,
    "lon": 3.908192,
    "name": "Ajia Sushi \u0026 Burger Lattes",
    "url": ""
  },
  {
    "lat": 43.576477,
    "lon": 3.911284,
    "name": "Yoyodyne",
    "url": ""
  },
  {
    "lat": 43.576286,
    "lon": 3.910159,
    "name": "Le Braséro",
    "url": ""
  },
  {
    "lat": 43.5803,
    "lon": 3.91058,
    "name": "Mas du Cheval",
    "url": ""
  },
  {
    "lat": 43.575954,
    "lon": 3.91076,
    "name": "Ms-Driver",
    "url": ""
  },
  {
    "lat": 43.58055,
    "lon": 3.909807,
    "name": "Le Mas du Cheval",
    "url": ""
  },
  {
    "lat": 43.582584,
    "lon": 3.915628,
    "name": "L.B Auto Import",
    "url": ""
  },
  {
    "lat": 43.588512,
    "lon": 3.914208,
    "name": "NAF NAF Lattes",
    "url": ""
  },
  {
    "lat": 43.589,
    "lon": 3.91404,
    "name": "New Squash and Badminton, Jorkyball, Foot 2",
    "url": ""
  },
  {
    "lat": 43.58865,
    "lon": 3.91515,
    "name": "L\u0027Imprimerie",
    "url": ""
  },
  {
    "lat": 43.58808,
    "lon": 3.915776,
    "name": "Espace Escape",
    "url": ""
  },
  {
    "lat": 43.588223,
    "lon": 3.908042,
    "name": "Crâne d\u0027oeuf",
    "url": "https://lh3.googleusercontent.com/lMd3Kanmmaov9jpYv7J7IuRpQKKcSZ6VRebYzJUgrnvTUupmd4LZkOHA3lc4K43n9-SYDogJ2wSxOrZnjLTOdyFItkzBSVIYPR7HEeu6"
  },
  {
    "lat": 43.592342,
    "lon": 3.906608,
    "name": "Scandal by Pourcel",
    "url": ""
  },
  {
    "lat": 43.592472,
    "lon": 3.907203,
    "name": "Zebre bleu",
    "url": ""
  },
  {
    "lat": 43.59941,
    "lon": 3.906711,
    "name": "Arthurimmo.com Montpellier Est",
    "url": ""
  },
  {
    "lat": 43.592125,
    "lon": 3.918502,
    "name": "Ferri-boniol Michèle",
    "url": ""
  },
  {
    "lat": 43.59427,
    "lon": 3.924892,
    "name": "Thrifty Car Rental",
    "url": ""
  },
  {
    "lat": 43.590145,
    "lon": 3.925847,
    "name": "pumptrack de Boirargues",
    "url": "https://lh3.googleusercontent.com/KC5DFREGjCyx3K773AYxR-2AqFdDnVpfNabygaE14SL7RpqFoO6kijL90IAcnl66q29z3f-efjzScvSKkeK-ROiYPjxYkZUGUk5-TgcQ"
  },
  {
    "lat": 43.598175,
    "lon": 3.920221,
    "name": "Groupe Home Services",
    "url": ""
  },
  {
    "lat": 43.598618,
    "lon": 3.917711,
    "name": "Montpellier Wado Ryu Karaté Club",
    "url": ""
  },
  {
    "lat": 43.603886,
    "lon": 3.918735,
    "name": "Bâtiment en Mosaïque",
    "url": "https://lh3.googleusercontent.com/72-WKdzokSYKZ8ppeNpGZzUzZV_d_v2rnlCYF0EH1Sg45L_s82NWPDPheTQaX2QPU7WAvIwIjS8vhjbB7TzXxr02BsM"
  },
  {
    "lat": 43.603455,
    "lon": 3.919953,
    "name": "Accel\u0027air Centre de Parachutisme Montpellier",
    "url": ""
  },
  {
    "lat": 43.60296,
    "lon": 3.919211,
    "name": "Twistair",
    "url": "https://lh3.googleusercontent.com/wD3SYzUvUbtRaSVZAoHqstUy5BczKDqRNRW4y-LonzFOStMVHwjPYfuUB9eOKF4lcHLDlYWeMwZnHbhbBPeHNgL3pcc"
  },
  {
    "lat": 43.603436,
    "lon": 3.921025,
    "name": "Montpellier Odysseum",
    "url": ""
  },
  {
    "lat": 43.602978,
    "lon": 3.918622,
    "name": "Memoria Mundi",
    "url": "https://lh3.googleusercontent.com/S4ss8IugSLiP4-SEOlL08betX9OkUg0ZJ8Rl1r2o8rVK8AW5cJ6QnT4MSFe0Kmi9TuBUGnia60ILnskQwIL4-23Ktdo"
  },
  {
    "lat": 43.60361,
    "lon": 3.917777,
    "name": "Black Corner | Montpellier",
    "url": ""
  },
  {
    "lat": 43.60325,
    "lon": 3.917378,
    "name": "Fontaine Aquarium Mare Nostrum",
    "url": "https://lh3.googleusercontent.com/gmwY7Fsja1vAFQUUvKGAuapQOl5yQNoMQeuHesqO8i0Rxnw_vNTEsROVn1kh2s878qwAMJe8leaDlYQGc-cg7rRECg"
  },
  {
    "lat": 43.602486,
    "lon": 3.92018,
    "name": "TESLA Supercharger Montpellier",
    "url": ""
  },
  {
    "lat": 43.603817,
    "lon": 3.919583,
    "name": "Hylton",
    "url": ""
  },
  {
    "lat": 43.602863,
    "lon": 3.923934,
    "name": "Carré Voyages",
    "url": ""
  },
  {
    "lat": 43.600346,
    "lon": 3.925691,
    "name": "Belle demoiselle",
    "url": "https://lh3.googleusercontent.com/aAnBaJaubbmlhw3bd5hVeWltu3JReZiH1oA7gzShuz8SZm794utBrsfh_2CPGK3q4Mu1uz4XPRUBPnagBHcnfyUx9A"
  },
  {
    "lat": 43.605904,
    "lon": 3.924683,
    "name": "Columbus Café",
    "url": ""
  },
  {
    "lat": 43.604275,
    "lon": 3.924444,
    "name": "IKEA (Montpellier)",
    "url": ""
  },
  {
    "lat": 43.60448,
    "lon": 3.923655,
    "name": "Ikea",
    "url": ""
  },
  {
    "lat": 43.606873,
    "lon": 3.92412,
    "name": "Keep Cool Montpellier Odysseum",
    "url": ""
  },
  {
    "lat": 43.605476,
    "lon": 3.923492,
    "name": "Les Halles Solanid",
    "url": ""
  },
  {
    "lat": 43.607227,
    "lon": 3.923532,
    "name": "Comité Régional Handisport Languedoc Roussillon Association loi 1901",
    "url": ""
  },
  {
    "lat": 43.60444,
    "lon": 3.922497,
    "name": "Brioche Dorée",
    "url": ""
  },
  {
    "lat": 43.60556,
    "lon": 3.925752,
    "name": "Sauramps Odysseum",
    "url": ""
  },
  {
    "lat": 43.605156,
    "lon": 3.922999,
    "name": "Boulodrome Odysseum",
    "url": "https://lh3.googleusercontent.com/2FI7h2jhqGm0krIjR0OESFXmEb0ENLsy090na3-o2tL-WulHmky560u2NeSXPq-bAilWegi99Jx42j9ZGyILBgt3cO8"
  },
  {
    "lat": 43.605003,
    "lon": 3.922291,
    "name": "KIKO Store",
    "url": ""
  },
  {
    "lat": 43.60459,
    "lon": 3.921831,
    "name": "Pandora",
    "url": ""
  },
  {
    "lat": 43.60669,
    "lon": 3.921728,
    "name": "ICADE",
    "url": ""
  },
  {
    "lat": 43.60496,
    "lon": 3.921245,
    "name": "Casino Drive Montpellier Odysseum",
    "url": ""
  },
  {
    "lat": 43.60856,
    "lon": 3.916715,
    "name": "Obug Montpellier",
    "url": ""
  },
  {
    "lat": 43.60418,
    "lon": 3.920809,
    "name": "Café Bibal",
    "url": ""
  },
  {
    "lat": 43.60464,
    "lon": 3.921301,
    "name": "Jean Vallon Advanced",
    "url": ""
  },
  {
    "lat": 43.607834,
    "lon": 3.918561,
    "name": "Arche du Parc Club",
    "url": "https://lh3.googleusercontent.com/5FkK2gaRPC40FAlf7gf0CpjrqOGjhEVqZvl7ryTZGn0hXtXzAH8rF5QBC5ryc7VpbAcvRPEla5hBIwTd9jDyxtS_mXI"
  },
  {
    "lat": 43.6045,
    "lon": 3.920358,
    "name": "Michel Dervyn",
    "url": ""
  },
  {
    "lat": 43.608734,
    "lon": 3.917914,
    "name": "R2C",
    "url": ""
  },
  {
    "lat": 43.608387,
    "lon": 3.917799,
    "name": "Ardence",
    "url": ""
  },
  {
    "lat": 43.605457,
    "lon": 3.91971,
    "name": "Botty",
    "url": ""
  },
  {
    "lat": 43.605927,
    "lon": 3.920287,
    "name": "Ing Mediterranee",
    "url": ""
  },
  {
    "lat": 43.60591,
    "lon": 3.917523,
    "name": "Bausch \u0026 Lomb",
    "url": ""
  },
  {
    "lat": 43.607353,
    "lon": 3.912972,
    "name": "Kaliop Interactive Media",
    "url": ""
  },
  {
    "lat": 43.606213,
    "lon": 3.91273,
    "name": "Intrasense",
    "url": ""
  },
  {
    "lat": 43.607456,
    "lon": 3.911768,
    "name": "DP News Communication",
    "url": ""
  },
  {
    "lat": 43.60899,
    "lon": 3.915456,
    "name": "Qualiconsult Sécurité",
    "url": ""
  },
  {
    "lat": 43.608135,
    "lon": 3.913012,
    "name": "TotalEnergies",
    "url": ""
  },
  {
    "lat": 43.60703,
    "lon": 3.915483,
    "name": "Michel Simond",
    "url": ""
  },
  {
    "lat": 43.607105,
    "lon": 3.91602,
    "name": "Axiome Associés",
    "url": ""
  },
  {
    "lat": 43.60836,
    "lon": 3.915757,
    "name": "Lynx RH Montpellier",
    "url": ""
  },
  {
    "lat": 43.60639,
    "lon": 3.912041,
    "name": "Agence de l\u0027Eau Rhône Méditerranée Corse",
    "url": ""
  },
  {
    "lat": 43.607506,
    "lon": 3.914394,
    "name": "GGL Groupe",
    "url": ""
  },
  {
    "lat": 43.604477,
    "lon": 3.91552,
    "name": "Gaumont Montpellier Multiplexe",
    "url": ""
  },
  {
    "lat": 43.60724,
    "lon": 3.914089,
    "name": "Awox",
    "url": ""
  },
  {
    "lat": 43.603462,
    "lon": 3.916211,
    "name": "IL RISTORANTE - Le restaurant Italien de Montpellier",
    "url": ""
  },
  {
    "lat": 43.603226,
    "lon": 3.915725,
    "name": "Casa Inesa",
    "url": ""
  },
  {
    "lat": 43.60099,
    "lon": 3.914072,
    "name": "Scintidoc",
    "url": ""
  },
  {
    "lat": 43.601273,
    "lon": 3.914857,
    "name": "Blanquet Dran Nogues SCP",
    "url": ""
  },
  {
    "lat": 43.603695,
    "lon": 3.910618,
    "name": "Pôle Emploi",
    "url": ""
  },
  {
    "lat": 43.60308,
    "lon": 3.910198,
    "name": "Résidence Étudiante",
    "url": ""
  },
  {
    "lat": 43.60836,
    "lon": 3.908041,
    "name": "Graffiti De La Jungle Urbaine",
    "url": "https://lh3.googleusercontent.com/6q9WLgT95jLHtH8ekpirnywNWuX-Z5EFgW6gsGHbT1Grwox7smRldK02-ScD9EZqQ31bNhjx11J2qYQlgZsmwAvNAzQ"
  },
  {
    "lat": 43.607822,
    "lon": 3.909059,
    "name": "Altea-Consultant",
    "url": ""
  },
  {
    "lat": 43.608986,
    "lon": 3.907816,
    "name": "L`Orée de la Lironde",
    "url": ""
  },
  {
    "lat": 43.607147,
    "lon": 3.908133,
    "name": "Parc de la Lironde",
    "url": ""
  },
  {
    "lat": 43.604816,
    "lon": 3.908301,
    "name": "The Beauty Suite - Nail Expert",
    "url": ""
  },
  {
    "lat": 43.605545,
    "lon": 3.910782,
    "name": "Tvsat-Pro",
    "url": ""
  },
  {
    "lat": 43.60824,
    "lon": 3.908592,
    "name": "Grotte Artificielle",
    "url": "https://lh3.googleusercontent.com/jIJot0lTECIErSNmvn7W_Wx0AmrRmFYS5_6wM5DdxbaRzEppt3Lg2RZAMWWsj6llJ1Kq4WB6rMU--XWCJ4yfrC3dFdo"
  },
  {
    "lat": 43.60984,
    "lon": 3.911049,
    "name": "Institut Salvador",
    "url": ""
  },
  {
    "lat": 43.612732,
    "lon": 3.909275,
    "name": "Instanproduction",
    "url": ""
  },
  {
    "lat": 43.61355,
    "lon": 3.906895,
    "name": "Metge Automobiles",
    "url": ""
  },
  {
    "lat": 43.60968,
    "lon": 3.91033,
    "name": "Benque Muriel",
    "url": ""
  },
  {
    "lat": 43.61082,
    "lon": 3.908058,
    "name": "Jeff latex company",
    "url": ""
  },
  {
    "lat": 43.61151,
    "lon": 3.907571,
    "name": "Secret Love",
    "url": "https://lh3.googleusercontent.com/4ihX8KewAI1CJhVs8IEVJZCfXLvrpQWjFDHgnadNTpKg4b7yFSkSblf1nbUwEOlMbdWxSnJlrcGa7p9fwuHLN8aRiuKDSmWKD4oyJd2fqw"
  },
  {
    "lat": 43.61004,
    "lon": 3.908248,
    "name": "Vast Rh",
    "url": ""
  },
  {
    "lat": 43.614044,
    "lon": 3.908614,
    "name": "Jeux Enfants Gabriel",
    "url": "https://lh3.googleusercontent.com/khq2yPqb-LEV8R62WBuwTahm8khU1rPnvm_y2giKC3RgROeHT5FfZwEc4AzXIUMm3Qo0F63-WW2jlr6UZ_fcl-6Ofbow"
  },
  {
    "lat": 43.61044,
    "lon": 3.908706,
    "name": "Actiglass",
    "url": ""
  },
  {
    "lat": 43.612904,
    "lon": 3.91008,
    "name": "Stop Guêpes and Frelons",
    "url": ""
  },
  {
    "lat": 43.610294,
    "lon": 3.907032,
    "name": "Akerys Promotion",
    "url": ""
  },
  {
    "lat": 43.610943,
    "lon": 3.906862,
    "name": "Vitale Coiff",
    "url": ""
  },
  {
    "lat": 43.61014,
    "lon": 3.9135,
    "name": "VTR Voyages",
    "url": ""
  },
  {
    "lat": 43.609432,
    "lon": 3.913632,
    "name": "Me Bénédicte LEVY Avocat",
    "url": ""
  },
  {
    "lat": 43.611053,
    "lon": 3.913693,
    "name": "Urbasolar",
    "url": ""
  },
  {
    "lat": 43.612305,
    "lon": 3.914311,
    "name": "Fiducial Conseil en Abrege Financial",
    "url": ""
  },
  {
    "lat": 43.61072,
    "lon": 3.912022,
    "name": "Caves Languedoc Roussillon",
    "url": ""
  },
  {
    "lat": 43.609447,
    "lon": 3.911775,
    "name": "Virgin Radio",
    "url": ""
  },
  {
    "lat": 43.609898,
    "lon": 3.912971,
    "name": "Dyneff Agence",
    "url": ""
  },
  {
    "lat": 43.61061,
    "lon": 3.914472,
    "name": "Corim",
    "url": ""
  },
  {
    "lat": 43.61048,
    "lon": 3.913632,
    "name": "La Pratique",
    "url": ""
  },
  {
    "lat": 43.610497,
    "lon": 3.912911,
    "name": "RENT a CAR",
    "url": ""
  },
  {
    "lat": 43.61004,
    "lon": 3.914216,
    "name": "Dynabuy Languedoc Roussillon Vaucluse Pays D\u0027Aix",
    "url": ""
  },
  {
    "lat": 43.613144,
    "lon": 3.912497,
    "name": "Adomvet Montpellier",
    "url": ""
  },
  {
    "lat": 43.611217,
    "lon": 3.912919,
    "name": "L\u0027Instant Lunch",
    "url": ""
  },
  {
    "lat": 43.616776,
    "lon": 3.915781,
    "name": "Adsearch Montpellier - Cabinet de Recrutement",
    "url": ""
  },
  {
    "lat": 43.61396,
    "lon": 3.912005,
    "name": "Ordre des Géomètres Experts",
    "url": ""
  },
  {
    "lat": 43.616383,
    "lon": 3.912727,
    "name": "Rubini Gabriel",
    "url": ""
  },
  {
    "lat": 43.61753,
    "lon": 3.914154,
    "name": "SPA à Montpellier les Jardins du Millénaire",
    "url": ""
  },
  {
    "lat": 43.61797,
    "lon": 3.91298,
    "name": "E-Prospects",
    "url": ""
  },
  {
    "lat": 43.61571,
    "lon": 3.912273,
    "name": "Yespark",
    "url": ""
  },
  {
    "lat": 43.614113,
    "lon": 3.912583,
    "name": "Ordre Geometres Experts Region LR",
    "url": ""
  },
  {
    "lat": 43.614693,
    "lon": 3.914382,
    "name": "Oneo",
    "url": ""
  },
  {
    "lat": 43.616985,
    "lon": 3.914332,
    "name": "Expert-comptable SUDEC Montpellier",
    "url": ""
  },
  {
    "lat": 43.61789,
    "lon": 3.915454,
    "name": "Compass Group France",
    "url": ""
  },
  {
    "lat": 43.61718,
    "lon": 3.915532,
    "name": "2s 2i Solutions et Services",
    "url": ""
  },
  {
    "lat": 43.61432,
    "lon": 3.913639,
    "name": "Formega",
    "url": ""
  },
  {
    "lat": 43.61543,
    "lon": 3.910328,
    "name": "IP Connect",
    "url": ""
  },
  {
    "lat": 43.61704,
    "lon": 3.910924,
    "name": "B\u0026B HOTEL Montpellier Centre Le Millénaire",
    "url": ""
  },
  {
    "lat": 43.61629,
    "lon": 3.910943,
    "name": "Voyance Luminance",
    "url": ""
  },
  {
    "lat": 43.615074,
    "lon": 3.907904,
    "name": "B\u0026B Hôtel Montpellier Centre le Millénaire",
    "url": ""
  },
  {
    "lat": 43.614975,
    "lon": 3.909502,
    "name": "Apex Energies",
    "url": ""
  },
  {
    "lat": 43.614235,
    "lon": 3.907201,
    "name": "Restaurant Le Passeo Millénaire",
    "url": ""
  },
  {
    "lat": 43.614426,
    "lon": 3.909115,
    "name": "France 3 Languedoc Roussillon",
    "url": ""
  },
  {
    "lat": 43.61502,
    "lon": 3.90866,
    "name": "France3 SUD",
    "url": ""
  },
  {
    "lat": 43.62279,
    "lon": 3.908896,
    "name": "Générale de Protection",
    "url": ""
  },
  {
    "lat": 43.619286,
    "lon": 3.908184,
    "name": "Orange Le Patio Montpellier",
    "url": ""
  },
  {
    "lat": 43.622738,
    "lon": 3.911146,
    "name": "Sous mon Toit",
    "url": ""
  },
  {
    "lat": 43.620693,
    "lon": 3.910797,
    "name": "Buro+ Buro City",
    "url": ""
  },
  {
    "lat": 43.62305,
    "lon": 3.909906,
    "name": "GlobalPOS",
    "url": ""
  },
  {
    "lat": 43.624043,
    "lon": 3.907813,
    "name": "Mini dentelle",
    "url": "https://lh3.googleusercontent.com/CcW2UIASPoEdXBXlpc3YZzAQHhmrPgTUGdgifAIITOY4XS9NvKpzaYiPUrvdQo_6vcN2u0XSe5JbDNVEi4kKHqkQ5gjWkfMHSnW7jOw"
  },
  {
    "lat": 43.625237,
    "lon": 3.908739,
    "name": "Micocouler",
    "url": "https://lh3.googleusercontent.com/8sJWlS2YFC1kS8Aie3Gk1aghpjtmsPYUJzC9FmzCOJODFHoOsH0mcHysgNBP0Or2q5Wv35Lkynt-DgDeCleyfAOdwRlc-Nczpj7ZSCyP"
  },
  {
    "lat": 43.62532,
    "lon": 3.907902,
    "name": "Chateau fort mas rochet",
    "url": "https://lh3.googleusercontent.com/QCHHyS-RoG95TH_Gh6h2dmVJkg2Guvd9VQlAi-VO0hWfcdik6yR2wbVSwOpTslLTUmJfGjaZ1fqv1s2XWBohsMnzW1z-Xj__FZlu4KbF"
  },
  {
    "lat": 43.627785,
    "lon": 3.909394,
    "name": "Pays d\u0027Oc Mobilités",
    "url": ""
  },
  {
    "lat": 43.62673,
    "lon": 3.910395,
    "name": "CrossFit Castelnau-le-Lez",
    "url": ""
  },
  {
    "lat": 43.6262,
    "lon": 3.91103,
    "name": "Teambox",
    "url": ""
  },
  {
    "lat": 43.62671,
    "lon": 3.911864,
    "name": "G And A Construction",
    "url": ""
  },
  {
    "lat": 43.62621,
    "lon": 3.913005,
    "name": "Atout-Box",
    "url": ""
  },
  {
    "lat": 43.627094,
    "lon": 3.912237,
    "name": "Chambre Régionale de Métiers et de l\u0027Artisanat",
    "url": ""
  },
  {
    "lat": 43.62354,
    "lon": 3.91308,
    "name": "Ligue Régionale Occitanie de Karaté et DA",
    "url": ""
  },
  {
    "lat": 43.62813,
    "lon": 3.911398,
    "name": "CGI France",
    "url": ""
  },
  {
    "lat": 43.625816,
    "lon": 3.911447,
    "name": "Dextran Métrologie",
    "url": ""
  },
  {
    "lat": 43.62425,
    "lon": 3.913564,
    "name": "Bari Trattoria",
    "url": ""
  },
  {
    "lat": 43.619377,
    "lon": 3.915395,
    "name": "La Churrasqueira",
    "url": ""
  },
  {
    "lat": 43.619366,
    "lon": 3.913442,
    "name": "O2 Montpellier Establissements",
    "url": ""
  },
  {
    "lat": 43.62021,
    "lon": 3.912022,
    "name": "CodinGame",
    "url": ""
  },
  {
    "lat": 43.619133,
    "lon": 3.914887,
    "name": "Avinéon",
    "url": ""
  },
  {
    "lat": 43.62158,
    "lon": 3.9126,
    "name": "NOVEYS PATRIMOINE - Gestion de Patrimoine \u0026 immobilier à Montpellier",
    "url": ""
  },
  {
    "lat": 43.618774,
    "lon": 3.918155,
    "name": "Medtech",
    "url": ""
  },
  {
    "lat": 43.61892,
    "lon": 3.917603,
    "name": "Servitel",
    "url": ""
  },
  {
    "lat": 43.618855,
    "lon": 3.91678,
    "name": "Homecoffee Millenaire",
    "url": ""
  },
  {
    "lat": 43.623817,
    "lon": 3.918601,
    "name": "Golf de Castelnau-le-Lez",
    "url": ""
  },
  {
    "lat": 43.624428,
    "lon": 3.918627,
    "name": "Gîte Les Coquilloux",
    "url": ""
  },
  {
    "lat": 43.624535,
    "lon": 3.920497,
    "name": "La Plage by Verchant",
    "url": ""
  },
  {
    "lat": 43.621983,
    "lon": 3.923485,
    "name": "Restaurant Marcelle",
    "url": ""
  },
  {
    "lat": 43.618687,
    "lon": 3.92172,
    "name": "La Ferme Urbaine Collective de la Condamine",
    "url": ""
  },
  {
    "lat": 43.622833,
    "lon": 3.922856,
    "name": "M. Damien Cousseau",
    "url": ""
  },
  {
    "lat": 43.618347,
    "lon": 3.919847,
    "name": "DiaDom",
    "url": ""
  },
  {
    "lat": 43.61704,
    "lon": 3.918367,
    "name": "Annealsys",
    "url": ""
  },
  {
    "lat": 43.618324,
    "lon": 3.916564,
    "name": "Keller Williams Guylène Bergé",
    "url": ""
  },
  {
    "lat": 43.618023,
    "lon": 3.919075,
    "name": "I2A",
    "url": ""
  },
  {
    "lat": 43.617306,
    "lon": 3.919068,
    "name": "Capelec",
    "url": ""
  },
  {
    "lat": 43.611393,
    "lon": 3.918685,
    "name": "Zénith",
    "url": ""
  },
  {
    "lat": 43.610195,
    "lon": 3.91731,
    "name": "Les Ateliers du Social",
    "url": ""
  },
  {
    "lat": 43.609844,
    "lon": 3.9168,
    "name": "Price Observatory",
    "url": ""
  },
  {
    "lat": 43.610096,
    "lon": 3.918908,
    "name": "Folia, Restaurant de Flaugergues",
    "url": ""
  },
  {
    "lat": 43.609055,
    "lon": 3.917068,
    "name": "ALD Automotive",
    "url": ""
  },
  {
    "lat": 43.61067,
    "lon": 3.917639,
    "name": "Lagrange Appart Hotel",
    "url": ""
  },
  {
    "lat": 43.6104,
    "lon": 3.91651,
    "name": "PatrimHome",
    "url": ""
  },
  {
    "lat": 43.61008,
    "lon": 3.918033,
    "name": "Business Car Company",
    "url": ""
  },
  {
    "lat": 43.61221,
    "lon": 3.923945,
    "name": "Tennis Club de Grammont",
    "url": ""
  },
  {
    "lat": 43.612385,
    "lon": 3.929502,
    "name": "Information Partie Street",
    "url": "https://lh3.googleusercontent.com/kEfnCyWYYihDb84tuTFZA6-B9QilWL4BihanhSnrUIojeAVOkh0wmzd7mYpbOqA6nGUs-wgCiQZdGp52rcy7ErJIYCXVGoGP34MeKGVITg"
  },
  {
    "lat": 43.610092,
    "lon": 3.929931,
    "name": "Église Orthodoxe Ste Philothée",
    "url": ""
  },
  {
    "lat": 43.612976,
    "lon": 3.930751,
    "name": "Zénith Sud",
    "url": ""
  },
  {
    "lat": 43.61219,
    "lon": 3.930315,
    "name": "Centre Equestre",
    "url": ""
  },
  {
    "lat": 43.61554,
    "lon": 3.930132,
    "name": "Domaine de Grammont",
    "url": ""
  },
  {
    "lat": 43.616905,
    "lon": 3.930962,
    "name": "Théâtre des 13 vents",
    "url": ""
  },
  {
    "lat": 43.61719,
    "lon": 3.929347,
    "name": "Centre Equestre Montpellier Grammont",
    "url": ""
  },
  {
    "lat": 43.614704,
    "lon": 3.929934,
    "name": "Entrée Parc Grammont",
    "url": "https://lh3.googleusercontent.com/fvFOSBehMxE9XTJVmNqV0ggR0rq-ROd_3Ad7QQm7pouol4Af2zPlH7saCySs7Z0L8wc_L0fLX7wy7Cu6YcPpF1ZAe6A"
  },
  {
    "lat": 43.616817,
    "lon": 3.930288,
    "name": "Roseraie",
    "url": "https://lh3.googleusercontent.com/VeVfe1dj-FiNcgtTwsQKKaJUMWI4H5ad4BH_YGmwPHn570I37pci5PY2vIEZMJ88-BMcKbzp0_EcpkwRcPfNkAoPi08iZCSVQKR0T1Fs"
  },
  {
    "lat": 43.61618,
    "lon": 3.929661,
    "name": "Château de Grammont",
    "url": "https://lh3.googleusercontent.com/VmHSkiXmvG_wzwrts_at4qSSzlN2Ripjn_NWHDhv37SLSwcr8cuilo4RjkkasFK1BG6frrXsV2Shgja9-GsdXd-6Hcc"
  },
  {
    "lat": 43.61581,
    "lon": 3.930771,
    "name": "Tête De Cheval De Grammont",
    "url": "https://lh3.googleusercontent.com/H0y9furSxdEUrW717eHW30M-Bw0286aqCwSFqjrbfAn5WBFJdc7Zqyy6czyltgd1Q9mOPpTfMvvcXUSkL4-GtnUBLQA"
  },
  {
    "lat": 43.616272,
    "lon": 3.930475,
    "name": "Coffre De Grammont",
    "url": "https://lh3.googleusercontent.com/r9ueE1hTwu7WvVpPacpx0Hnrk6UITXgshDYI7rIqoRw8fGLzRrPya7tSf7lRWVRLUqjxg6R9x0gyNhofFr2yd39TdEj1"
  },
  {
    "lat": 43.61384,
    "lon": 3.935394,
    "name": "Complexe Sportif de Niggashu",
    "url": ""
  },
  {
    "lat": 43.613968,
    "lon": 3.946525,
    "name": "Mas du Ministre",
    "url": ""
  },
  {
    "lat": 43.622177,
    "lon": 3.938983,
    "name": "Domaine DeCalage",
    "url": ""
  },
  {
    "lat": 43.6372,
    "lon": 3.927795,
    "name": "Kia Motors Sodak",
    "url": ""
  },
  {
    "lat": 43.637375,
    "lon": 3.926925,
    "name": "Carte de l\u0027Aube Rouge",
    "url": "https://lh3.googleusercontent.com/0I6rIxZWXuO7ozE3XPP2MaXSbq6z6JdlOcqQ-TJYPPRFLMGlHLDyK-E0FiWdPTE6JArxnkz-7YrM44d_-BRyeCzW6NUGQ4lCyGouuOT0"
  },
  {
    "lat": 43.636185,
    "lon": 3.927494,
    "name": "La Boul\u0027ange de Castelnau",
    "url": ""
  },
  {
    "lat": 43.636955,
    "lon": 3.9285,
    "name": "Agence Nestenn Immobilier Castelnau le Lez",
    "url": ""
  },
  {
    "lat": 43.63725,
    "lon": 3.929238,
    "name": "Vtcity Montpellier",
    "url": ""
  },
  {
    "lat": 43.635998,
    "lon": 3.92673,
    "name": "E.P.I.C.O.M",
    "url": ""
  },
  {
    "lat": 43.639847,
    "lon": 3.938409,
    "name": "Pro Race Café",
    "url": ""
  },
  {
    "lat": 43.64084,
    "lon": 3.93869,
    "name": "Caves Cairel Le Crès",
    "url": ""
  },
  {
    "lat": 43.641624,
    "lon": 3.939467,
    "name": "VillaVerde Montpellier - Le Crès",
    "url": ""
  },
  {
    "lat": 43.640083,
    "lon": 3.937753,
    "name": "Aux Filles du Sud",
    "url": ""
  },
  {
    "lat": 43.64053,
    "lon": 3.939948,
    "name": "Les 5 Continents",
    "url": ""
  },
  {
    "lat": 43.640343,
    "lon": 3.941443,
    "name": "FMB Solutions Documentaires",
    "url": ""
  },
  {
    "lat": 43.640152,
    "lon": 3.939367,
    "name": "Citroën et Peugeot le Cres TRESSOL CHABRIER",
    "url": ""
  },
  {
    "lat": 43.641273,
    "lon": 3.942208,
    "name": "Boulangerie Ange",
    "url": ""
  },
  {
    "lat": 43.640392,
    "lon": 3.943676,
    "name": "Lidl",
    "url": ""
  },
  {
    "lat": 43.64153,
    "lon": 3.944025,
    "name": "Gémo",
    "url": ""
  },
  {
    "lat": 43.642788,
    "lon": 3.945722,
    "name": "Sushi Daily",
    "url": ""
  },
  {
    "lat": 43.642395,
    "lon": 3.944423,
    "name": "MH cuisines",
    "url": ""
  },
  {
    "lat": 43.643433,
    "lon": 3.945215,
    "name": "Ricaud Rep\u0027Art",
    "url": ""
  },
  {
    "lat": 43.64308,
    "lon": 3.943423,
    "name": "Norauto Le Cres",
    "url": ""
  },
  {
    "lat": 43.642677,
    "lon": 3.942666,
    "name": "Carrefour Traiteur",
    "url": ""
  },
  {
    "lat": 43.64214,
    "lon": 3.945834,
    "name": "My Clim Energy",
    "url": ""
  },
  {
    "lat": 43.642544,
    "lon": 3.940623,
    "name": "Grain de Malice",
    "url": ""
  },
  {
    "lat": 43.6426,
    "lon": 3.941756,
    "name": "Brasserie B",
    "url": ""
  },
  {
    "lat": 43.642776,
    "lon": 3.941067,
    "name": "Aqua Flora",
    "url": ""
  },
  {
    "lat": 43.64271,
    "lon": 3.940243,
    "name": "L\u0027Atelier Photo STUDAPHOT",
    "url": ""
  },
  {
    "lat": 43.64227,
    "lon": 3.938829,
    "name": "La Foir\u0027Fouille",
    "url": ""
  },
  {
    "lat": 43.64317,
    "lon": 3.936308,
    "name": "Boulangerie Aux Delices",
    "url": ""
  },
  {
    "lat": 43.642067,
    "lon": 3.935424,
    "name": "Parc Municipal Jacques Robert",
    "url": "https://lh3.googleusercontent.com/VM6Mm9dmDETpLpVTmJrvsjU77hf4SFEhaahd2gryTwnjhU45TrsPFDU2MYX0Co85vsFY5CwODqbAFGOQnj4QFqu8sTg"
  },
  {
    "lat": 43.643833,
    "lon": 3.936535,
    "name": "So.Hair Studio",
    "url": ""
  },
  {
    "lat": 43.644695,
    "lon": 3.936781,
    "name": "Inchcape Montpellier",
    "url": ""
  },
  {
    "lat": 43.639553,
    "lon": 3.934462,
    "name": "Sous le Murier",
    "url": ""
  },
  {
    "lat": 43.640625,
    "lon": 3.933091,
    "name": "Musée SAHARIEN",
    "url": ""
  },
  {
    "lat": 43.63992,
    "lon": 3.933879,
    "name": "Kjbi",
    "url": ""
  },
  {
    "lat": 43.63807,
    "lon": 3.93243,
    "name": "MDA Discount Appliances",
    "url": ""
  },
  {
    "lat": 43.640297,
    "lon": 3.934246,
    "name": "Restaurant le Forest",
    "url": ""
  },
  {
    "lat": 43.639248,
    "lon": 3.935789,
    "name": "Espace Automobile Gardois Groupe Capel",
    "url": ""
  },
  {
    "lat": 43.639244,
    "lon": 3.93311,
    "name": "VOLKSWAGEN",
    "url": ""
  },
  {
    "lat": 43.63944,
    "lon": 3.936371,
    "name": "Honda EAG Groupe Capel",
    "url": ""
  },
  {
    "lat": 43.640797,
    "lon": 3.933896,
    "name": "Smaniotto Stéphanie",
    "url": ""
  },
  {
    "lat": 43.64121,
    "lon": 3.93444,
    "name": "Contrôle Technique",
    "url": ""
  },
  {
    "lat": 43.6387,
    "lon": 3.93281,
    "name": "Panofrance Montpellier",
    "url": ""
  },
  {
    "lat": 43.63997,
    "lon": 3.936587,
    "name": "Mazda Rubis Automobiles",
    "url": ""
  },
  {
    "lat": 43.63997,
    "lon": 3.935456,
    "name": "Union-materiaux Le Cres",
    "url": ""
  },
  {
    "lat": 43.639736,
    "lon": 3.933069,
    "name": "Temps-Danse-Création",
    "url": ""
  },
  {
    "lat": 43.637405,
    "lon": 3.929957,
    "name": "Sud Vo",
    "url": ""
  },
  {
    "lat": 43.638626,
    "lon": 3.927725,
    "name": "Jean-Louis David",
    "url": ""
  },
  {
    "lat": 43.639164,
    "lon": 3.929126,
    "name": "Zepetra",
    "url": ""
  },
  {
    "lat": 43.638256,
    "lon": 3.927043,
    "name": "O Saveurs de l\u0027Aube Rouge",
    "url": ""
  },
  {
    "lat": 43.6382,
    "lon": 3.929857,
    "name": "Burger King France",
    "url": ""
  },
  {
    "lat": 43.63842,
    "lon": 3.928947,
    "name": "Cerdan Occasion",
    "url": ""
  },
  {
    "lat": 43.640343,
    "lon": 3.929625,
    "name": "Conciergerie Groomi",
    "url": ""
  },
  {
    "lat": 43.63794,
    "lon": 3.927787,
    "name": "Le 18 Déstockage de luxe - Montpellier Castelnau",
    "url": ""
  },
  {
    "lat": 43.63909,
    "lon": 3.927572,
    "name": "Magasin de musique La Boite Aux Rythmes Montpellier",
    "url": ""
  },
  {
    "lat": 43.638905,
    "lon": 3.92961,
    "name": "Quiz Room Montpellier",
    "url": ""
  },
  {
    "lat": 43.643635,
    "lon": 3.928705,
    "name": "Ap Media",
    "url": ""
  },
  {
    "lat": 43.644478,
    "lon": 3.924605,
    "name": "AUTO-ECOLE Acropole",
    "url": ""
  },
  {
    "lat": 43.64414,
    "lon": 3.919611,
    "name": "Sarl J C Facades",
    "url": ""
  },
  {
    "lat": 43.64483,
    "lon": 3.918219,
    "name": "Portales jardins",
    "url": ""
  },
  {
    "lat": 43.64332,
    "lon": 3.919313,
    "name": "Sedi",
    "url": ""
  },
  {
    "lat": 43.643917,
    "lon": 3.920748,
    "name": "Attard Automobiles",
    "url": ""
  },
  {
    "lat": 43.645157,
    "lon": 3.918996,
    "name": "SLMTP",
    "url": ""
  },
  {
    "lat": 43.645237,
    "lon": 3.918411,
    "name": "Auto Ecole des Garrigues",
    "url": ""
  },
  {
    "lat": 43.64367,
    "lon": 3.921318,
    "name": "Clim+",
    "url": ""
  },
  {
    "lat": 43.64297,
    "lon": 3.916914,
    "name": "Securitest Carenz",
    "url": ""
  },
  {
    "lat": 43.64251,
    "lon": 3.917732,
    "name": "Zoobrew",
    "url": ""
  },
  {
    "lat": 43.64422,
    "lon": 3.921311,
    "name": "Attard Dépannage",
    "url": ""
  },
  {
    "lat": 43.641285,
    "lon": 3.917469,
    "name": "Carrosserie Lamare",
    "url": ""
  },
  {
    "lat": 43.63778,
    "lon": 3.916538,
    "name": "Mercedes-Benz Sodira Distributeur et Réparateur agréé",
    "url": ""
  },
  {
    "lat": 43.642445,
    "lon": 3.918587,
    "name": "Carrosserie Mercier",
    "url": ""
  },
  {
    "lat": 43.64195,
    "lon": 3.920122,
    "name": "Palais Azzahra",
    "url": ""
  },
  {
    "lat": 43.64233,
    "lon": 3.921324,
    "name": "Terrain multisport du Devois",
    "url": "https://lh3.googleusercontent.com/cD1aSZ70DwfWu28cPROgxIX92BXYEbWa1LD_pR9Fr7H1Dbf-pR_gDmEWGLR8-udleosqiIIj3eAjv_hpTklEBUmbwoRcXTGmJE3Poewg"
  },
  {
    "lat": 43.64111,
    "lon": 3.918158,
    "name": "Garage des Romarins",
    "url": ""
  },
  {
    "lat": 43.639584,
    "lon": 3.922191,
    "name": "Lorenzo Pizza Castelnau le Lez",
    "url": ""
  },
  {
    "lat": 43.63812,
    "lon": 3.926495,
    "name": "Coiff\u0026Co",
    "url": ""
  },
  {
    "lat": 43.638977,
    "lon": 3.925161,
    "name": "Intermarché Aube Rouge",
    "url": ""
  },
  {
    "lat": 43.640102,
    "lon": 3.925712,
    "name": "UPS",
    "url": ""
  },
  {
    "lat": 43.640175,
    "lon": 3.922757,
    "name": "Bureau du Berger",
    "url": ""
  },
  {
    "lat": 43.638668,
    "lon": 3.923808,
    "name": "Allouch Jean-Philippe",
    "url": ""
  },
  {
    "lat": 43.642284,
    "lon": 3.922189,
    "name": "Arbre droit de la femme",
    "url": "https://lh3.googleusercontent.com/KMQgHHNlgE9pAFnvpcvpA1i16L0986XOnjxj2HE3bY_9o7wd1fBrcbAQ_OoHsOEr28BOTPDnXdrCNv86FeA-fnEeQBfs2okgePlJ84wd"
  },
  {
    "lat": 43.638348,
    "lon": 3.924654,
    "name": "Sablassou Pizzéria",
    "url": ""
  },
  {
    "lat": 43.6382,
    "lon": 3.925515,
    "name": "Mercedes Benz",
    "url": ""
  },
  {
    "lat": 43.639805,
    "lon": 3.92341,
    "name": "basket",
    "url": "https://lh3.googleusercontent.com/PYlPsYauyGBp0Q7R5uiMutzRezgW2308rKrgD5Iki-BCK2rRR7MN11zLzRgXmovmUUQBqFWBL0We6IoHZcsioTeUzQNxL8mgzX3VcJ7q"
  },
  {
    "lat": 43.637203,
    "lon": 3.925531,
    "name": "Nans Bakery",
    "url": ""
  },
  {
    "lat": 43.635487,
    "lon": 3.925329,
    "name": "Midas",
    "url": ""
  },
  {
    "lat": 43.635567,
    "lon": 3.924736,
    "name": "Immo.D.AL",
    "url": ""
  },
  {
    "lat": 43.636112,
    "lon": 3.925612,
    "name": "Kiko Sushi Castelnau",
    "url": ""
  },
  {
    "lat": 43.635742,
    "lon": 3.923831,
    "name": "Viandes d\u0027oc",
    "url": ""
  },
  {
    "lat": 43.635654,
    "lon": 3.92591,
    "name": "Dis Moi Oui",
    "url": ""
  },
  {
    "lat": 43.63676,
    "lon": 3.925895,
    "name": "Cinderella Célébration Mariage",
    "url": ""
  },
  {
    "lat": 43.637028,
    "lon": 3.926596,
    "name": "Stim Wave Castelnau",
    "url": ""
  },
  {
    "lat": 43.634975,
    "lon": 3.92427,
    "name": "France Pare Brise",
    "url": ""
  },
  {
    "lat": 43.631462,
    "lon": 3.924043,
    "name": "Triade Electronique",
    "url": ""
  },
  {
    "lat": 43.632736,
    "lon": 3.920265,
    "name": "Tennis Club Saint Georges",
    "url": ""
  },
  {
    "lat": 43.636433,
    "lon": 3.920592,
    "name": "Onorm Elec Rénovation",
    "url": ""
  },
  {
    "lat": 43.633457,
    "lon": 3.919877,
    "name": "Maisons BIC Montpellier",
    "url": ""
  },
  {
    "lat": 43.633465,
    "lon": 3.921457,
    "name": "Locmat",
    "url": ""
  },
  {
    "lat": 43.63492,
    "lon": 3.919633,
    "name": "Hera beaute, experte sourcils et beauté",
    "url": ""
  },
  {
    "lat": 43.63505,
    "lon": 3.915648,
    "name": "Glce Event",
    "url": ""
  },
  {
    "lat": 43.63508,
    "lon": 3.916214,
    "name": "Nout",
    "url": ""
  },
  {
    "lat": 43.63589,
    "lon": 3.916059,
    "name": "Au Mazet de Grand Mémé",
    "url": ""
  },
  {
    "lat": 43.63313,
    "lon": 3.912686,
    "name": "Tek Villa",
    "url": ""
  },
  {
    "lat": 43.63395,
    "lon": 3.913379,
    "name": "Luc Bedaghe",
    "url": ""
  },
  {
    "lat": 43.63339,
    "lon": 3.915725,
    "name": "By Coralie | Maquillage semi-permanent Montpellier / Castelnau-Le-Lez",
    "url": ""
  },
  {
    "lat": 43.63576,
    "lon": 3.914118,
    "name": "La Maison de La Gravure Mediterranée",
    "url": ""
  },
  {
    "lat": 43.635185,
    "lon": 3.913122,
    "name": "Castel\u0027Immo",
    "url": ""
  },
  {
    "lat": 43.632706,
    "lon": 3.916351,
    "name": "Otoro - Restaurant Japonais Montpellier",
    "url": ""
  },
  {
    "lat": 43.632275,
    "lon": 3.915861,
    "name": "Intens\u0027Events",
    "url": ""
  },
  {
    "lat": 43.631783,
    "lon": 3.912172,
    "name": "Picard Castelnau",
    "url": ""
  },
  {
    "lat": 43.632492,
    "lon": 3.913268,
    "name": "Agence immobilière Immo Conseil Finance Castelnau le Lez",
    "url": ""
  },
  {
    "lat": 43.6321,
    "lon": 3.913216,
    "name": "Missions Interim",
    "url": ""
  },
  {
    "lat": 43.631786,
    "lon": 3.91014,
    "name": "Dirty.",
    "url": ""
  },
  {
    "lat": 43.633057,
    "lon": 3.907999,
    "name": "G.ROC Sarl Groc Père et Fils",
    "url": ""
  },
  {
    "lat": 43.63065,
    "lon": 3.906659,
    "name": "Renault Agence Ortigosa Benjamin",
    "url": ""
  },
  {
    "lat": 43.63208,
    "lon": 3.909661,
    "name": "Abalone Agence d\u0027Emplois Montpellier",
    "url": ""
  },
  {
    "lat": 43.631603,
    "lon": 3.908312,
    "name": "Boucherie Occitane",
    "url": ""
  },
  {
    "lat": 43.629845,
    "lon": 3.910197,
    "name": "Boulder Line | Salle d\u0027escalade - Bar et Restaurant - Montpellier",
    "url": ""
  },
  {
    "lat": 43.6323,
    "lon": 3.910019,
    "name": "Pousse Organic Break",
    "url": ""
  },
  {
    "lat": 43.630856,
    "lon": 3.90882,
    "name": "Laverie WASH\u0027N DRY",
    "url": ""
  },
  {
    "lat": 43.6313,
    "lon": 3.909226,
    "name": "Fitness Boutique Nutrition",
    "url": ""
  },
  {
    "lat": 43.631706,
    "lon": 3.909374,
    "name": "Carrefour Drive",
    "url": ""
  },
  {
    "lat": 43.630436,
    "lon": 3.909463,
    "name": "Immoprêt Montpellier Est - courtier en prêt immobilier",
    "url": ""
  },
  {
    "lat": 43.63219,
    "lon": 3.908062,
    "name": "Petit train des enfants",
    "url": "https://lh3.googleusercontent.com/1948T_C36BNAX7k--bibnIWuPVxkiu1xu1QOcW56vqXncaGES1bsIo4p0zo3BndvbxNICw3ONFFJqG4RP80Sg5fzZtp5xgg0JuSEybB4"
  },
  {
    "lat": 43.63104,
    "lon": 3.908216,
    "name": "Hair Love Coiffure",
    "url": ""
  },
  {
    "lat": 43.63158,
    "lon": 3.907728,
    "name": "Photomaton",
    "url": ""
  },
  {
    "lat": 43.634094,
    "lon": 3.906838,
    "name": "Gymnase Halle des Perrières",
    "url": ""
  },
  {
    "lat": 43.635796,
    "lon": 3.908975,
    "name": "Répare Ta Bécane.com",
    "url": ""
  },
  {
    "lat": 43.637592,
    "lon": 3.911079,
    "name": "Fauris Mireille",
    "url": ""
  },
  {
    "lat": 43.637123,
    "lon": 3.910897,
    "name": "Piscine Christine Caron à Castelnau le lez",
    "url": ""
  },
  {
    "lat": 43.64271,
    "lon": 3.908656,
    "name": "Taxi du Romarin",
    "url": ""
  },
  {
    "lat": 43.642307,
    "lon": 3.909297,
    "name": "Patrick Leleu Humiditologue",
    "url": ""
  },
  {
    "lat": 43.642345,
    "lon": 3.916012,
    "name": "Sellier Impact",
    "url": ""
  },
  {
    "lat": 43.638542,
    "lon": 3.913814,
    "name": "Grand Parc Laporte",
    "url": ""
  },
  {
    "lat": 43.63884,
    "lon": 3.912889,
    "name": "Le labyrinthe- Table d\u0027orientation du Parc Laporte",
    "url": "https://lh3.googleusercontent.com/gTQEpkXajLF1PRv0wYtt5reXWFRHnAOuwWKnYNVjo5YjBEUhmxHrdsLQXx1JYTrm-4--KfA2kfE5brQv2F1kEfZSiDU"
  },
  {
    "lat": 43.638542,
    "lon": 3.914323,
    "name": "Barre parallèle",
    "url": "https://lh3.googleusercontent.com/yzMLqXAH30_S8jbncAvwIy41Qp9KUFAL4WAGX3kD7l5yRNAGNT3jtXLLdIJ3rcdECBuU0yV0JR2m5Ol-jwvjx_otJUIea-zUYoQdzaRm"
  },
  {
    "lat": 43.641792,
    "lon": 3.91625,
    "name": "Meredith BITON Notaire à Castelnau-le-lez",
    "url": ""
  },
  {
    "lat": 43.637905,
    "lon": 3.914201,
    "name": "Balançoire double",
    "url": "https://lh3.googleusercontent.com/WMe4BK2w5JIUh73gkzpCy_8eKxFChBwWOvtPJYwdao2xVlabTjLHw95Va-K5xQyQlKY_kOt4IKSRA6rbLCRs5YxALyga5zUSrz-0TEgL"
  },
  {
    "lat": 43.644787,
    "lon": 3.915083,
    "name": "Vestige De L Ancienne Route Romaine De Castelnau",
    "url": "https://lh3.googleusercontent.com/N_cKw9X5g7EBk2SffFBj2GjmINQNIOaE6K35bZfBJq1KUHCrX6jWUiTSISCG8hcHRC-StYR-l7K6xcAdoCpCezoQinA"
  },
  {
    "lat": 43.64301,
    "lon": 3.916381,
    "name": "Scutum",
    "url": ""
  },
  {
    "lat": 43.643288,
    "lon": 3.915702,
    "name": "Maui Jim Europe",
    "url": ""
  },
  {
    "lat": 43.645584,
    "lon": 3.915425,
    "name": "Palais des Sports Chaban Delmas",
    "url": ""
  },
  {
    "lat": 43.644985,
    "lon": 3.916302,
    "name": "Castelnau Basket",
    "url": ""
  },
  {
    "lat": 43.650867,
    "lon": 3.906524,
    "name": "Chez Marie",
    "url": ""
  },
  {
    "lat": 43.641434,
    "lon": 3.819864,
    "name": "Union Surveillance Protection Securite",
    "url": ""
  },
  {
    "lat": 43.64376,
    "lon": 3.8219,
    "name": "Auchan Supermarché Montpellier Malbosc",
    "url": ""
  },
  {
    "lat": 43.64161,
    "lon": 3.816243,
    "name": "Wombel Nettoyage",
    "url": ""
  },
  {
    "lat": 43.64172,
    "lon": 3.818909,
    "name": "La Maison de Paix",
    "url": ""
  },
  {
    "lat": 43.64168,
    "lon": 3.817011,
    "name": "Centre Communal d\u0027Action Sociale de Montpellier",
    "url": ""
  },
  {
    "lat": 43.64348,
    "lon": 3.817225,
    "name": "Les Danseuses du Sinai",
    "url": ""
  },
  {
    "lat": 43.649616,
    "lon": 3.81159,
    "name": "ART de BIEN CONSTRUIRE",
    "url": ""
  },
  {
    "lat": 43.64692,
    "lon": 3.811664,
    "name": "Human Data",
    "url": ""
  },
  {
    "lat": 43.6461,
    "lon": 3.812861,
    "name": "Jad\u0027Auto",
    "url": ""
  },
  {
    "lat": 43.64662,
    "lon": 3.805834,
    "name": "Terroir d\u0027Alsace",
    "url": ""
  },
  {
    "lat": 43.647057,
    "lon": 3.806548,
    "name": "Art Studio",
    "url": ""
  },
  {
    "lat": 43.64616,
    "lon": 3.809119,
    "name": "Western Union",
    "url": ""
  },
  {
    "lat": 43.64579,
    "lon": 3.811115,
    "name": "Esso",
    "url": ""
  },
  {
    "lat": 43.64185,
    "lon": 3.81325,
    "name": "Uni\u0027Sons",
    "url": ""
  },
  {
    "lat": 43.637966,
    "lon": 3.814124,
    "name": "Palais des Sports Pierre De Coubertin",
    "url": ""
  },
  {
    "lat": 43.63941,
    "lon": 3.812879,
    "name": "West Count\u0027",
    "url": ""
  },
  {
    "lat": 43.63883,
    "lon": 3.813381,
    "name": "Boulodrome les Tritons",
    "url": ""
  },
  {
    "lat": 43.639786,
    "lon": 3.811455,
    "name": "Matelas \u0026 Sommiers",
    "url": ""
  },
  {
    "lat": 43.63364,
    "lon": 3.819532,
    "name": "La Chênaie Mixte",
    "url": "https://lh3.googleusercontent.com/V-7aWbJCoAomRxIyxHAJHx-WVOXsmQd4yTef0-IpYuRrEYSiH5i9Q43zDE-uZ5ztZykCWfSaK31V1sU0ri6gr66r8iE"
  },
  {
    "lat": 43.63229,
    "lon": 3.817057,
    "name": "Le Pin de Salzamann",
    "url": "https://lh3.googleusercontent.com/Z_SeBsUXkjB69ezMjerne1xMFavd5D2GCmXuUu0Cn954NuBZ2mPu0qHff7XNODZeXaFnQsgkEqW1fiQcUVN0OHxpbMW_xK89ey-hZMU0"
  },
  {
    "lat": 43.63321,
    "lon": 3.819289,
    "name": "Médiathèque Jean-Jacques Rousseau",
    "url": ""
  },
  {
    "lat": 43.639008,
    "lon": 3.817569,
    "name": "Pin d\u0027Alep",
    "url": "https://lh3.googleusercontent.com/B4Cvur6RJQv2rXPysOGCe_ry8DrjbPT_vsi-kqDfcVZXSaNNqjPAkyrXAkb_7mcKsMFIXUmpXi9XuKmbAuqAk6s0Vdf4FXjbfY0alAZyNg"
  },
  {
    "lat": 43.639526,
    "lon": 3.815606,
    "name": "Gallinule poule d\u0027eau",
    "url": "https://lh3.googleusercontent.com/lOu-hVVo6eK_q8srgU-Qn3Mj_IirnzRjfNWDaxkP0iddu71CEJgvH0kUzngbiwb4K35AMmX6WE0a5Zib0eLIeosnFQgLqH6XrnUrpCC_0g"
  },
  {
    "lat": 43.63872,
    "lon": 3.815943,
    "name": "Olivier",
    "url": "https://lh3.googleusercontent.com/1yracB5FNz2LgykjOdjintHpM68TnA6YkNsitE_h5_5xbLp0wGr_IcUoFrOTWUARyVg57d4-XqvLhKQ_IP_GQfs-JPOdwWE-19t9XS0T"
  },
  {
    "lat": 43.63831,
    "lon": 3.817395,
    "name": "Chêne Kermes",
    "url": "https://lh3.googleusercontent.com/bjPO4LGOmvv4FttIFY6xZj_J8DCK5aYaqJnHhpfmeEnuUi5K496lnGB9X85UeVWU07FNpW0oUEmT_ZaQ5mt3ZJORy3zACkWoCyCC2eqDWQ"
  },
  {
    "lat": 43.64063,
    "lon": 3.818636,
    "name": "darrin electro",
    "url": ""
  },
  {
    "lat": 43.63654,
    "lon": 3.81819,
    "name": "Terrain de boules paillade",
    "url": "https://lh3.googleusercontent.com/hWmXG4IAds71rNVY4jX6wxFUNHoLTd5JfoHNAQouuW1opxSq_3YwbThtmkL5ZpN3-j6hciaflQt6oCvkISTwkRMka5BgKBjreVm7Ktxf"
  },
  {
    "lat": 43.640778,
    "lon": 3.822568,
    "name": "Brice S\u0027elect",
    "url": ""
  },
  {
    "lat": 43.636307,
    "lon": 3.822995,
    "name": "Station Hauts de Massane ➊",
    "url": ""
  },
  {
    "lat": 43.64097,
    "lon": 3.820471,
    "name": "Votre Habitat",
    "url": ""
  },
  {
    "lat": 43.63249,
    "lon": 3.8201,
    "name": "Profession Sport et Loisirs 34",
    "url": ""
  },
  {
    "lat": 43.63562,
    "lon": 3.822061,
    "name": "Chemin des Cimes",
    "url": ""
  },
  {
    "lat": 43.632214,
    "lon": 3.82357,
    "name": "Corus DTS",
    "url": ""
  },
  {
    "lat": 43.634727,
    "lon": 3.823533,
    "name": "Carrefour Contact",
    "url": ""
  },
  {
    "lat": 43.632473,
    "lon": 3.824716,
    "name": "Europ\u0027Casse",
    "url": ""
  },
  {
    "lat": 43.631454,
    "lon": 3.820938,
    "name": "Food Corner | Montpellier",
    "url": ""
  },
  {
    "lat": 43.635025,
    "lon": 3.822911,
    "name": "Total Relais de Gimel",
    "url": ""
  },
  {
    "lat": 43.634495,
    "lon": 3.822128,
    "name": "Le figuier",
    "url": "https://lh3.googleusercontent.com/-kgl4avrNpzDoI702bRe2fVAbSSOpse4VdRAX_hpJQp7p6gsY_UAr0VrDY5chswyq8KJ8RH-mMKAmbE--ZiyWrPHuzw"
  },
  {
    "lat": 43.632874,
    "lon": 3.820678,
    "name": "Gymnase Jean-Bouin",
    "url": ""
  },
  {
    "lat": 43.63189,
    "lon": 3.821876,
    "name": "Leader Price",
    "url": ""
  },
  {
    "lat": 43.631233,
    "lon": 3.821903,
    "name": "Western Union",
    "url": ""
  },
  {
    "lat": 43.629055,
    "lon": 3.821404,
    "name": "Pcsupport34",
    "url": ""
  },
  {
    "lat": 43.62766,
    "lon": 3.820439,
    "name": "Mot\u0027son Créative",
    "url": ""
  },
  {
    "lat": 43.631306,
    "lon": 3.821345,
    "name": "Hajar Collection",
    "url": ""
  },
  {
    "lat": 43.62749,
    "lon": 3.81991,
    "name": "Lalla sultana - Caftans \u0026 Robes de mariage",
    "url": ""
  },
  {
    "lat": 43.62696,
    "lon": 3.82106,
    "name": "L’HOMME AU SHORT BLEU",
    "url": "https://lh3.googleusercontent.com/P0V0bQ6fa4cN5p2kKKCctHiR6DtVnnpRRLKECkDVFhVscPlb9dfUuIJvP8DDclH0Jpghcy9kJWOcz5I-qCawB51GJC3V_aXgi72mamLteQ"
  },
  {
    "lat": 43.630005,
    "lon": 3.821517,
    "name": "Coraline",
    "url": ""
  },
  {
    "lat": 43.630016,
    "lon": 3.821811,
    "name": "Danse Art",
    "url": "https://lh3.googleusercontent.com/hWz7gsO6NpBineLA8PdvHWaGEfiDCOecRX3IIXq8kGmWGswFWLAvieU9IxOdwwdyflvBa9BGfQnSYbT-VUEoOMHoF80"
  },
  {
    "lat": 43.627796,
    "lon": 3.817162,
    "name": "La Grande Boucherie d\u0027Excellence",
    "url": ""
  },
  {
    "lat": 43.626926,
    "lon": 3.819112,
    "name": "LES DEUX JOYEUSES",
    "url": "https://lh3.googleusercontent.com/WGNpmMMaT2Qy4TFTtFKl_Ukbr0HSbtvI0TOjVymtAgadDNlFH2CNkGay_cGTzZb6p7TqSG-09atE9UVTzme28xFmygT3XPFipzFZEqqW"
  },
  {
    "lat": 43.628345,
    "lon": 3.81602,
    "name": "Compagnie Didier Théron",
    "url": ""
  },
  {
    "lat": 43.629436,
    "lon": 3.818309,
    "name": "Allier Martine",
    "url": ""
  },
  {
    "lat": 43.624718,
    "lon": 3.817337,
    "name": "Restaurant L\u0027espadon montpellier",
    "url": ""
  },
  {
    "lat": 43.623577,
    "lon": 3.817178,
    "name": "Auto Ecole Atlas",
    "url": ""
  },
  {
    "lat": 43.62632,
    "lon": 3.818939,
    "name": "BC Construction",
    "url": ""
  },
  {
    "lat": 43.625195,
    "lon": 3.819179,
    "name": "Ultimate Propreté",
    "url": ""
  },
  {
    "lat": 43.6235,
    "lon": 3.816401,
    "name": "Tin Hinan",
    "url": ""
  },
  {
    "lat": 43.625614,
    "lon": 3.815286,
    "name": "Résurgences 34",
    "url": ""
  },
  {
    "lat": 43.626564,
    "lon": 3.818561,
    "name": "LE TIGRE",
    "url": "https://lh3.googleusercontent.com/DhfKKAb7IdnxrlLnwkS3xK4RwG7YXq58wWG7pBGzvVxGhnDqimHueT6i8KTbZcOeCd9EYI6H3Az4JV4mhws7_vGqJh89DjhxoVu4UTvfqg"
  },
  {
    "lat": 43.626247,
    "lon": 3.815045,
    "name": "Pharmacie de Corte",
    "url": ""
  },
  {
    "lat": 43.62515,
    "lon": 3.817335,
    "name": "Boutique Zora",
    "url": ""
  },
  {
    "lat": 43.62629,
    "lon": 3.817415,
    "name": "Herault Voyages",
    "url": ""
  },
  {
    "lat": 43.62562,
    "lon": 3.81763,
    "name": "Barber shop BOB 34",
    "url": ""
  },
  {
    "lat": 43.624386,
    "lon": 3.817784,
    "name": "Royale",
    "url": ""
  },
  {
    "lat": 43.624928,
    "lon": 3.824272,
    "name": "Comité Départemental sport adapté hérault",
    "url": ""
  },
  {
    "lat": 43.621838,
    "lon": 3.820773,
    "name": "Ofiaq",
    "url": ""
  },
  {
    "lat": 43.62554,
    "lon": 3.824562,
    "name": "Département Hérault",
    "url": ""
  },
  {
    "lat": 43.6245,
    "lon": 3.823118,
    "name": "Pierresvives",
    "url": ""
  },
  {
    "lat": 43.624767,
    "lon": 3.82261,
    "name": "CAPEB Hérault",
    "url": ""
  },
  {
    "lat": 43.626503,
    "lon": 3.819865,
    "name": "Secours Populaire Français",
    "url": ""
  },
  {
    "lat": 43.62526,
    "lon": 3.82295,
    "name": "District de l\u0027Hérault de Football",
    "url": ""
  },
  {
    "lat": 43.61965,
    "lon": 3.820188,
    "name": "Formation Concept",
    "url": ""
  },
  {
    "lat": 43.620316,
    "lon": 3.821345,
    "name": "ANTENNE BUREAUTIQUE ingelan",
    "url": ""
  },
  {
    "lat": 43.620422,
    "lon": 3.821933,
    "name": "Apmsa",
    "url": ""
  },
  {
    "lat": 43.62137,
    "lon": 3.823211,
    "name": "Agence Web COM-ON-NET",
    "url": ""
  },
  {
    "lat": 43.62178,
    "lon": 3.821481,
    "name": "Sardenne Marianne",
    "url": ""
  },
  {
    "lat": 43.619328,
    "lon": 3.820639,
    "name": "Elidem",
    "url": ""
  },
  {
    "lat": 43.618187,
    "lon": 3.822286,
    "name": "Ela Innovation",
    "url": ""
  },
  {
    "lat": 43.620632,
    "lon": 3.820105,
    "name": "Tint-Black-Protect",
    "url": ""
  },
  {
    "lat": 43.619312,
    "lon": 3.819764,
    "name": "Sas Scc",
    "url": ""
  },
  {
    "lat": 43.62037,
    "lon": 3.820627,
    "name": "Institut Al Cham Montpellier",
    "url": ""
  },
  {
    "lat": 43.617905,
    "lon": 3.824486,
    "name": "Mtcouleurs",
    "url": ""
  },
  {
    "lat": 43.62106,
    "lon": 3.821128,
    "name": "Vite et Bien",
    "url": ""
  },
  {
    "lat": 43.6198,
    "lon": 3.823102,
    "name": "Partenaire Dans les Competences et l\u0027Accompagnement",
    "url": ""
  },
  {
    "lat": 43.614086,
    "lon": 3.82335,
    "name": "Jardinier Paysagiste Montpellier | Art Des Jardins",
    "url": ""
  },
  {
    "lat": 43.616848,
    "lon": 3.822957,
    "name": "Montpellier Judo Olympic",
    "url": ""
  },
  {
    "lat": 43.61512,
    "lon": 3.82475,
    "name": "Hôtel Abelia",
    "url": ""
  },
  {
    "lat": 43.61395,
    "lon": 3.814748,
    "name": "Habitat Concept Immo",
    "url": ""
  },
  {
    "lat": 43.613564,
    "lon": 3.815234,
    "name": "Latin Fitness",
    "url": ""
  },
  {
    "lat": 43.619835,
    "lon": 3.81919,
    "name": "Consulat d\u0027algérie à Montpellier",
    "url": ""
  },
  {
    "lat": 43.621937,
    "lon": 3.815796,
    "name": "Adcours",
    "url": ""
  },
  {
    "lat": 43.620712,
    "lon": 3.81952,
    "name": "Beck Sécurité",
    "url": ""
  },
  {
    "lat": 43.621128,
    "lon": 3.817077,
    "name": "L\u0027oisis du sud",
    "url": ""
  },
  {
    "lat": 43.62053,
    "lon": 3.815759,
    "name": "BATOBOGAN",
    "url": "https://lh3.googleusercontent.com/RbT2BFCJ6gPhYA51ER-NfYt2xz4J_1RERmebdVqTAGeoa9yXlENvWl0KrwsG6H-hCAkAGsQpl6FsqDK_bvvGx2wxFc_h"
  },
  {
    "lat": 43.61932,
    "lon": 3.818666,
    "name": "objectifcode CENTRE d\u0027EXAMEN du CODE de la ROUTE",
    "url": ""
  },
  {
    "lat": 43.621647,
    "lon": 3.816841,
    "name": "Royal Halal Butcher",
    "url": ""
  },
  {
    "lat": 43.621723,
    "lon": 3.814341,
    "name": "Tennis Club la Paillade",
    "url": ""
  },
  {
    "lat": 43.62092,
    "lon": 3.814129,
    "name": "Communauté d\u0027Agglomération de Montpellier",
    "url": ""
  },
  {
    "lat": 43.618294,
    "lon": 3.80976,
    "name": "Liberty Gym Juvignac",
    "url": ""
  },
  {
    "lat": 43.618713,
    "lon": 3.809599,
    "name": "Neguine Traiteur",
    "url": ""
  },
  {
    "lat": 43.61835,
    "lon": 3.810486,
    "name": "Gouda",
    "url": ""
  },
  {
    "lat": 43.613617,
    "lon": 3.811408,
    "name": "Yzatis",
    "url": ""
  },
  {
    "lat": 43.616077,
    "lon": 3.813876,
    "name": "Clean Vapeur",
    "url": ""
  },
  {
    "lat": 43.61285,
    "lon": 3.8129,
    "name": "Fontaine Juvignac",
    "url": "https://lh3.googleusercontent.com/Kx8239598uHYuu7CLxieBylBTIgBxn7gzijkcYxUCPcstOQm6RfMXn798xjAVuwUmmenjRZ3j0zDAFzxgJMd0LIGRQ"
  },
  {
    "lat": 43.613136,
    "lon": 3.811535,
    "name": "Amelle Lavoye",
    "url": ""
  },
  {
    "lat": 43.61644,
    "lon": 3.809584,
    "name": "Judo Club Juvignac",
    "url": ""
  },
  {
    "lat": 43.613945,
    "lon": 3.814028,
    "name": "Le Richelieu",
    "url": ""
  },
  {
    "lat": 43.613304,
    "lon": 3.809663,
    "name": "Tout Autour",
    "url": ""
  },
  {
    "lat": 43.61337,
    "lon": 3.810432,
    "name": "Pachamama Juvignac",
    "url": ""
  },
  {
    "lat": 43.613113,
    "lon": 3.807985,
    "name": "La Poste",
    "url": ""
  },
  {
    "lat": 43.61361,
    "lon": 3.805855,
    "name": "Marché aux affaires",
    "url": ""
  },
  {
    "lat": 43.61292,
    "lon": 3.805184,
    "name": "Médiathèque Théodore Monod",
    "url": "https://lh3.googleusercontent.com/RcECgJvN3taBhUyFn5KuWAUH2CRWmgsUJ7NgOyF5JJf6WbW3XZPpef87B6tFcqRDWVdeLtRtQHlFGXw5ZCFm1O4tC1kxvdFWP0FekluL"
  },
  {
    "lat": 43.615185,
    "lon": 3.805123,
    "name": "Solpor",
    "url": ""
  },
  {
    "lat": 43.613495,
    "lon": 3.805424,
    "name": "Hommage aux Anciens combattants d\u0027Afrique du Nord",
    "url": "https://lh3.googleusercontent.com/KtQFgqWXQd9zThH5841bE10Gje-s84KxCR4vQJnifvnJjEeTKWwxjgPVVKQ5f-xu0eqJUixwwwqcPuV7_uHImLfsUZmlfP-IMvExU53R"
  },
  {
    "lat": 43.613216,
    "lon": 3.809064,
    "name": "Cache Cache",
    "url": ""
  },
  {
    "lat": 43.61344,
    "lon": 3.80696,
    "name": "Les Épicuriens - Brasserie - Restaurant Juvignac",
    "url": ""
  },
  {
    "lat": 43.615036,
    "lon": 3.808659,
    "name": "Juliette",
    "url": ""
  },
  {
    "lat": 43.613503,
    "lon": 3.809145,
    "name": "Intermarché station-service Juvignac",
    "url": ""
  },
  {
    "lat": 43.612743,
    "lon": 3.806206,
    "name": "Intersport",
    "url": ""
  },
  {
    "lat": 43.61553,
    "lon": 3.807746,
    "name": "Le Lavand\u0027eux",
    "url": ""
  },
  {
    "lat": 43.612778,
    "lon": 3.80702,
    "name": "WiSud",
    "url": ""
  },
  {
    "lat": 43.617657,
    "lon": 3.809563,
    "name": "Xaos Coiffure",
    "url": ""
  },
  {
    "lat": 43.61832,
    "lon": 3.808833,
    "name": "OC\u0027ARTis",
    "url": ""
  },
  {
    "lat": 43.618065,
    "lon": 3.80743,
    "name": "Depanelec34",
    "url": ""
  },
  {
    "lat": 43.623783,
    "lon": 3.813984,
    "name": "Dlt Demenagement",
    "url": ""
  },
  {
    "lat": 43.622543,
    "lon": 3.814637,
    "name": "C.B.T.S",
    "url": ""
  },
  {
    "lat": 43.622993,
    "lon": 3.812057,
    "name": "Montpellier G.r.s",
    "url": ""
  },
  {
    "lat": 43.62612,
    "lon": 3.814375,
    "name": "AXENTS",
    "url": ""
  },
  {
    "lat": 43.627686,
    "lon": 3.810494,
    "name": "Lightmann",
    "url": ""
  },
  {
    "lat": 43.628273,
    "lon": 3.810348,
    "name": "Cote Green",
    "url": ""
  },
  {
    "lat": 43.628494,
    "lon": 3.811137,
    "name": "Bistrot de Fontcaude",
    "url": ""
  },
  {
    "lat": 43.628468,
    "lon": 3.799604,
    "name": "1 Sourire",
    "url": ""
  },
  {
    "lat": 43.627804,
    "lon": 3.799271,
    "name": "Taxi Greencabby",
    "url": ""
  },
  {
    "lat": 43.629547,
    "lon": 3.797924,
    "name": "Proximity WEB Pro",
    "url": ""
  },
  {
    "lat": 43.62692,
    "lon": 3.799216,
    "name": "R\u0027Color",
    "url": ""
  },
  {
    "lat": 43.626213,
    "lon": 3.80307,
    "name": "Xavier Coste",
    "url": ""
  },
  {
    "lat": 43.626385,
    "lon": 3.800099,
    "name": "Emergence au Fil de l\u0027Eau",
    "url": ""
  },
  {
    "lat": 43.617893,
    "lon": 3.80136,
    "name": "Latin Fitness",
    "url": ""
  },
  {
    "lat": 43.613903,
    "lon": 3.802054,
    "name": "Jtm Creation",
    "url": ""
  },
  {
    "lat": 43.613056,
    "lon": 3.800798,
    "name": "Binter",
    "url": ""
  },
  {
    "lat": 43.613995,
    "lon": 3.801556,
    "name": "La Pause de Midi",
    "url": ""
  },
  {
    "lat": 43.61383,
    "lon": 3.803261,
    "name": "Class food/kebab broche/sandwich frais/tacos/livraison juvignac, stg,Pignan,Montarnaud",
    "url": ""
  },
  {
    "lat": 43.61394,
    "lon": 3.80003,
    "name": "McDonald\u0027s",
    "url": ""
  },
  {
    "lat": 43.61351,
    "lon": 3.804273,
    "name": "La Tete la Premiere",
    "url": ""
  },
  {
    "lat": 43.61355,
    "lon": 3.800756,
    "name": "Forma Sud",
    "url": ""
  },
  {
    "lat": 43.614086,
    "lon": 3.800662,
    "name": "EasyPermis Juvignac",
    "url": ""
  },
  {
    "lat": 43.616516,
    "lon": 3.795418,
    "name": "GiFi Juvignac",
    "url": ""
  },
  {
    "lat": 43.616543,
    "lon": 3.794793,
    "name": "BUT",
    "url": ""
  },
  {
    "lat": 43.6159,
    "lon": 3.797187,
    "name": "Medibail Montpellier",
    "url": ""
  },
  {
    "lat": 43.61602,
    "lon": 3.796498,
    "name": "NOVA LOCATION Juvignac",
    "url": ""
  },
  {
    "lat": 43.62004,
    "lon": 3.79918,
    "name": "Imagine St-Hubert",
    "url": ""
  },
  {
    "lat": 43.619183,
    "lon": 3.793192,
    "name": "Rapid Pare-Brise",
    "url": ""
  },
  {
    "lat": 43.619614,
    "lon": 3.789941,
    "name": "Brico Cash Juvignac (34)",
    "url": ""
  },
  {
    "lat": 43.618942,
    "lon": 3.789679,
    "name": "Aldi",
    "url": ""
  },
  {
    "lat": 43.618397,
    "lon": 3.789582,
    "name": "Seven Juvignac Courpouyran",
    "url": ""
  },
  {
    "lat": 43.61661,
    "lon": 3.789275,
    "name": "La Table de Tétouan - restaurant Marocain Juvignac-Montpellier",
    "url": ""
  },
  {
    "lat": 43.61741,
    "lon": 3.790869,
    "name": "Adapt Informatique",
    "url": ""
  },
  {
    "lat": 43.617447,
    "lon": 3.790028,
    "name": "Loxam",
    "url": ""
  },
  {
    "lat": 43.617058,
    "lon": 3.788473,
    "name": "Turfgrass Par Pelouses Vertes",
    "url": ""
  },
  {
    "lat": 43.621315,
    "lon": 3.787379,
    "name": "Fontenoy Christèle",
    "url": ""
  },
  {
    "lat": 43.63396,
    "lon": 3.801632,
    "name": "For Conseil",
    "url": ""
  },
  {
    "lat": 43.646088,
    "lon": 3.799561,
    "name": "Les Micocouliers",
    "url": ""
  },
  {
    "lat": 43.64319,
    "lon": 3.803535,
    "name": "ASDclic",
    "url": ""
  },
  {
    "lat": 43.64602,
    "lon": 3.803049,
    "name": "Le Mekong Ii",
    "url": ""
  },
  {
    "lat": 43.643024,
    "lon": 3.802422,
    "name": "Djl Maintenance",
    "url": ""
  },
  {
    "lat": 43.651154,
    "lon": 3.802453,
    "name": "Escalabel",
    "url": ""
  },
  {
    "lat": 43.647766,
    "lon": 3.799707,
    "name": "Association Montpellier Sauvetage",
    "url": ""
  },
  {
    "lat": 43.647804,
    "lon": 3.801852,
    "name": "Centre Socioculturel Gutenberg",
    "url": ""
  },
  {
    "lat": 43.647167,
    "lon": 3.801523,
    "name": "Boulodrome de la treille",
    "url": "https://lh3.googleusercontent.com/EL_REfZ3RWUk8FUk4d5mpM9IaH-uKRFtnHDJMOpwcskIQCMNrOXWlclldCgdijMo9mowUEfKDFtUl6sEpC3JoHOaeyilLH1J9IMrsG5O"
  },
  {
    "lat": 43.647373,
    "lon": 3.799645,
    "name": "Le Ciseau d\u0027Or",
    "url": ""
  },
  {
    "lat": 43.647705,
    "lon": 3.797392,
    "name": "Atelier de Reliure Bouyssieres",
    "url": ""
  },
  {
    "lat": 43.648323,
    "lon": 3.796201,
    "name": "Sam - La Grabelloise",
    "url": ""
  },
  {
    "lat": 43.6494,
    "lon": 3.796525,
    "name": "2Clicks",
    "url": ""
  },
  {
    "lat": 43.64683,
    "lon": 3.792085,
    "name": "Source de l\u0027Avy",
    "url": ""
  },
  {
    "lat": 43.64942,
    "lon": 3.794019,
    "name": "La source de lAvy",
    "url": ""
  },
  {
    "lat": 43.64721,
    "lon": 3.792682,
    "name": "Jeu pour enfant",
    "url": "https://lh3.googleusercontent.com/Y85TtzYI0Vz-TEd4MLRsWS0c92GbEv6RhArhT5tun8YSYSOrj4CBoigq47wBh9QnKOWt-feRxhBIutUG10hyz2Z7pQq3GOqPRm38MlE"
  },
  {
    "lat": 43.651268,
    "lon": 3.788517,
    "name": "Ponney Club la Soucarède",
    "url": ""
  },
  {
    "lat": 43.637817,
    "lon": 3.7827,
    "name": "Centre de Dressage les Oliviers",
    "url": ""
  },
  {
    "lat": 43.63321,
    "lon": 3.776132,
    "name": "Paillies Serge",
    "url": ""
  },
  {
    "lat": 43.61563,
    "lon": 3.778015,
    "name": "Sud Green Jardin",
    "url": ""
  },
  {
    "lat": 43.61667,
    "lon": 3.774894,
    "name": "Centre Equestre St. Georges d\u0027 Orques",
    "url": ""
  },
  {
    "lat": 43.60949,
    "lon": 3.7792,
    "name": "Omitofa - Kung fu Shaolin Quan - Montpellier",
    "url": ""
  },
  {
    "lat": 43.609695,
    "lon": 3.78085,
    "name": "La Sérithèque",
    "url": ""
  },
  {
    "lat": 43.610596,
    "lon": 3.78289,
    "name": "Club Orcas",
    "url": "https://lh3.googleusercontent.com/pA0hwNU1W5avFpHsxk3PgWnYaMuNPey1Ntzw-WGYScR7rm86fXXJQ57F1Tj1ORuFZfoEH-CSndy_y6Li_2LY9MT6oM7otXR8Ij-gfLv8"
  },
  {
    "lat": 43.610344,
    "lon": 3.781152,
    "name": "Les Bouchers de St Georges",
    "url": ""
  },
  {
    "lat": 43.611908,
    "lon": 3.783886,
    "name": "Tous en Ville Montpellier",
    "url": ""
  },
  {
    "lat": 43.609795,
    "lon": 3.780042,
    "name": "M Lorca Barthelemy",
    "url": ""
  },
  {
    "lat": 43.610188,
    "lon": 3.783924,
    "name": "Le Saint Georges - Bar Tabac Brasserie",
    "url": ""
  },
  {
    "lat": 43.61011,
    "lon": 3.783419,
    "name": "Fontaine du parc de la mairie",
    "url": "https://lh3.googleusercontent.com/ETBbURYtt0FLriYMMY9xrcQanNrr6lTXtRcOFRjgTHYp-CAVe4TZHOKIhk16QiJIfpVdJAgC-vCzQbUoLsmHsHMH5Q"
  },
  {
    "lat": 43.612747,
    "lon": 3.782467,
    "name": "Studio Essentiel",
    "url": ""
  },
  {
    "lat": 43.609856,
    "lon": 3.781551,
    "name": "Bibliothèque municipale.",
    "url": "https://lh3.googleusercontent.com/8uFdL8LgZJ4u2LhYk8J3Pg1IRp-1VoQxZJl6xrilC656ozJZkYBXtA4_CrdCTN9fZzTJPDqBmu6qp7QmAbxVFloEzIsizprvZ-iY6Pg"
  },
  {
    "lat": 43.60961,
    "lon": 3.782254,
    "name": "Plaque Thomas Jefferson",
    "url": "https://lh3.googleusercontent.com/32jTxVhTboBWMO2LsBUVAVyyR57EdrUne8851OlIFa1-FUzfei3bVR24V8ZOJ5Ex_4ZUGYkv_mwMVmp6nIufw-fDhw0Up4Wb7n_a5os38A"
  },
  {
    "lat": 43.61308,
    "lon": 3.776156,
    "name": "Réservoir Saint Georges",
    "url": "https://lh3.googleusercontent.com/uTU8Dk9fkELqGLmS6Hf6oDqbuaIRNCrZAWF4zAW_FEuqj6yCkVgDmdOG4NUEs43VwB4TuB3H2Q2C3KkN4wz3JYcAsqw"
  },
  {
    "lat": 43.610447,
    "lon": 3.778437,
    "name": "Ambe",
    "url": ""
  },
  {
    "lat": 43.61221,
    "lon": 3.776507,
    "name": "Insphy",
    "url": ""
  },
  {
    "lat": 43.61202,
    "lon": 3.779066,
    "name": "Limousine du Midi",
    "url": ""
  },
  {
    "lat": 43.607056,
    "lon": 3.784099,
    "name": "L\u0027ATELIER DE FRAN Restaurant traiteur épicerie fine",
    "url": ""
  },
  {
    "lat": 43.60654,
    "lon": 3.783561,
    "name": "Saint Georges Et Le Dragon",
    "url": "https://lh3.googleusercontent.com/6jDGaVkoM_QEH0o4Gl-LSBWTt4xUGfGpyGbJ2SrbDHB5KCDDhzxr8GBNUnFgWvqFDHpOHhshanNfPxeC1PhXLTu1Z2TOuEmbuCtJlsx_"
  },
  {
    "lat": 43.5944,
    "lon": 3.776455,
    "name": "Abbaye de Vignogoul",
    "url": ""
  },
  {
    "lat": 43.583767,
    "lon": 3.804208,
    "name": "Porte Ancienne",
    "url": "https://lh3.googleusercontent.com/4I8cKG8gRXVGPH8cSS9NWMiK0_OxCCElUeUpibeW6vvGgO2kPwt4EuqzFw9uypgFXwARE1YF4fzMrO2z5DIim94uUw"
  },
  {
    "lat": 43.58304,
    "lon": 3.803016,
    "name": "Parc Du Chateau",
    "url": ""
  },
  {
    "lat": 43.585304,
    "lon": 3.804122,
    "name": "Xalys Design",
    "url": ""
  },
  {
    "lat": 43.58493,
    "lon": 3.802011,
    "name": "Médiathèque Jean de la Fontaine",
    "url": ""
  },
  {
    "lat": 43.584553,
    "lon": 3.802823,
    "name": "Le Marché de la Mer",
    "url": ""
  },
  {
    "lat": 43.584606,
    "lon": 3.804188,
    "name": "Ancienne mairie",
    "url": "https://lh3.googleusercontent.com/4utfU1aJ2VvH-r-dkrcpRaGNf5parlTa2oBoV7Cg3_quB7MhF_JaDWpBDJvGLQ40N6X-nTcuogePevQDeVv-EZ7u072VlvDtpB0sitU"
  },
  {
    "lat": 43.587437,
    "lon": 3.80175,
    "name": "Méca Service Concession",
    "url": ""
  },
  {
    "lat": 43.59144,
    "lon": 3.801536,
    "name": "Stock\u0027n Go",
    "url": ""
  },
  {
    "lat": 43.59072,
    "lon": 3.800808,
    "name": "Le Vieux Moulin",
    "url": ""
  },
  {
    "lat": 43.58925,
    "lon": 3.800534,
    "name": "Eas\u0027image",
    "url": ""
  },
  {
    "lat": 43.59043,
    "lon": 3.799562,
    "name": "Lionel Herand Fraicheur \u0026 Saveurs",
    "url": ""
  },
  {
    "lat": 43.590256,
    "lon": 3.80025,
    "name": "MDI Automobiles",
    "url": ""
  },
  {
    "lat": 43.59251,
    "lon": 3.798278,
    "name": "Perspectiv",
    "url": ""
  },
  {
    "lat": 43.592575,
    "lon": 3.7991,
    "name": "Carte Noire Opérations S.A.S.",
    "url": ""
  },
  {
    "lat": 43.59176,
    "lon": 3.798804,
    "name": "Antimoustic.com",
    "url": ""
  },
  {
    "lat": 43.591545,
    "lon": 3.798447,
    "name": "Pépinière Guizard",
    "url": ""
  },
  {
    "lat": 43.606094,
    "lon": 3.785022,
    "name": "Tennis club de St Georges d Orques",
    "url": "https://lh3.googleusercontent.com/AhK6LFiHk-4id1momvZrvIDAKkmB-XHIyubu2M22Pivat_1-yikKQA2SZHb0GQCpLs9x08ZKksnSrmmA-7QbSFqbzEifDcfK0Wzgq-A"
  },
  {
    "lat": 43.609283,
    "lon": 3.788248,
    "name": "Pierre DELYS",
    "url": ""
  },
  {
    "lat": 43.61273,
    "lon": 3.799671,
    "name": "Pizzeria Pinède",
    "url": ""
  },
  {
    "lat": 43.60948,
    "lon": 3.800543,
    "name": "Tapae A l\u0027Oeil",
    "url": ""
  },
  {
    "lat": 43.61172,
    "lon": 3.799583,
    "name": "Imprimerie-Promo.Fr",
    "url": ""
  },
  {
    "lat": 43.610992,
    "lon": 3.804054,
    "name": "Olivier Automobiles",
    "url": ""
  },
  {
    "lat": 43.61122,
    "lon": 3.800328,
    "name": "3 C France",
    "url": ""
  },
  {
    "lat": 43.60993,
    "lon": 3.800554,
    "name": "Planet\u0027Indigo",
    "url": ""
  },
  {
    "lat": 43.610058,
    "lon": 3.799917,
    "name": "Pizz\u0027AS",
    "url": ""
  },
  {
    "lat": 43.60988,
    "lon": 3.802493,
    "name": "Transipack",
    "url": ""
  },
  {
    "lat": 43.611935,
    "lon": 3.804108,
    "name": "Vitality\u0027s",
    "url": ""
  },
  {
    "lat": 43.611263,
    "lon": 3.804468,
    "name": "Netto",
    "url": ""
  },
  {
    "lat": 43.595978,
    "lon": 3.814039,
    "name": "Le Lotus de Biar",
    "url": ""
  },
  {
    "lat": 43.6011,
    "lon": 3.805415,
    "name": "Château de Fourques vignoble et œnotourisme",
    "url": ""
  },
  {
    "lat": 43.601208,
    "lon": 3.806328,
    "name": "Château de Fourques EARL",
    "url": ""
  },
  {
    "lat": 43.611507,
    "lon": 3.806465,
    "name": "Brasserie le Rendez Vous",
    "url": ""
  },
  {
    "lat": 43.61242,
    "lon": 3.808544,
    "name": "Jean Vallon Coiffure",
    "url": ""
  },
  {
    "lat": 43.611996,
    "lon": 3.807521,
    "name": "Interview",
    "url": ""
  },
  {
    "lat": 43.61201,
    "lon": 3.806509,
    "name": "C.C.I.M",
    "url": ""
  },
  {
    "lat": 43.611195,
    "lon": 3.812268,
    "name": "Medimat",
    "url": ""
  },
  {
    "lat": 43.611725,
    "lon": 3.81437,
    "name": "Taillefer Amandine",
    "url": ""
  },
  {
    "lat": 43.612213,
    "lon": 3.809765,
    "name": "Wisud",
    "url": ""
  },
  {
    "lat": 43.604347,
    "lon": 3.80965,
    "name": "Château de Fourques",
    "url": ""
  },
  {
    "lat": 43.608467,
    "lon": 3.81638,
    "name": "SCP PREMIER ACTE Juvignac",
    "url": ""
  },
  {
    "lat": 43.610306,
    "lon": 3.815626,
    "name": "Château de Fourques",
    "url": ""
  },
  {
    "lat": 43.610634,
    "lon": 3.816359,
    "name": "Les Spécialités d\u0027Ailleurs",
    "url": ""
  },
  {
    "lat": 43.596535,
    "lon": 3.814819,
    "name": "Domaine de Biar",
    "url": ""
  },
  {
    "lat": 43.591698,
    "lon": 3.822197,
    "name": "La Compagnie du Lit",
    "url": ""
  },
  {
    "lat": 43.59296,
    "lon": 3.818337,
    "name": "Paintball Méditerranée",
    "url": ""
  },
  {
    "lat": 43.589096,
    "lon": 3.813049,
    "name": "Centre équestre du Portail Vert",
    "url": ""
  },